{"type": "FeatureCollection", "features": [{"type": "Feature", "properties": {"route_id": "LIM:Line:34-42", "service_id": "LIM:Timetable:2018-2019-M-L_V_IT-Semaine-00", "trip_id": "LIM:VehicleJourney:1197227-2018-2019-M-L_V_IT-Semaine-00", "trip_headsign": "Pl. W. Churchill quai A", "trip_short_name": null, "direction_id": 1, "wheelchair_accessible": 0, "shape_id": "shape_09"}, "geometry": {"type": "LineString", "coordinates": [[1.4044709999999998, 45.87225], [1.401525, 45.876723999999996], [1.399283, 45.878593], [1.398885, 45.874534999999995], [1.4015879999999998, 45.869316], [1.399154, 45.866253], [1.4071690000000001, 45.86605], [1.4066889999999999, 45.863003000000006], [1.4051209999999998, 45.858996999999995], [1.4005299999999998, 45.861603], [1.395615, 45.863224], [1.386119, 45.863009999999996], [1.349898, 45.851414], [1.346235, 45.848324], [1.3365209999999998, 45.843666], [1.303308, 45.83233], [1.300365, 45.83106], [1.297942, 45.830025], [1.295614, 45.829066999999995], [1.291339, 45.826775], [1.287454, 45.826073], [1.285107, 45.827225], [1.272726, 45.834179999999996], [1.268235, 45.83318], [1.264074, 45.832172], [1.25837, 45.83234], [1.25619, 45.83142], [1.2535040000000002, 45.831196000000006]]}}, {"type": "Feature", "properties": {"stop_url": null, "vehicle_type": null, "stop_id": "NAQ:Quay:42811", "stop_code": null, "platform_code": null, "wheelchair_boarding": 2, "stop_name": "A. Dubouch\u00e9", "zone_id": null, "parent_station": "NAQ:StopPlace:29555", "stop_timezone": null, "stop_desc": null, "location_type": 0}, "geometry": {"type": "Point", "coordinates": [1.25619, 45.83142]}}, {"type": "Feature", "properties": {"stop_url": null, "vehicle_type": null, "stop_id": "NAQ:Quay:42812", "stop_code": null, "platform_code": null, "wheelchair_boarding": 2, "stop_name": "Op\u00e9ra", "zone_id": null, "parent_station": "NAQ:StopPlace:29563", "stop_timezone": null, "stop_desc": null, "location_type": 0}, "geometry": {"type": "Point", "coordinates": [1.25837, 45.83234]}}, {"type": "Feature", "properties": {"stop_url": null, "vehicle_type": null, "stop_id": "NAQ:Quay:44595", "stop_code": null, "platform_code": null, "wheelchair_boarding": 2, "stop_name": "Pl. W. Churchill", "zone_id": null, "parent_station": "NAQ:StopPlace:30938", "stop_timezone": null, "stop_desc": null, "location_type": 0}, "geometry": {"type": "Point", "coordinates": [1.2535040000000002, 45.831196000000006]}}, {"type": "Feature", "properties": {"stop_url": null, "vehicle_type": null, "stop_id": "NAQ:Quay:43492", "stop_code": null, "platform_code": null, "wheelchair_boarding": 2, "stop_name": "Grand Colombier", "zone_id": null, "parent_station": "NAQ:StopPlace:29974", "stop_timezone": null, "stop_desc": null, "location_type": 0}, "geometry": {"type": "Point", "coordinates": [1.4051209999999998, 45.858996999999995]}}, {"type": "Feature", "properties": {"stop_url": null, "vehicle_type": null, "stop_id": "NAQ:Quay:43491", "stop_code": null, "platform_code": null, "wheelchair_boarding": 2, "stop_name": "Bellevue Bas", "zone_id": null, "parent_station": "NAQ:StopPlace:29946", "stop_timezone": null, "stop_desc": null, "location_type": 0}, "geometry": {"type": "Point", "coordinates": [1.399283, 45.878593]}}, {"type": "Feature", "properties": {"stop_url": null, "vehicle_type": null, "stop_id": "NAQ:Quay:43490", "stop_code": null, "platform_code": null, "wheelchair_boarding": 2, "stop_name": "Ch\u00e2teau d'Eau", "zone_id": null, "parent_station": "NAQ:StopPlace:29945", "stop_timezone": null, "stop_desc": null, "location_type": 0}, "geometry": {"type": "Point", "coordinates": [1.349898, 45.851414]}}, {"type": "Feature", "properties": {"stop_url": null, "vehicle_type": null, "stop_id": "NAQ:Quay:43498", "stop_code": null, "platform_code": null, "wheelchair_boarding": 2, "stop_name": "La Jouvinerie", "zone_id": null, "parent_station": "NAQ:StopPlace:29976", "stop_timezone": null, "stop_desc": null, "location_type": 0}, "geometry": {"type": "Point", "coordinates": [1.395615, 45.863224]}}, {"type": "Feature", "properties": {"stop_url": null, "vehicle_type": null, "stop_id": "NAQ:Quay:43497", "stop_code": null, "platform_code": null, "wheelchair_boarding": 2, "stop_name": "Les Renardi\u00e8res", "zone_id": null, "parent_station": "NAQ:StopPlace:29975", "stop_timezone": null, "stop_desc": null, "location_type": 0}, "geometry": {"type": "Point", "coordinates": [1.398885, 45.874534999999995]}}, {"type": "Feature", "properties": {"stop_url": null, "vehicle_type": null, "stop_id": "NAQ:Quay:43484", "stop_code": null, "platform_code": null, "wheelchair_boarding": 2, "stop_name": "La Croix de la Lieue", "zone_id": null, "parent_station": "NAQ:StopPlace:29970", "stop_timezone": null, "stop_desc": null, "location_type": 0}, "geometry": {"type": "Point", "coordinates": [1.3365209999999998, 45.843666]}}, {"type": "Feature", "properties": {"stop_url": null, "vehicle_type": null, "stop_id": "NAQ:Quay:42852", "stop_code": null, "platform_code": null, "wheelchair_boarding": 2, "stop_name": "Limoges - Place Jourdan*", "zone_id": null, "parent_station": "NAQ:StopPlace:32478", "stop_timezone": null, "stop_desc": null, "location_type": 0}, "geometry": {"type": "Point", "coordinates": [1.264074, 45.832172]}}, {"type": "Feature", "properties": {"stop_url": null, "vehicle_type": null, "stop_id": "NAQ:Quay:42853", "stop_code": null, "platform_code": null, "wheelchair_boarding": 2, "stop_name": "L. Blum", "zone_id": null, "parent_station": "NAQ:StopPlace:29603", "stop_timezone": null, "stop_desc": null, "location_type": 0}, "geometry": {"type": "Point", "coordinates": [1.300365, 45.83106]}}, {"type": "Feature", "properties": {"stop_url": null, "vehicle_type": null, "stop_id": "NAQ:Quay:42839", "stop_code": null, "platform_code": null, "wheelchair_boarding": 2, "stop_name": "11 Novembre", "zone_id": null, "parent_station": "NAQ:StopPlace:29593", "stop_timezone": null, "stop_desc": null, "location_type": 0}, "geometry": {"type": "Point", "coordinates": [1.295614, 45.829066999999995]}}, {"type": "Feature", "properties": {"stop_url": null, "vehicle_type": null, "stop_id": "NAQ:Quay:42896", "stop_code": null, "platform_code": null, "wheelchair_boarding": 2, "stop_name": "J. Rebier", "zone_id": null, "parent_station": "NAQ:StopPlace:29632", "stop_timezone": null, "stop_desc": null, "location_type": 0}, "geometry": {"type": "Point", "coordinates": [1.303308, 45.83233]}}, {"type": "Feature", "properties": {"stop_url": null, "vehicle_type": null, "stop_id": "NAQ:Quay:42880", "stop_code": null, "platform_code": null, "wheelchair_boarding": 2, "stop_name": "J. Gagnant", "zone_id": null, "parent_station": "NAQ:StopPlace:29624", "stop_timezone": null, "stop_desc": null, "location_type": 0}, "geometry": {"type": "Point", "coordinates": [1.272726, 45.834179999999996]}}, {"type": "Feature", "properties": {"stop_url": null, "vehicle_type": null, "stop_id": "NAQ:Quay:42881", "stop_code": null, "platform_code": null, "wheelchair_boarding": 2, "stop_name": "Panazol Rte de Lyon", "zone_id": null, "parent_station": "NAQ:StopPlace:29536", "stop_timezone": null, "stop_desc": null, "location_type": 0}, "geometry": {"type": "Point", "coordinates": [1.287454, 45.826073]}}, {"type": "Feature", "properties": {"stop_url": null, "vehicle_type": null, "stop_id": "NAQ:Quay:42877", "stop_code": null, "platform_code": null, "wheelchair_boarding": 2, "stop_name": "Le Chalet", "zone_id": null, "parent_station": "NAQ:StopPlace:29621", "stop_timezone": null, "stop_desc": null, "location_type": 0}, "geometry": {"type": "Point", "coordinates": [1.297942, 45.830025]}}, {"type": "Feature", "properties": {"stop_url": null, "vehicle_type": null, "stop_id": "NAQ:Quay:42904", "stop_code": null, "platform_code": null, "wheelchair_boarding": 2, "stop_name": "S\u00e9curit\u00e9 Sociale", "zone_id": null, "parent_station": "NAQ:StopPlace:29634", "stop_timezone": null, "stop_desc": null, "location_type": 0}, "geometry": {"type": "Point", "coordinates": [1.268235, 45.83318]}}, {"type": "Feature", "properties": {"stop_url": null, "vehicle_type": null, "stop_id": "NAQ:Quay:42905", "stop_code": null, "platform_code": null, "wheelchair_boarding": 2, "stop_name": "Fargeas", "zone_id": null, "parent_station": "NAQ:StopPlace:29631", "stop_timezone": null, "stop_desc": null, "location_type": 0}, "geometry": {"type": "Point", "coordinates": [1.291339, 45.826775]}}, {"type": "Feature", "properties": {"stop_url": null, "vehicle_type": null, "stop_id": "NAQ:Quay:43434", "stop_code": null, "platform_code": null, "wheelchair_boarding": 2, "stop_name": "St Just Bourg", "zone_id": null, "parent_station": "NAQ:StopPlace:29944", "stop_timezone": null, "stop_desc": null, "location_type": 0}, "geometry": {"type": "Point", "coordinates": [1.386119, 45.863009999999996]}}, {"type": "Feature", "properties": {"stop_url": null, "vehicle_type": null, "stop_id": "NAQ:Quay:43431", "stop_code": null, "platform_code": null, "wheelchair_boarding": 2, "stop_name": "St Just Grateloube", "zone_id": null, "parent_station": "NAQ:StopPlace:29942", "stop_timezone": null, "stop_desc": null, "location_type": 0}, "geometry": {"type": "Point", "coordinates": [1.4044709999999998, 45.87225]}}, {"type": "Feature", "properties": {"stop_url": null, "vehicle_type": null, "stop_id": "NAQ:Quay:43479", "stop_code": null, "platform_code": null, "wheelchair_boarding": 2, "stop_name": "Fr\u00e9gefond", "zone_id": null, "parent_station": "NAQ:StopPlace:29968", "stop_timezone": null, "stop_desc": null, "location_type": 0}, "geometry": {"type": "Point", "coordinates": [1.4071690000000001, 45.86605]}}, {"type": "Feature", "properties": {"stop_url": null, "vehicle_type": null, "stop_id": "NAQ:Quay:43478", "stop_code": null, "platform_code": null, "wheelchair_boarding": 2, "stop_name": "Bellevue Haut", "zone_id": null, "parent_station": "NAQ:StopPlace:29967", "stop_timezone": null, "stop_desc": null, "location_type": 0}, "geometry": {"type": "Point", "coordinates": [1.401525, 45.876723999999996]}}, {"type": "Feature", "properties": {"stop_url": null, "vehicle_type": null, "stop_id": "NAQ:Quay:43462", "stop_code": null, "platform_code": null, "wheelchair_boarding": 2, "stop_name": "All\u00e9e du Golf", "zone_id": null, "parent_station": "NAQ:StopPlace:29959", "stop_timezone": null, "stop_desc": null, "location_type": 0}, "geometry": {"type": "Point", "coordinates": [1.346235, 45.848324]}}, {"type": "Feature", "properties": {"stop_url": null, "vehicle_type": null, "stop_id": "NAQ:Quay:43464", "stop_code": null, "platform_code": null, "wheelchair_boarding": 2, "stop_name": "Les Cl\u00e9di\u00e8res", "zone_id": null, "parent_station": "NAQ:StopPlace:29958", "stop_timezone": null, "stop_desc": null, "location_type": 0}, "geometry": {"type": "Point", "coordinates": [1.399154, 45.866253]}}, {"type": "Feature", "properties": {"stop_url": null, "vehicle_type": null, "stop_id": "NAQ:Quay:43458", "stop_code": null, "platform_code": null, "wheelchair_boarding": 2, "stop_name": "Les Molletteries", "zone_id": null, "parent_station": "NAQ:StopPlace:29954", "stop_timezone": null, "stop_desc": null, "location_type": 0}, "geometry": {"type": "Point", "coordinates": [1.4015879999999998, 45.869316]}}, {"type": "Feature", "properties": {"stop_url": null, "vehicle_type": null, "stop_id": "NAQ:Quay:43441", "stop_code": null, "platform_code": null, "wheelchair_boarding": 2, "stop_name": "Petit Colombier", "zone_id": null, "parent_station": "NAQ:StopPlace:29948", "stop_timezone": null, "stop_desc": null, "location_type": 0}, "geometry": {"type": "Point", "coordinates": [1.4005299999999998, 45.861603]}}, {"type": "Feature", "properties": {"stop_url": null, "vehicle_type": null, "stop_id": "NAQ:Quay:43445", "stop_code": null, "platform_code": null, "wheelchair_boarding": 2, "stop_name": "Pierre Brune", "zone_id": null, "parent_station": "NAQ:StopPlace:29951", "stop_timezone": null, "stop_desc": null, "location_type": 0}, "geometry": {"type": "Point", "coordinates": [1.4066889999999999, 45.863003000000006]}}, {"type": "Feature", "properties": {"stop_url": null, "vehicle_type": null, "stop_id": "NAQ:Quay:42731", "stop_code": null, "platform_code": null, "wheelchair_boarding": 2, "stop_name": "Chastaingt", "zone_id": null, "parent_station": "NAQ:StopPlace:29534", "stop_timezone": null, "stop_desc": null, "location_type": 0}, "geometry": {"type": "Point", "coordinates": [1.285107, 45.827225]}}]}