{"type": "FeatureCollection", "features": [{"type": "Feature", "properties": {"route_id": "LIM:Line:8-46", "service_id": "LIM:Timetable:2018-2019-M-Sam-Samedi-00", "trip_id": "LIM:VehicleJourney:1008093-2018-2019-M-Sam-Samedi-00", "trip_headsign": "Mal Joffre", "trip_short_name": null, "direction_id": 1, "wheelchair_accessible": 0, "shape_id": "shape_17"}, "geometry": {"type": "LineString", "coordinates": [[1.3126659999999999, 45.86377], [1.310251, 45.867798], [1.308935, 45.870113], [1.300355, 45.870734999999996], [1.306548, 45.87473], [1.312389, 45.871056], [1.316338, 45.86808], [1.3198940000000001, 45.866623], [1.322244, 45.86504], [1.322765, 45.862453], [1.317847, 45.860640000000004], [1.3088389999999999, 45.855965000000005], [1.300465, 45.85147], [1.298107, 45.850173999999996], [1.2905739999999999, 45.845352], [1.285893, 45.843384], [1.284409, 45.84492], [1.28129, 45.843983], [1.282494, 45.84203], [1.285105, 45.842857], [1.286441, 45.841637], [1.2834809999999999, 45.839664], [1.272726, 45.834179999999996], [1.268235, 45.83318], [1.264074, 45.832172], [1.25837, 45.83234], [1.25619, 45.83142], [1.2536370000000001, 45.831066], [1.250185, 45.832474], [1.246987, 45.834156], [1.244545, 45.8355], [1.242048, 45.836791999999996], [1.2390860000000001, 45.83822], [1.2370860000000001, 45.839195000000004], [1.2334319999999999, 45.841797], [1.23158, 45.84332], [1.2310729999999999, 45.84465], [1.229427, 45.843456], [1.228718, 45.8409], [1.2301600000000001, 45.839165], [1.229474, 45.837574], [1.226688, 45.835873]]}}, {"type": "Feature", "properties": {"stop_name": "B. Frachon", "vehicle_type": null, "stop_desc": null, "location_type": 0, "wheelchair_boarding": 2, "parent_station": "NAQ:StopPlace:29759", "stop_code": null, "platform_code": null, "stop_url": null, "stop_timezone": null, "stop_id": "NAQ:Quay:43091", "zone_id": null}, "geometry": {"type": "Point", "coordinates": [1.298107, 45.850173999999996]}}, {"type": "Feature", "properties": {"stop_name": "Pont St Andr\u00e9", "vehicle_type": null, "stop_desc": null, "location_type": 0, "wheelchair_boarding": 2, "parent_station": "NAQ:StopPlace:29760", "stop_code": null, "platform_code": null, "stop_url": null, "stop_timezone": null, "stop_id": "NAQ:Quay:43088", "zone_id": null}, "geometry": {"type": "Point", "coordinates": [1.2834809999999999, 45.839664]}}, {"type": "Feature", "properties": {"stop_name": "A. Dubouch\u00e9", "vehicle_type": null, "stop_desc": null, "location_type": 0, "wheelchair_boarding": 2, "parent_station": "NAQ:StopPlace:29555", "stop_code": null, "platform_code": null, "stop_url": null, "stop_timezone": null, "stop_id": "NAQ:Quay:42811", "zone_id": null}, "geometry": {"type": "Point", "coordinates": [1.25619, 45.83142]}}, {"type": "Feature", "properties": {"stop_name": "Op\u00e9ra", "vehicle_type": null, "stop_desc": null, "location_type": 0, "wheelchair_boarding": 2, "parent_station": "NAQ:StopPlace:29563", "stop_code": null, "platform_code": null, "stop_url": null, "stop_timezone": null, "stop_id": "NAQ:Quay:42812", "zone_id": null}, "geometry": {"type": "Point", "coordinates": [1.25837, 45.83234]}}, {"type": "Feature", "properties": {"stop_name": "Mal Joffre", "vehicle_type": null, "stop_desc": null, "location_type": 0, "wheelchair_boarding": 2, "parent_station": "NAQ:StopPlace:29724", "stop_code": null, "platform_code": null, "stop_url": null, "stop_timezone": null, "stop_id": "NAQ:Quay:43037", "zone_id": null}, "geometry": {"type": "Point", "coordinates": [1.226688, 45.835873]}}, {"type": "Feature", "properties": {"stop_name": "Le Poudrier", "vehicle_type": null, "stop_desc": null, "location_type": 0, "wheelchair_boarding": 2, "parent_station": "NAQ:StopPlace:29748", "stop_code": null, "platform_code": null, "stop_url": null, "stop_timezone": null, "stop_id": "NAQ:Quay:43079", "zone_id": null}, "geometry": {"type": "Point", "coordinates": [1.2905739999999999, 45.845352]}}, {"type": "Feature", "properties": {"stop_name": "H. Bergson", "vehicle_type": null, "stop_desc": null, "location_type": 0, "wheelchair_boarding": 2, "parent_station": "NAQ:StopPlace:29763", "stop_code": null, "platform_code": null, "stop_url": null, "stop_timezone": null, "stop_id": "NAQ:Quay:43103", "zone_id": null}, "geometry": {"type": "Point", "coordinates": [1.286441, 45.841637]}}, {"type": "Feature", "properties": {"stop_name": "Limoges - Place Jourdan*", "vehicle_type": null, "stop_desc": null, "location_type": 0, "wheelchair_boarding": 2, "parent_station": "NAQ:StopPlace:32478", "stop_code": null, "platform_code": null, "stop_url": null, "stop_timezone": null, "stop_id": "NAQ:Quay:42852", "zone_id": null}, "geometry": {"type": "Point", "coordinates": [1.264074, 45.832172]}}, {"type": "Feature", "properties": {"stop_name": "J. Gagnant", "vehicle_type": null, "stop_desc": null, "location_type": 0, "wheelchair_boarding": 2, "parent_station": "NAQ:StopPlace:29624", "stop_code": null, "platform_code": null, "stop_url": null, "stop_timezone": null, "stop_id": "NAQ:Quay:42880", "zone_id": null}, "geometry": {"type": "Point", "coordinates": [1.272726, 45.834179999999996]}}, {"type": "Feature", "properties": {"stop_name": "S\u00e9curit\u00e9 Sociale", "vehicle_type": null, "stop_desc": null, "location_type": 0, "wheelchair_boarding": 2, "parent_station": "NAQ:StopPlace:29634", "stop_code": null, "platform_code": null, "stop_url": null, "stop_timezone": null, "stop_id": "NAQ:Quay:42904", "zone_id": null}, "geometry": {"type": "Point", "coordinates": [1.268235, 45.83318]}}, {"type": "Feature", "properties": {"stop_name": "G. Clemenceau", "vehicle_type": null, "stop_desc": null, "location_type": 0, "wheelchair_boarding": 2, "parent_station": "NAQ:StopPlace:31069", "stop_code": null, "platform_code": null, "stop_url": null, "stop_timezone": null, "stop_id": "NAQ:Quay:44769", "zone_id": null}, "geometry": {"type": "Point", "coordinates": [1.310251, 45.867798]}}, {"type": "Feature", "properties": {"stop_name": "J. Moulin", "vehicle_type": null, "stop_desc": null, "location_type": 0, "wheelchair_boarding": 2, "parent_station": "NAQ:StopPlace:31072", "stop_code": null, "platform_code": null, "stop_url": null, "stop_timezone": null, "stop_id": "NAQ:Quay:44768", "zone_id": null}, "geometry": {"type": "Point", "coordinates": [1.317847, 45.860640000000004]}}, {"type": "Feature", "properties": {"stop_name": "Cit\u00e9 R. Dautry", "vehicle_type": null, "stop_desc": null, "location_type": 0, "wheelchair_boarding": 2, "parent_station": "NAQ:StopPlace:31074", "stop_code": null, "platform_code": null, "stop_url": null, "stop_timezone": null, "stop_id": "NAQ:Quay:44766", "zone_id": null}, "geometry": {"type": "Point", "coordinates": [1.284409, 45.84492]}}, {"type": "Feature", "properties": {"stop_name": "J. Jaur\u00e8s", "vehicle_type": null, "stop_desc": null, "location_type": 0, "wheelchair_boarding": 2, "parent_station": "NAQ:StopPlace:31073", "stop_code": null, "platform_code": null, "stop_url": null, "stop_timezone": null, "stop_id": "NAQ:Quay:44763", "zone_id": null}, "geometry": {"type": "Point", "coordinates": [1.322765, 45.862453]}}, {"type": "Feature", "properties": {"stop_name": "R.V.I.", "vehicle_type": null, "stop_desc": null, "location_type": 0, "wheelchair_boarding": 2, "parent_station": "NAQ:StopPlace:29837", "stop_code": null, "platform_code": null, "stop_url": null, "stop_timezone": null, "stop_id": "NAQ:Quay:44762", "zone_id": null}, "geometry": {"type": "Point", "coordinates": [1.300465, 45.85147]}}, {"type": "Feature", "properties": {"stop_name": "Super Palais", "vehicle_type": null, "stop_desc": null, "location_type": 0, "wheelchair_boarding": 2, "parent_station": "NAQ:StopPlace:31066", "stop_code": null, "platform_code": null, "stop_url": null, "stop_timezone": null, "stop_id": "NAQ:Quay:44753", "zone_id": null}, "geometry": {"type": "Point", "coordinates": [1.316338, 45.86808]}}, {"type": "Feature", "properties": {"stop_name": "Rapha\u00ebl", "vehicle_type": null, "stop_desc": null, "location_type": 0, "wheelchair_boarding": 2, "parent_station": "NAQ:StopPlace:31065", "stop_code": null, "platform_code": null, "stop_url": null, "stop_timezone": null, "stop_id": "NAQ:Quay:44752", "zone_id": null}, "geometry": {"type": "Point", "coordinates": [1.282494, 45.84203]}}, {"type": "Feature", "properties": {"stop_name": "P\u00f4le Fougeras quai A", "vehicle_type": null, "stop_desc": null, "location_type": 0, "wheelchair_boarding": 2, "parent_station": "NAQ:StopPlace:29539", "stop_code": null, "platform_code": null, "stop_url": null, "stop_timezone": null, "stop_id": "NAQ:Quay:44747", "zone_id": null}, "geometry": {"type": "Point", "coordinates": [1.300355, 45.870734999999996]}}, {"type": "Feature", "properties": {"stop_name": "H. Bergson", "vehicle_type": null, "stop_desc": null, "location_type": 0, "wheelchair_boarding": 2, "parent_station": "NAQ:StopPlace:29763", "stop_code": null, "platform_code": null, "stop_url": null, "stop_timezone": null, "stop_id": "NAQ:Quay:44745", "zone_id": null}, "geometry": {"type": "Point", "coordinates": [1.285105, 45.842857]}}, {"type": "Feature", "properties": {"stop_name": "J. Giraudoux", "vehicle_type": null, "stop_desc": null, "location_type": 0, "wheelchair_boarding": 2, "parent_station": "NAQ:StopPlace:31062", "stop_code": null, "platform_code": null, "stop_url": null, "stop_timezone": null, "stop_id": "NAQ:Quay:44748", "zone_id": null}, "geometry": {"type": "Point", "coordinates": [1.312389, 45.871056]}}, {"type": "Feature", "properties": {"stop_name": "Ventenat", "vehicle_type": null, "stop_desc": null, "location_type": 0, "wheelchair_boarding": 2, "parent_station": "NAQ:StopPlace:31058", "stop_code": null, "platform_code": null, "stop_url": null, "stop_timezone": null, "stop_id": "NAQ:Quay:44732", "zone_id": null}, "geometry": {"type": "Point", "coordinates": [1.3088389999999999, 45.855965000000005]}}, {"type": "Feature", "properties": {"stop_name": "Pl. W. Churchill", "vehicle_type": null, "stop_desc": null, "location_type": 0, "wheelchair_boarding": 2, "parent_station": "NAQ:StopPlace:30938", "stop_code": null, "platform_code": null, "stop_url": null, "stop_timezone": null, "stop_id": "NAQ:Quay:44567", "zone_id": null}, "geometry": {"type": "Point", "coordinates": [1.2536370000000001, 45.831066]}}, {"type": "Feature", "properties": {"stop_name": "Le Palais Beauregard", "vehicle_type": null, "stop_desc": null, "location_type": 0, "wheelchair_boarding": 2, "parent_station": "NAQ:StopPlace:31082", "stop_code": null, "platform_code": null, "stop_url": null, "stop_timezone": null, "stop_id": "NAQ:Quay:44790", "zone_id": null}, "geometry": {"type": "Point", "coordinates": [1.3126659999999999, 45.86377]}}, {"type": "Feature", "properties": {"stop_name": "Le Palais  Mairie", "vehicle_type": null, "stop_desc": null, "location_type": 0, "wheelchair_boarding": 2, "parent_station": "NAQ:StopPlace:31084", "stop_code": null, "platform_code": null, "stop_url": null, "stop_timezone": null, "stop_id": "NAQ:Quay:44793", "zone_id": null}, "geometry": {"type": "Point", "coordinates": [1.322244, 45.86504]}}, {"type": "Feature", "properties": {"stop_name": "Tr\u00e9saguet", "vehicle_type": null, "stop_desc": null, "location_type": 0, "wheelchair_boarding": 2, "parent_station": "NAQ:StopPlace:31080", "stop_code": null, "platform_code": null, "stop_url": null, "stop_timezone": null, "stop_id": "NAQ:Quay:44792", "zone_id": null}, "geometry": {"type": "Point", "coordinates": [1.23158, 45.84332]}}, {"type": "Feature", "properties": {"stop_name": "Carr. du 8 Mai", "vehicle_type": null, "stop_desc": null, "location_type": 0, "wheelchair_boarding": 2, "parent_station": "NAQ:StopPlace:29835", "stop_code": null, "platform_code": null, "stop_url": null, "stop_timezone": null, "stop_id": "NAQ:Quay:43216", "zone_id": null}, "geometry": {"type": "Point", "coordinates": [1.246987, 45.834156]}}, {"type": "Feature", "properties": {"stop_name": "Mauvendi\u00e8re", "vehicle_type": null, "stop_desc": null, "location_type": 0, "wheelchair_boarding": 2, "parent_station": "NAQ:StopPlace:29830", "stop_code": null, "platform_code": null, "stop_url": null, "stop_timezone": null, "stop_id": "NAQ:Quay:43210", "zone_id": null}, "geometry": {"type": "Point", "coordinates": [1.250185, 45.832474]}}, {"type": "Feature", "properties": {"stop_name": "3 Chalets", "vehicle_type": null, "stop_desc": null, "location_type": 0, "wheelchair_boarding": 2, "parent_station": "NAQ:StopPlace:31079", "stop_code": null, "platform_code": null, "stop_url": null, "stop_timezone": null, "stop_id": "NAQ:Quay:44780", "zone_id": null}, "geometry": {"type": "Point", "coordinates": [1.28129, 45.843983]}}, {"type": "Feature", "properties": {"stop_name": "Restaurant Universitaire", "vehicle_type": null, "stop_desc": null, "location_type": 0, "wheelchair_boarding": 2, "parent_station": "NAQ:StopPlace:29834", "stop_code": null, "platform_code": null, "stop_url": null, "stop_timezone": null, "stop_id": "NAQ:Quay:43214", "zone_id": null}, "geometry": {"type": "Point", "coordinates": [1.2370860000000001, 45.839195000000004]}}, {"type": "Feature", "properties": {"stop_name": "Corgnac C.C.", "vehicle_type": null, "stop_desc": null, "location_type": 0, "wheelchair_boarding": 2, "parent_station": "NAQ:StopPlace:29833", "stop_code": null, "platform_code": null, "stop_url": null, "stop_timezone": null, "stop_id": "NAQ:Quay:43213", "zone_id": null}, "geometry": {"type": "Point", "coordinates": [1.2334319999999999, 45.841797]}}, {"type": "Feature", "properties": {"stop_name": "J. Rebier", "vehicle_type": null, "stop_desc": null, "location_type": 0, "wheelchair_boarding": 2, "parent_station": "NAQ:StopPlace:31081", "stop_code": null, "platform_code": null, "stop_url": null, "stop_timezone": null, "stop_id": "NAQ:Quay:44786", "zone_id": null}, "geometry": {"type": "Point", "coordinates": [1.2310729999999999, 45.84465]}}, {"type": "Feature", "properties": {"stop_name": "V. Auriol", "vehicle_type": null, "stop_desc": null, "location_type": 0, "wheelchair_boarding": 2, "parent_station": "NAQ:StopPlace:29832", "stop_code": null, "platform_code": null, "stop_url": null, "stop_timezone": null, "stop_id": "NAQ:Quay:43212", "zone_id": null}, "geometry": {"type": "Point", "coordinates": [1.228718, 45.8409]}}, {"type": "Feature", "properties": {"stop_name": "J. Le Bail", "vehicle_type": null, "stop_desc": null, "location_type": 0, "wheelchair_boarding": 2, "parent_station": "NAQ:StopPlace:29831", "stop_code": null, "platform_code": null, "stop_url": null, "stop_timezone": null, "stop_id": "NAQ:Quay:43211", "zone_id": null}, "geometry": {"type": "Point", "coordinates": [1.2301600000000001, 45.839165]}}, {"type": "Feature", "properties": {"stop_name": "Cit\u00e9 A. Thomas", "vehicle_type": null, "stop_desc": null, "location_type": 0, "wheelchair_boarding": 2, "parent_station": "NAQ:StopPlace:29827", "stop_code": null, "platform_code": null, "stop_url": null, "stop_timezone": null, "stop_id": "NAQ:Quay:43207", "zone_id": null}, "geometry": {"type": "Point", "coordinates": [1.242048, 45.836791999999996]}}, {"type": "Feature", "properties": {"stop_name": "C. Flammarion", "vehicle_type": null, "stop_desc": null, "location_type": 0, "wheelchair_boarding": 2, "parent_station": "NAQ:StopPlace:29829", "stop_code": null, "platform_code": null, "stop_url": null, "stop_timezone": null, "stop_id": "NAQ:Quay:43209", "zone_id": null}, "geometry": {"type": "Point", "coordinates": [1.244545, 45.8355]}}, {"type": "Feature", "properties": {"stop_name": "Campus La Borie", "vehicle_type": null, "stop_desc": null, "location_type": 0, "wheelchair_boarding": 2, "parent_station": "NAQ:StopPlace:29828", "stop_code": null, "platform_code": null, "stop_url": null, "stop_timezone": null, "stop_id": "NAQ:Quay:43208", "zone_id": null}, "geometry": {"type": "Point", "coordinates": [1.2390860000000001, 45.83822]}}, {"type": "Feature", "properties": {"stop_name": "Le Ch\u00e2tenet", "vehicle_type": null, "stop_desc": null, "location_type": 0, "wheelchair_boarding": 2, "parent_station": "NAQ:StopPlace:31077", "stop_code": null, "platform_code": null, "stop_url": null, "stop_timezone": null, "stop_id": "NAQ:Quay:44776", "zone_id": null}, "geometry": {"type": "Point", "coordinates": [1.308935, 45.870113]}}, {"type": "Feature", "properties": {"stop_name": "S. Valadon", "vehicle_type": null, "stop_desc": null, "location_type": 0, "wheelchair_boarding": 2, "parent_station": "NAQ:StopPlace:31055", "stop_code": null, "platform_code": null, "stop_url": null, "stop_timezone": null, "stop_id": "NAQ:Quay:44724", "zone_id": null}, "geometry": {"type": "Point", "coordinates": [1.285893, 45.843384]}}, {"type": "Feature", "properties": {"stop_name": "Mal Foch", "vehicle_type": null, "stop_desc": null, "location_type": 0, "wheelchair_boarding": 2, "parent_station": "NAQ:StopPlace:31057", "stop_code": null, "platform_code": null, "stop_url": null, "stop_timezone": null, "stop_id": "NAQ:Quay:44728", "zone_id": null}, "geometry": {"type": "Point", "coordinates": [1.229427, 45.843456]}}, {"type": "Feature", "properties": {"stop_name": "G. Eiffel", "vehicle_type": null, "stop_desc": null, "location_type": 0, "wheelchair_boarding": 2, "parent_station": "NAQ:StopPlace:31052", "stop_code": null, "platform_code": null, "stop_url": null, "stop_timezone": null, "stop_id": "NAQ:Quay:44727", "zone_id": null}, "geometry": {"type": "Point", "coordinates": [1.306548, 45.87473]}}, {"type": "Feature", "properties": {"stop_name": "Puy Martin", "vehicle_type": null, "stop_desc": null, "location_type": 0, "wheelchair_boarding": 2, "parent_station": "NAQ:StopPlace:31051", "stop_code": null, "platform_code": null, "stop_url": null, "stop_timezone": null, "stop_id": "NAQ:Quay:44720", "zone_id": null}, "geometry": {"type": "Point", "coordinates": [1.3198940000000001, 45.866623]}}, {"type": "Feature", "properties": {"stop_name": "Coll\u00e8ge A. Maurois", "vehicle_type": null, "stop_desc": null, "location_type": 0, "wheelchair_boarding": 2, "parent_station": "NAQ:StopPlace:29693", "stop_code": null, "platform_code": null, "stop_url": null, "stop_timezone": null, "stop_id": "NAQ:Quay:42995", "zone_id": null}, "geometry": {"type": "Point", "coordinates": [1.229474, 45.837574]}}]}