{"type": "FeatureCollection", "features": [{"type": "Feature", "properties": {"route_id": "LIM:Line:36-46", "service_id": "LIM:Timetable:2018-2019-M-L_V-Semaine-00", "trip_id": "LIM:VehicleJourney:1003844-2018-2019-M-L_V-Semaine-00", "trip_headsign": "Lyc\u00e9e Renoir", "trip_short_name": null, "direction_id": 1, "wheelchair_accessible": 0, "shape_id": "shape_10"}, "geometry": {"type": "LineString", "coordinates": [[1.246874, 45.793929999999996], [1.233322, 45.785763], [1.2398790000000002, 45.79015], [1.23692, 45.791702], [1.232197, 45.793182], [1.237021, 45.795856], [1.237723, 45.798058000000005], [1.238081, 45.79931], [1.237193, 45.800709999999995], [1.240049, 45.80515], [1.2463520000000001, 45.81142], [1.261083, 45.816807], [1.265763, 45.819294], [1.262442, 45.82176], [1.258913, 45.82501], [1.25931, 45.826843], [1.256066, 45.828759999999996], [1.255218, 45.830040000000004], [1.2536370000000001, 45.831066], [1.249831, 45.83034], [1.246122, 45.829646999999994], [1.2429569999999999, 45.82884], [1.238675, 45.827071999999994], [1.241515, 45.82358]]}}, {"type": "Feature", "properties": {"stop_name": "Lyc\u00e9e Renoir", "vehicle_type": null, "stop_desc": null, "location_type": 0, "wheelchair_boarding": 2, "parent_station": "NAQ:StopPlace:29558", "stop_code": null, "platform_code": null, "stop_url": null, "stop_timezone": null, "stop_id": "NAQ:Quay:42825", "zone_id": null}, "geometry": {"type": "Point", "coordinates": [1.241515, 45.82358]}}, {"type": "Feature", "properties": {"stop_name": "Limoges - Place des Carmes", "vehicle_type": null, "stop_desc": null, "location_type": 0, "wheelchair_boarding": 2, "parent_station": "NAQ:StopPlace:31164", "stop_code": null, "platform_code": null, "stop_url": null, "stop_timezone": null, "stop_id": "NAQ:Quay:47260", "zone_id": null}, "geometry": {"type": "Point", "coordinates": [1.249831, 45.83034]}}, {"type": "Feature", "properties": {"stop_name": "Quai St Martial", "vehicle_type": null, "stop_desc": null, "location_type": 0, "wheelchair_boarding": 2, "parent_station": "NAQ:StopPlace:29855", "stop_code": null, "platform_code": null, "stop_url": null, "stop_timezone": null, "stop_id": "NAQ:Quay:43252", "zone_id": null}, "geometry": {"type": "Point", "coordinates": [1.262442, 45.82176]}}, {"type": "Feature", "properties": {"stop_name": "Campus Centre Ville", "vehicle_type": null, "stop_desc": null, "location_type": 0, "wheelchair_boarding": 2, "parent_station": "NAQ:StopPlace:29848", "stop_code": null, "platform_code": null, "stop_url": null, "stop_timezone": null, "stop_id": "NAQ:Quay:43246", "zone_id": null}, "geometry": {"type": "Point", "coordinates": [1.258913, 45.82501]}}, {"type": "Feature", "properties": {"stop_name": "Clos J. Monnet", "vehicle_type": null, "stop_desc": null, "location_type": 0, "wheelchair_boarding": 2, "parent_station": "NAQ:StopPlace:29999", "stop_code": null, "platform_code": null, "stop_url": null, "stop_timezone": null, "stop_id": "NAQ:Quay:43546", "zone_id": null}, "geometry": {"type": "Point", "coordinates": [1.246874, 45.793929999999996]}}, {"type": "Feature", "properties": {"stop_name": "Limoges - Casimir Ranson*", "vehicle_type": null, "stop_desc": null, "location_type": 0, "wheelchair_boarding": 2, "parent_station": "NAQ:StopPlace:31282", "stop_code": null, "platform_code": null, "stop_url": null, "stop_timezone": null, "stop_id": "NAQ:Quay:43540", "zone_id": null}, "geometry": {"type": "Point", "coordinates": [1.238675, 45.827071999999994]}}, {"type": "Feature", "properties": {"stop_name": "Poulouzat Centre", "vehicle_type": null, "stop_desc": null, "location_type": 0, "wheelchair_boarding": 2, "parent_station": "NAQ:StopPlace:29995", "stop_code": null, "platform_code": null, "stop_url": null, "stop_timezone": null, "stop_id": "NAQ:Quay:43543", "zone_id": null}, "geometry": {"type": "Point", "coordinates": [1.237193, 45.800709999999995]}}, {"type": "Feature", "properties": {"stop_name": "Quorum", "vehicle_type": null, "stop_desc": null, "location_type": 0, "wheelchair_boarding": 2, "parent_station": "NAQ:StopPlace:29994", "stop_code": null, "platform_code": null, "stop_url": null, "stop_timezone": null, "stop_id": "NAQ:Quay:43542", "zone_id": null}, "geometry": {"type": "Point", "coordinates": [1.237021, 45.795856]}}, {"type": "Feature", "properties": {"stop_name": "Sacr\u00e9 Coeur", "vehicle_type": null, "stop_desc": null, "location_type": 0, "wheelchair_boarding": 2, "parent_station": "NAQ:StopPlace:29998", "stop_code": null, "platform_code": null, "stop_url": null, "stop_timezone": null, "stop_id": "NAQ:Quay:43541", "zone_id": null}, "geometry": {"type": "Point", "coordinates": [1.246122, 45.829646999999994]}}, {"type": "Feature", "properties": {"stop_name": "La Sapini\u00e8re", "vehicle_type": null, "stop_desc": null, "location_type": 0, "wheelchair_boarding": 2, "parent_station": "NAQ:StopPlace:29992", "stop_code": null, "platform_code": null, "stop_url": null, "stop_timezone": null, "stop_id": "NAQ:Quay:43537", "zone_id": null}, "geometry": {"type": "Point", "coordinates": [1.2463520000000001, 45.81142]}}, {"type": "Feature", "properties": {"stop_name": "Brasserie", "vehicle_type": null, "stop_desc": null, "location_type": 0, "wheelchair_boarding": 2, "parent_station": "NAQ:StopPlace:29993", "stop_code": null, "platform_code": null, "stop_url": null, "stop_timezone": null, "stop_id": "NAQ:Quay:43534", "zone_id": null}, "geometry": {"type": "Point", "coordinates": [1.2429569999999999, 45.82884]}}, {"type": "Feature", "properties": {"stop_name": "Condat Versanas", "vehicle_type": null, "stop_desc": null, "location_type": 0, "wheelchair_boarding": 2, "parent_station": "NAQ:StopPlace:29996", "stop_code": null, "platform_code": null, "stop_url": null, "stop_timezone": null, "stop_id": "NAQ:Quay:43539", "zone_id": null}, "geometry": {"type": "Point", "coordinates": [1.233322, 45.785763]}}, {"type": "Feature", "properties": {"stop_name": "Condadille", "vehicle_type": null, "stop_desc": null, "location_type": 0, "wheelchair_boarding": 2, "parent_station": "NAQ:StopPlace:29991", "stop_code": null, "platform_code": null, "stop_url": null, "stop_timezone": null, "stop_id": "NAQ:Quay:43532", "zone_id": null}, "geometry": {"type": "Point", "coordinates": [1.240049, 45.80515]}}, {"type": "Feature", "properties": {"stop_name": "Pl. de Condat", "vehicle_type": null, "stop_desc": null, "location_type": 0, "wheelchair_boarding": 2, "parent_station": "NAQ:StopPlace:29987", "stop_code": null, "platform_code": null, "stop_url": null, "stop_timezone": null, "stop_id": "NAQ:Quay:43531", "zone_id": null}, "geometry": {"type": "Point", "coordinates": [1.232197, 45.793182]}}, {"type": "Feature", "properties": {"stop_name": "Centre de Tri", "vehicle_type": null, "stop_desc": null, "location_type": 0, "wheelchair_boarding": 2, "parent_station": "NAQ:StopPlace:29988", "stop_code": null, "platform_code": null, "stop_url": null, "stop_timezone": null, "stop_id": "NAQ:Quay:43530", "zone_id": null}, "geometry": {"type": "Point", "coordinates": [1.261083, 45.816807]}}, {"type": "Feature", "properties": {"stop_name": "Pl. Joliot Curie", "vehicle_type": null, "stop_desc": null, "location_type": 0, "wheelchair_boarding": 2, "parent_station": "NAQ:StopPlace:29989", "stop_code": null, "platform_code": null, "stop_url": null, "stop_timezone": null, "stop_id": "NAQ:Quay:43526", "zone_id": null}, "geometry": {"type": "Point", "coordinates": [1.238081, 45.79931]}}, {"type": "Feature", "properties": {"stop_name": "Les Tuquets", "vehicle_type": null, "stop_desc": null, "location_type": 0, "wheelchair_boarding": 2, "parent_station": "NAQ:StopPlace:29990", "stop_code": null, "platform_code": null, "stop_url": null, "stop_timezone": null, "stop_id": "NAQ:Quay:43529", "zone_id": null}, "geometry": {"type": "Point", "coordinates": [1.23692, 45.791702]}}, {"type": "Feature", "properties": {"stop_name": "Hauts de Condat", "vehicle_type": null, "stop_desc": null, "location_type": 0, "wheelchair_boarding": 2, "parent_station": "NAQ:StopPlace:29986", "stop_code": null, "platform_code": null, "stop_url": null, "stop_timezone": null, "stop_id": "NAQ:Quay:43522", "zone_id": null}, "geometry": {"type": "Point", "coordinates": [1.2398790000000002, 45.79015]}}, {"type": "Feature", "properties": {"stop_name": "Pont des Roches", "vehicle_type": null, "stop_desc": null, "location_type": 0, "wheelchair_boarding": 2, "parent_station": "NAQ:StopPlace:29985", "stop_code": null, "platform_code": null, "stop_url": null, "stop_timezone": null, "stop_id": "NAQ:Quay:43521", "zone_id": null}, "geometry": {"type": "Point", "coordinates": [1.237723, 45.798058000000005]}}, {"type": "Feature", "properties": {"stop_name": "Rue de Nexon", "vehicle_type": null, "stop_desc": null, "location_type": 0, "wheelchair_boarding": 2, "parent_station": "NAQ:StopPlace:29854", "stop_code": null, "platform_code": null, "stop_url": null, "stop_timezone": null, "stop_id": "NAQ:Quay:43520", "zone_id": null}, "geometry": {"type": "Point", "coordinates": [1.265763, 45.819294]}}, {"type": "Feature", "properties": {"stop_name": "Mairie", "vehicle_type": null, "stop_desc": null, "location_type": 0, "wheelchair_boarding": 2, "parent_station": "NAQ:StopPlace:29514", "stop_code": null, "platform_code": null, "stop_url": null, "stop_timezone": null, "stop_id": "NAQ:Quay:43145", "zone_id": null}, "geometry": {"type": "Point", "coordinates": [1.25931, 45.826843]}}, {"type": "Feature", "properties": {"stop_name": "Pl. W. Churchill", "vehicle_type": null, "stop_desc": null, "location_type": 0, "wheelchair_boarding": 2, "parent_station": "NAQ:StopPlace:30938", "stop_code": null, "platform_code": null, "stop_url": null, "stop_timezone": null, "stop_id": "NAQ:Quay:44567", "zone_id": null}, "geometry": {"type": "Point", "coordinates": [1.2536370000000001, 45.831066]}}, {"type": "Feature", "properties": {"stop_name": "Beaupeyrat", "vehicle_type": null, "stop_desc": null, "location_type": 0, "wheelchair_boarding": 2, "parent_station": "NAQ:StopPlace:29519", "stop_code": null, "platform_code": null, "stop_url": null, "stop_timezone": null, "stop_id": "NAQ:Quay:42732", "zone_id": null}, "geometry": {"type": "Point", "coordinates": [1.256066, 45.828759999999996]}}, {"type": "Feature", "properties": {"stop_name": "Pl. d'Aine", "vehicle_type": null, "stop_desc": null, "location_type": 0, "wheelchair_boarding": 2, "parent_station": "NAQ:StopPlace:29515", "stop_code": null, "platform_code": null, "stop_url": null, "stop_timezone": null, "stop_id": "NAQ:Quay:42739", "zone_id": null}, "geometry": {"type": "Point", "coordinates": [1.255218, 45.830040000000004]}}]}