{"type": "FeatureCollection", "features": [{"type": "Feature", "properties": {"route_id": "LIM:Line:21-46", "service_id": "LIM:Timetable:2018-2019-M-Sam-Samedi-00-0000010", "trip_id": "LIM:VehicleJourney:1005188-2018-2019-M-Sam-Samedi-00-0000010", "trip_headsign": "L. Serpollet", "trip_short_name": null, "direction_id": 1, "wheelchair_accessible": 0, "shape_id": "shape_00"}, "geometry": {"type": "LineString", "coordinates": [[1.241339, 45.81381], [1.239846, 45.812363], [1.2380799999999998, 45.81276], [1.234515, 45.811512], [1.233435, 45.81289], [1.232469, 45.81453], [1.234171, 45.819004], [1.24117, 45.819057], [1.240042, 45.821999999999996], [1.241515, 45.82358], [1.245957, 45.82415], [1.249549, 45.825283], [1.25215, 45.82656], [1.256066, 45.828759999999996], [1.255218, 45.830040000000004], [1.256558, 45.831394], [1.2582719999999998, 45.832029999999996], [1.263666, 45.831978], [1.26619, 45.836715999999996], [1.263515, 45.838345000000004], [1.258155, 45.84048], [1.2591299999999999, 45.842471999999994], [1.260435, 45.84494], [1.261587, 45.84726], [1.262637, 45.848797], [1.2650190000000001, 45.851414], [1.266556, 45.854664], [1.26914, 45.856308], [1.274505, 45.86097], [1.281276, 45.861137], [1.2868110000000001, 45.860079999999996], [1.285658, 45.858059999999995], [1.284211, 45.854744000000004], [1.2887520000000001, 45.855663], [1.2911, 45.8614], [1.29308, 45.863983000000005], [1.2918180000000001, 45.865190000000005], [1.293857, 45.86681], [1.296981, 45.869015000000005], [1.300145, 45.87102], [1.294576, 45.871520000000004], [1.293973, 45.873478000000006], [1.295907, 45.8748], [1.2998969999999999, 45.875313], [1.3014569999999999, 45.875873999999996], [1.300502, 45.878784], [1.299595, 45.88143], [1.2961639999999999, 45.884205], [1.293407, 45.883140000000004], [1.2945719999999998, 45.8809], [1.2868030000000001, 45.882828]]}}, {"type": "Feature", "properties": {"stop_name": "Lyc\u00e9e Renoir", "vehicle_type": null, "stop_desc": null, "location_type": 0, "wheelchair_boarding": 2, "parent_station": "NAQ:StopPlace:29558", "stop_code": null, "platform_code": null, "stop_url": null, "stop_timezone": null, "stop_id": "NAQ:Quay:42825", "zone_id": null}, "geometry": {"type": "Point", "coordinates": [1.241515, 45.82358]}}, {"type": "Feature", "properties": {"stop_name": "Ester Limoges Technopole", "vehicle_type": null, "stop_desc": null, "location_type": 0, "wheelchair_boarding": 2, "parent_station": "NAQ:StopPlace:29561", "stop_code": null, "platform_code": null, "stop_url": null, "stop_timezone": null, "stop_id": "NAQ:Quay:42824", "zone_id": null}, "geometry": {"type": "Point", "coordinates": [1.2911, 45.8614]}}, {"type": "Feature", "properties": {"stop_name": "C.H.U. Dupuytren", "vehicle_type": null, "stop_desc": null, "location_type": 0, "wheelchair_boarding": 2, "parent_station": "NAQ:StopPlace:29576", "stop_code": null, "platform_code": null, "stop_url": null, "stop_timezone": null, "stop_id": "NAQ:Quay:42828", "zone_id": null}, "geometry": {"type": "Point", "coordinates": [1.234515, 45.811512]}}, {"type": "Feature", "properties": {"stop_name": "Av. de Naugeat", "vehicle_type": null, "stop_desc": null, "location_type": 0, "wheelchair_boarding": 2, "parent_station": "NAQ:StopPlace:29566", "stop_code": null, "platform_code": null, "stop_url": null, "stop_timezone": null, "stop_id": "NAQ:Quay:42810", "zone_id": null}, "geometry": {"type": "Point", "coordinates": [1.240042, 45.821999999999996]}}, {"type": "Feature", "properties": {"stop_name": "Ch. Le Gendre", "vehicle_type": null, "stop_desc": null, "location_type": 0, "wheelchair_boarding": 2, "parent_station": "NAQ:StopPlace:29569", "stop_code": null, "platform_code": null, "stop_url": null, "stop_timezone": null, "stop_id": "NAQ:Quay:42813", "zone_id": null}, "geometry": {"type": "Point", "coordinates": [1.241339, 45.81381]}}, {"type": "Feature", "properties": {"stop_name": "L. Serpollet", "vehicle_type": null, "stop_desc": null, "location_type": 0, "wheelchair_boarding": 2, "parent_station": "NAQ:StopPlace:29578", "stop_code": null, "platform_code": null, "stop_url": null, "stop_timezone": null, "stop_id": "NAQ:Quay:42818", "zone_id": null}, "geometry": {"type": "Point", "coordinates": [1.2868030000000001, 45.882828]}}, {"type": "Feature", "properties": {"stop_name": "Gare des B\u00e9n\u00e9dictins", "vehicle_type": null, "stop_desc": null, "location_type": 0, "wheelchair_boarding": 2, "parent_station": "NAQ:StopPlace:29571", "stop_code": null, "platform_code": null, "stop_url": null, "stop_timezone": null, "stop_id": "NAQ:Quay:42807", "zone_id": null}, "geometry": {"type": "Point", "coordinates": [1.26619, 45.836715999999996]}}, {"type": "Feature", "properties": {"stop_name": "Limoges - Carrefour Beaupeyrat", "vehicle_type": null, "stop_desc": null, "location_type": 0, "wheelchair_boarding": 2, "parent_station": "NAQ:StopPlace:31436", "stop_code": null, "platform_code": null, "stop_url": null, "stop_timezone": null, "stop_id": "NAQ:Quay:42809", "zone_id": null}, "geometry": {"type": "Point", "coordinates": [1.249549, 45.825283]}}, {"type": "Feature", "properties": {"stop_name": "C.H.S. Esquirol", "vehicle_type": null, "stop_desc": null, "location_type": 0, "wheelchair_boarding": 2, "parent_station": "NAQ:StopPlace:29607", "stop_code": null, "platform_code": null, "stop_url": null, "stop_timezone": null, "stop_id": "NAQ:Quay:42864", "zone_id": null}, "geometry": {"type": "Point", "coordinates": [1.24117, 45.819057]}}, {"type": "Feature", "properties": {"stop_name": "Av. Foucaud", "vehicle_type": null, "stop_desc": null, "location_type": 0, "wheelchair_boarding": 2, "parent_station": "NAQ:StopPlace:29588", "stop_code": null, "platform_code": null, "stop_url": null, "stop_timezone": null, "stop_id": "NAQ:Quay:42832", "zone_id": null}, "geometry": {"type": "Point", "coordinates": [1.25215, 45.82656]}}, {"type": "Feature", "properties": {"stop_name": "Ester Legrand", "vehicle_type": null, "stop_desc": null, "location_type": 0, "wheelchair_boarding": 2, "parent_station": "NAQ:StopPlace:29567", "stop_code": null, "platform_code": null, "stop_url": null, "stop_timezone": null, "stop_id": "NAQ:Quay:42831", "zone_id": null}, "geometry": {"type": "Point", "coordinates": [1.29308, 45.863983000000005]}}, {"type": "Feature", "properties": {"stop_name": "Cimeti\u00e8re", "vehicle_type": null, "stop_desc": null, "location_type": 0, "wheelchair_boarding": 2, "parent_station": "NAQ:StopPlace:29646", "stop_code": null, "platform_code": null, "stop_url": null, "stop_timezone": null, "stop_id": "NAQ:Quay:42946", "zone_id": null}, "geometry": {"type": "Point", "coordinates": [1.266556, 45.854664]}}, {"type": "Feature", "properties": {"stop_name": "La Bastide 2", "vehicle_type": null, "stop_desc": null, "location_type": 0, "wheelchair_boarding": 2, "parent_station": "NAQ:StopPlace:29652", "stop_code": null, "platform_code": null, "stop_url": null, "stop_timezone": null, "stop_id": "NAQ:Quay:42932", "zone_id": null}, "geometry": {"type": "Point", "coordinates": [1.26914, 45.856308]}}, {"type": "Feature", "properties": {"stop_name": "Arcades", "vehicle_type": null, "stop_desc": null, "location_type": 0, "wheelchair_boarding": 2, "parent_station": "NAQ:StopPlace:29641", "stop_code": null, "platform_code": null, "stop_url": null, "stop_timezone": null, "stop_id": "NAQ:Quay:42913", "zone_id": null}, "geometry": {"type": "Point", "coordinates": [1.2650190000000001, 45.851414]}}, {"type": "Feature", "properties": {"stop_name": "Joinville", "vehicle_type": null, "stop_desc": null, "location_type": 0, "wheelchair_boarding": 2, "parent_station": "NAQ:StopPlace:29802", "stop_code": null, "platform_code": null, "stop_url": null, "stop_timezone": null, "stop_id": "NAQ:Quay:43154", "zone_id": null}, "geometry": {"type": "Point", "coordinates": [1.262637, 45.848797]}}, {"type": "Feature", "properties": {"stop_name": "Pl. Carnot", "vehicle_type": null, "stop_desc": null, "location_type": 0, "wheelchair_boarding": 2, "parent_station": "NAQ:StopPlace:29796", "stop_code": null, "platform_code": null, "stop_url": null, "stop_timezone": null, "stop_id": "NAQ:Quay:43143", "zone_id": null}, "geometry": {"type": "Point", "coordinates": [1.258155, 45.84048]}}, {"type": "Feature", "properties": {"stop_name": "Alsace Lorraine", "vehicle_type": null, "stop_desc": null, "location_type": 0, "wheelchair_boarding": 2, "parent_station": "NAQ:StopPlace:29790", "stop_code": null, "platform_code": null, "stop_url": null, "stop_timezone": null, "stop_id": "NAQ:Quay:43135", "zone_id": null}, "geometry": {"type": "Point", "coordinates": [1.2591299999999999, 45.842471999999994]}}, {"type": "Feature", "properties": {"stop_name": "Av. de Louyat", "vehicle_type": null, "stop_desc": null, "location_type": 0, "wheelchair_boarding": 2, "parent_station": "NAQ:StopPlace:29784", "stop_code": null, "platform_code": null, "stop_url": null, "stop_timezone": null, "stop_id": "NAQ:Quay:43129", "zone_id": null}, "geometry": {"type": "Point", "coordinates": [1.260435, 45.84494]}}, {"type": "Feature", "properties": {"stop_name": "C. Marot", "vehicle_type": null, "stop_desc": null, "location_type": 0, "wheelchair_boarding": 2, "parent_station": "NAQ:StopPlace:29785", "stop_code": null, "platform_code": null, "stop_url": null, "stop_timezone": null, "stop_id": "NAQ:Quay:43128", "zone_id": null}, "geometry": {"type": "Point", "coordinates": [1.261587, 45.84726]}}, {"type": "Feature", "properties": {"stop_name": "P. Dubos", "vehicle_type": null, "stop_desc": null, "location_type": 0, "wheelchair_boarding": 2, "parent_station": "NAQ:StopPlace:29821", "stop_code": null, "platform_code": null, "stop_url": null, "stop_timezone": null, "stop_id": "NAQ:Quay:43190", "zone_id": null}, "geometry": {"type": "Point", "coordinates": [1.263515, 45.838345000000004]}}, {"type": "Feature", "properties": {"stop_name": "Sagnes", "vehicle_type": null, "stop_desc": null, "location_type": 0, "wheelchair_boarding": 2, "parent_station": "NAQ:StopPlace:29823", "stop_code": null, "platform_code": null, "stop_url": null, "stop_timezone": null, "stop_id": "NAQ:Quay:43193", "zone_id": null}, "geometry": {"type": "Point", "coordinates": [1.295907, 45.8748]}}, {"type": "Feature", "properties": {"stop_name": "Prieur", "vehicle_type": null, "stop_desc": null, "location_type": 0, "wheelchair_boarding": 2, "parent_station": "NAQ:StopPlace:29568", "stop_code": null, "platform_code": null, "stop_url": null, "stop_timezone": null, "stop_id": "NAQ:Quay:43198", "zone_id": null}, "geometry": {"type": "Point", "coordinates": [1.2998969999999999, 45.875313]}}, {"type": "Feature", "properties": {"stop_name": "J. Montalat", "vehicle_type": null, "stop_desc": null, "location_type": 0, "wheelchair_boarding": 2, "parent_station": "NAQ:StopPlace:29562", "stop_code": null, "platform_code": null, "stop_url": null, "stop_timezone": null, "stop_id": "NAQ:Quay:43184", "zone_id": null}, "geometry": {"type": "Point", "coordinates": [1.300502, 45.878784]}}, {"type": "Feature", "properties": {"stop_name": "Alouettes", "vehicle_type": null, "stop_desc": null, "location_type": 0, "wheelchair_boarding": 2, "parent_station": "NAQ:StopPlace:29807", "stop_code": null, "platform_code": null, "stop_url": null, "stop_timezone": null, "stop_id": "NAQ:Quay:43181", "zone_id": null}, "geometry": {"type": "Point", "coordinates": [1.2961639999999999, 45.884205]}}, {"type": "Feature", "properties": {"stop_name": "Ch\u00e2tenet", "vehicle_type": null, "stop_desc": null, "location_type": 0, "wheelchair_boarding": 2, "parent_station": "NAQ:StopPlace:29820", "stop_code": null, "platform_code": null, "stop_url": null, "stop_timezone": null, "stop_id": "NAQ:Quay:43185", "zone_id": null}, "geometry": {"type": "Point", "coordinates": [1.293973, 45.873478000000006]}}, {"type": "Feature", "properties": {"stop_name": "Les Ribi\u00e8res", "vehicle_type": null, "stop_desc": null, "location_type": 0, "wheelchair_boarding": 2, "parent_station": "NAQ:StopPlace:29816", "stop_code": null, "platform_code": null, "stop_url": null, "stop_timezone": null, "stop_id": "NAQ:Quay:43171", "zone_id": null}, "geometry": {"type": "Point", "coordinates": [1.299595, 45.88143]}}, {"type": "Feature", "properties": {"stop_name": "L. Dh\u00e9ralde", "vehicle_type": null, "stop_desc": null, "location_type": 0, "wheelchair_boarding": 2, "parent_station": "NAQ:StopPlace:29818", "stop_code": null, "platform_code": null, "stop_url": null, "stop_timezone": null, "stop_id": "NAQ:Quay:43175", "zone_id": null}, "geometry": {"type": "Point", "coordinates": [1.293407, 45.883140000000004]}}, {"type": "Feature", "properties": {"stop_name": "Hom\u00e9rides", "vehicle_type": null, "stop_desc": null, "location_type": 0, "wheelchair_boarding": 2, "parent_station": "NAQ:StopPlace:29804", "stop_code": null, "platform_code": null, "stop_url": null, "stop_timezone": null, "stop_id": "NAQ:Quay:43179", "zone_id": null}, "geometry": {"type": "Point", "coordinates": [1.294576, 45.871520000000004]}}, {"type": "Feature", "properties": {"stop_name": "Beaubreuil C.C.", "vehicle_type": null, "stop_desc": null, "location_type": 0, "wheelchair_boarding": 2, "parent_station": "NAQ:StopPlace:29540", "stop_code": null, "platform_code": null, "stop_url": null, "stop_timezone": null, "stop_id": "NAQ:Quay:43161", "zone_id": null}, "geometry": {"type": "Point", "coordinates": [1.2945719999999998, 45.8809]}}, {"type": "Feature", "properties": {"stop_name": "Carr. de l'Europe", "vehicle_type": null, "stop_desc": null, "location_type": 0, "wheelchair_boarding": 2, "parent_station": "NAQ:StopPlace:29811", "stop_code": null, "platform_code": null, "stop_url": null, "stop_timezone": null, "stop_id": "NAQ:Quay:43165", "zone_id": null}, "geometry": {"type": "Point", "coordinates": [1.274505, 45.86097]}}, {"type": "Feature", "properties": {"stop_name": "Op\u00e9ra", "vehicle_type": null, "stop_desc": null, "location_type": 0, "wheelchair_boarding": 2, "parent_station": "NAQ:StopPlace:29563", "stop_code": null, "platform_code": null, "stop_url": null, "stop_timezone": null, "stop_id": "NAQ:Quay:42797", "zone_id": null}, "geometry": {"type": "Point", "coordinates": [1.2582719999999998, 45.832029999999996]}}, {"type": "Feature", "properties": {"stop_name": "Vanteaux", "vehicle_type": null, "stop_desc": null, "location_type": 0, "wheelchair_boarding": 2, "parent_station": "NAQ:StopPlace:29585", "stop_code": null, "platform_code": null, "stop_url": null, "stop_timezone": null, "stop_id": "NAQ:Quay:42798", "zone_id": null}, "geometry": {"type": "Point", "coordinates": [1.234171, 45.819004]}}, {"type": "Feature", "properties": {"stop_name": "H. Dunant", "vehicle_type": null, "stop_desc": null, "location_type": 0, "wheelchair_boarding": 2, "parent_station": "NAQ:StopPlace:29556", "stop_code": null, "platform_code": null, "stop_url": null, "stop_timezone": null, "stop_id": "NAQ:Quay:42790", "zone_id": null}, "geometry": {"type": "Point", "coordinates": [1.245957, 45.82415]}}, {"type": "Feature", "properties": {"stop_name": "Montarauds", "vehicle_type": null, "stop_desc": null, "location_type": 0, "wheelchair_boarding": 2, "parent_station": "NAQ:StopPlace:29560", "stop_code": null, "platform_code": null, "stop_url": null, "stop_timezone": null, "stop_id": "NAQ:Quay:42794", "zone_id": null}, "geometry": {"type": "Point", "coordinates": [1.296981, 45.869015000000005]}}, {"type": "Feature", "properties": {"stop_name": "Puy Ponchet", "vehicle_type": null, "stop_desc": null, "location_type": 0, "wheelchair_boarding": 2, "parent_station": "NAQ:StopPlace:29575", "stop_code": null, "platform_code": null, "stop_url": null, "stop_timezone": null, "stop_id": "NAQ:Quay:43205", "zone_id": null}, "geometry": {"type": "Point", "coordinates": [1.284211, 45.854744000000004]}}, {"type": "Feature", "properties": {"stop_name": "Z\u00e9nith", "vehicle_type": null, "stop_desc": null, "location_type": 0, "wheelchair_boarding": 2, "parent_station": "NAQ:StopPlace:29825", "stop_code": null, "platform_code": null, "stop_url": null, "stop_timezone": null, "stop_id": "NAQ:Quay:43204", "zone_id": null}, "geometry": {"type": "Point", "coordinates": [1.281276, 45.861137]}}, {"type": "Feature", "properties": {"stop_name": "D. Ellington", "vehicle_type": null, "stop_desc": null, "location_type": 0, "wheelchair_boarding": 2, "parent_station": "NAQ:StopPlace:29824", "stop_code": null, "platform_code": null, "stop_url": null, "stop_timezone": null, "stop_id": "NAQ:Quay:43201", "zone_id": null}, "geometry": {"type": "Point", "coordinates": [1.2887520000000001, 45.855663]}}, {"type": "Feature", "properties": {"stop_name": "4 Routes", "vehicle_type": null, "stop_desc": null, "location_type": 0, "wheelchair_boarding": 2, "parent_station": "NAQ:StopPlace:29752", "stop_code": null, "platform_code": null, "stop_url": null, "stop_timezone": null, "stop_id": "NAQ:Quay:43200", "zone_id": null}, "geometry": {"type": "Point", "coordinates": [1.2868110000000001, 45.860079999999996]}}, {"type": "Feature", "properties": {"stop_name": "Beaupeyrat", "vehicle_type": null, "stop_desc": null, "location_type": 0, "wheelchair_boarding": 2, "parent_station": "NAQ:StopPlace:29519", "stop_code": null, "platform_code": null, "stop_url": null, "stop_timezone": null, "stop_id": "NAQ:Quay:42732", "zone_id": null}, "geometry": {"type": "Point", "coordinates": [1.256066, 45.828759999999996]}}, {"type": "Feature", "properties": {"stop_name": "Pl. d'Aine", "vehicle_type": null, "stop_desc": null, "location_type": 0, "wheelchair_boarding": 2, "parent_station": "NAQ:StopPlace:29515", "stop_code": null, "platform_code": null, "stop_url": null, "stop_timezone": null, "stop_id": "NAQ:Quay:42739", "zone_id": null}, "geometry": {"type": "Point", "coordinates": [1.255218, 45.830040000000004]}}, {"type": "Feature", "properties": {"stop_name": "M\u00e9l\u00e8zes", "vehicle_type": null, "stop_desc": null, "location_type": 0, "wheelchair_boarding": 2, "parent_station": "NAQ:StopPlace:29554", "stop_code": null, "platform_code": null, "stop_url": null, "stop_timezone": null, "stop_id": "NAQ:Quay:42788", "zone_id": null}, "geometry": {"type": "Point", "coordinates": [1.3014569999999999, 45.875873999999996]}}, {"type": "Feature", "properties": {"stop_name": "A. Dubouch\u00e9", "vehicle_type": null, "stop_desc": null, "location_type": 0, "wheelchair_boarding": 2, "parent_station": "NAQ:StopPlace:29555", "stop_code": null, "platform_code": null, "stop_url": null, "stop_timezone": null, "stop_id": "NAQ:Quay:42789", "zone_id": null}, "geometry": {"type": "Point", "coordinates": [1.256558, 45.831394]}}, {"type": "Feature", "properties": {"stop_name": "Pl. Jourdan", "vehicle_type": null, "stop_desc": null, "location_type": 0, "wheelchair_boarding": 2, "parent_station": "NAQ:StopPlace:29553", "stop_code": null, "platform_code": null, "stop_url": null, "stop_timezone": null, "stop_id": "NAQ:Quay:42786", "zone_id": null}, "geometry": {"type": "Point", "coordinates": [1.263666, 45.831978]}}, {"type": "Feature", "properties": {"stop_name": "P\u00f4le Fougeras quai A", "vehicle_type": null, "stop_desc": null, "location_type": 0, "wheelchair_boarding": 2, "parent_station": "NAQ:StopPlace:29539", "stop_code": null, "platform_code": null, "stop_url": null, "stop_timezone": null, "stop_id": "NAQ:Quay:42780", "zone_id": null}, "geometry": {"type": "Point", "coordinates": [1.300145, 45.87102]}}, {"type": "Feature", "properties": {"stop_name": "Laboratoire D\u00e9partemental", "vehicle_type": null, "stop_desc": null, "location_type": 0, "wheelchair_boarding": 2, "parent_station": "NAQ:StopPlace:29547", "stop_code": null, "platform_code": null, "stop_url": null, "stop_timezone": null, "stop_id": "NAQ:Quay:42783", "zone_id": null}, "geometry": {"type": "Point", "coordinates": [1.2380799999999998, 45.81276]}}, {"type": "Feature", "properties": {"stop_name": "Hom\u00e8re", "vehicle_type": null, "stop_desc": null, "location_type": 0, "wheelchair_boarding": 2, "parent_station": "NAQ:StopPlace:29552", "stop_code": null, "platform_code": null, "stop_url": null, "stop_timezone": null, "stop_id": "NAQ:Quay:42775", "zone_id": null}, "geometry": {"type": "Point", "coordinates": [1.293857, 45.86681]}}, {"type": "Feature", "properties": {"stop_name": "Raimu", "vehicle_type": null, "stop_desc": null, "location_type": 0, "wheelchair_boarding": 2, "parent_station": "NAQ:StopPlace:29544", "stop_code": null, "platform_code": null, "stop_url": null, "stop_timezone": null, "stop_id": "NAQ:Quay:42770", "zone_id": null}, "geometry": {"type": "Point", "coordinates": [1.2918180000000001, 45.865190000000005]}}, {"type": "Feature", "properties": {"stop_name": "L'Aquapolis", "vehicle_type": null, "stop_desc": null, "location_type": 0, "wheelchair_boarding": 2, "parent_station": "NAQ:StopPlace:29545", "stop_code": null, "platform_code": null, "stop_url": null, "stop_timezone": null, "stop_id": "NAQ:Quay:42774", "zone_id": null}, "geometry": {"type": "Point", "coordinates": [1.285658, 45.858059999999995]}}, {"type": "Feature", "properties": {"stop_name": "Dr Marcland", "vehicle_type": null, "stop_desc": null, "location_type": 0, "wheelchair_boarding": 2, "parent_station": "NAQ:StopPlace:29541", "stop_code": null, "platform_code": null, "stop_url": null, "stop_timezone": null, "stop_id": "NAQ:Quay:42771", "zone_id": null}, "geometry": {"type": "Point", "coordinates": [1.232469, 45.81453]}}, {"type": "Feature", "properties": {"stop_name": "Le Cluzeau", "vehicle_type": null, "stop_desc": null, "location_type": 0, "wheelchair_boarding": 2, "parent_station": "NAQ:StopPlace:29542", "stop_code": null, "platform_code": null, "stop_url": null, "stop_timezone": null, "stop_id": "NAQ:Quay:42772", "zone_id": null}, "geometry": {"type": "Point", "coordinates": [1.239846, 45.812363]}}, {"type": "Feature", "properties": {"stop_name": "Campus Marcland", "vehicle_type": null, "stop_desc": null, "location_type": 0, "wheelchair_boarding": 2, "parent_station": "NAQ:StopPlace:29543", "stop_code": null, "platform_code": null, "stop_url": null, "stop_timezone": null, "stop_id": "NAQ:Quay:42769", "zone_id": null}, "geometry": {"type": "Point", "coordinates": [1.233435, 45.81289]}}]}