{"type": "FeatureCollection", "features": [{"type": "Feature", "properties": {"route_id": "HVI:Line:LR21_20190901", "service_id": "HVI:Timetable:20", "trip_id": "HVI:VehicleJourney:LR2109R_20190901_1", "trip_headsign": "Rochechouart - La Grosille", "trip_short_name": null, "direction_id": 1, "wheelchair_accessible": 0, "shape_id": "shape_043"}, "geometry": {"type": "LineString", "coordinates": [[1.253471, 45.831264000000004], [1.249949, 45.8302], [1.246294, 45.829624], [1.237801, 45.826687], [1.2250780000000001, 45.824055], [1.209734, 45.82115], [1.197808, 45.821323], [1.173314, 45.815870000000004], [1.1624729999999999, 45.808815], [1.154619, 45.804790000000004], [1.148296, 45.798393], [1.145108, 45.79735], [1.1380540000000001, 45.796978], [1.132819, 45.796158], [1.127456, 45.795418], [1.112139, 45.808105], [1.104244, 45.8111], [1.098303, 45.81694], [1.0729090000000001, 45.811993], [1.053029, 45.811904999999996], [1.051561, 45.817345], [1.046568, 45.825340000000004], [1.010569, 45.83553], [0.978059, 45.816444], [0.965217, 45.80798], [0.959418, 45.800329999999995], [0.9335200000000001, 45.80388], [0.9091670000000001, 45.784620000000004], [0.890899, 45.760146999999996], [0.877869, 45.760985999999995], [0.8413120000000001, 45.757442], [0.810257, 45.75966], [0.821692, 45.823982], [0.8325549999999999, 45.832867]]}}, {"type": "Feature", "properties": {"stop_timezone": null, "stop_url": null, "vehicle_type": null, "stop_code": null, "stop_desc": null, "parent_station": "NAQ:StopPlace:31331", "stop_id": "NAQ:Quay:45283", "zone_id": null, "stop_name": "St Priest ss Aixe - Scierie*", "wheelchair_boarding": 2, "platform_code": null, "location_type": 0}, "geometry": {"type": "Point", "coordinates": [1.0729090000000001, 45.811993]}}, {"type": "Feature", "properties": {"stop_timezone": null, "stop_url": null, "vehicle_type": null, "stop_code": null, "stop_desc": null, "parent_station": "NAQ:StopPlace:31342", "stop_id": "NAQ:Quay:45284", "zone_id": null, "stop_name": "St Priest ss Aixe - Tarnaud", "wheelchair_boarding": 2, "platform_code": null, "location_type": 0}, "geometry": {"type": "Point", "coordinates": [1.112139, 45.808105]}}, {"type": "Feature", "properties": {"stop_timezone": null, "stop_url": null, "vehicle_type": null, "stop_code": null, "stop_desc": null, "parent_station": "NAQ:StopPlace:31347", "stop_id": "NAQ:Quay:45285", "zone_id": null, "stop_name": "St Priest ss Aixe - Lot les M\u00fbres", "wheelchair_boarding": 2, "platform_code": null, "location_type": 0}, "geometry": {"type": "Point", "coordinates": [1.104244, 45.8111]}}, {"type": "Feature", "properties": {"stop_timezone": null, "stop_url": null, "vehicle_type": null, "stop_code": null, "stop_desc": null, "parent_station": "NAQ:StopPlace:31348", "stop_id": "NAQ:Quay:45280", "zone_id": null, "stop_name": "Aixe sur Vienne - Chambor\u00eat*", "wheelchair_boarding": 2, "platform_code": null, "location_type": 0}, "geometry": {"type": "Point", "coordinates": [1.127456, 45.795418]}}, {"type": "Feature", "properties": {"stop_timezone": null, "stop_url": null, "vehicle_type": null, "stop_code": null, "stop_desc": null, "parent_station": "NAQ:StopPlace:31350", "stop_id": "NAQ:Quay:45286", "zone_id": null, "stop_name": "St Priest s A. - Pl. de la Poste*", "wheelchair_boarding": 2, "platform_code": null, "location_type": 0}, "geometry": {"type": "Point", "coordinates": [1.098303, 45.81694]}}, {"type": "Feature", "properties": {"stop_timezone": null, "stop_url": null, "vehicle_type": null, "stop_code": null, "stop_desc": null, "parent_station": "NAQ:StopPlace:31351", "stop_id": "NAQ:Quay:45288", "zone_id": null, "stop_name": "Cognac la For\u00eat - Le Palais", "wheelchair_boarding": 2, "platform_code": null, "location_type": 0}, "geometry": {"type": "Point", "coordinates": [1.051561, 45.817345]}}, {"type": "Feature", "properties": {"stop_timezone": null, "stop_url": null, "vehicle_type": null, "stop_code": null, "stop_desc": null, "parent_station": "NAQ:StopPlace:31352", "stop_id": "NAQ:Quay:45289", "zone_id": null, "stop_name": "St Cyr - Les chouettes*", "wheelchair_boarding": 2, "platform_code": null, "location_type": 0}, "geometry": {"type": "Point", "coordinates": [0.965217, 45.80798]}}, {"type": "Feature", "properties": {"stop_timezone": null, "stop_url": null, "vehicle_type": null, "stop_code": null, "stop_desc": null, "parent_station": "NAQ:StopPlace:31335", "stop_id": "NAQ:Quay:45272", "zone_id": null, "stop_name": "Cognac la For\u00eat - Le Queyroix*", "wheelchair_boarding": 2, "platform_code": null, "location_type": 0}, "geometry": {"type": "Point", "coordinates": [1.046568, 45.825340000000004]}}, {"type": "Feature", "properties": {"stop_timezone": null, "stop_url": null, "vehicle_type": null, "stop_code": null, "stop_desc": null, "parent_station": "NAQ:StopPlace:31332", "stop_id": "NAQ:Quay:45273", "zone_id": null, "stop_name": "Vayres - La Chaise*", "wheelchair_boarding": 2, "platform_code": null, "location_type": 0}, "geometry": {"type": "Point", "coordinates": [0.8413120000000001, 45.757442]}}, {"type": "Feature", "properties": {"stop_timezone": null, "stop_url": null, "vehicle_type": null, "stop_code": null, "stop_desc": null, "parent_station": "NAQ:StopPlace:31344", "stop_id": "NAQ:Quay:45270", "zone_id": null, "stop_name": "St Auvent - La Nouzille", "wheelchair_boarding": 2, "platform_code": null, "location_type": 0}, "geometry": {"type": "Point", "coordinates": [0.9091670000000001, 45.784620000000004]}}, {"type": "Feature", "properties": {"stop_timezone": null, "stop_url": null, "vehicle_type": null, "stop_code": null, "stop_desc": null, "parent_station": "NAQ:StopPlace:31345", "stop_id": "NAQ:Quay:45279", "zone_id": null, "stop_name": "St Auvent - Bourg*", "wheelchair_boarding": 2, "platform_code": null, "location_type": 0}, "geometry": {"type": "Point", "coordinates": [0.9335200000000001, 45.80388]}}, {"type": "Feature", "properties": {"stop_timezone": null, "stop_url": null, "vehicle_type": null, "stop_code": null, "stop_desc": null, "parent_station": "NAQ:StopPlace:31336", "stop_id": "NAQ:Quay:45275", "zone_id": null, "stop_name": "Cognac la For\u00eat - Bourg*", "wheelchair_boarding": 2, "platform_code": null, "location_type": 0}, "geometry": {"type": "Point", "coordinates": [1.010569, 45.83553]}}, {"type": "Feature", "properties": {"stop_timezone": null, "stop_url": null, "vehicle_type": null, "stop_code": null, "stop_desc": null, "parent_station": "NAQ:StopPlace:31343", "stop_id": "NAQ:Quay:45277", "zone_id": null, "stop_name": "St Cyr - Bourg*", "wheelchair_boarding": 2, "platform_code": null, "location_type": 0}, "geometry": {"type": "Point", "coordinates": [0.959418, 45.800329999999995]}}, {"type": "Feature", "properties": {"stop_timezone": null, "stop_url": null, "vehicle_type": null, "stop_code": null, "stop_desc": null, "parent_station": "NAQ:StopPlace:31341", "stop_id": "NAQ:Quay:45264", "zone_id": null, "stop_name": "St Priest ss Aixe - Les Lattes*", "wheelchair_boarding": 2, "platform_code": null, "location_type": 0}, "geometry": {"type": "Point", "coordinates": [1.053029, 45.811904999999996]}}, {"type": "Feature", "properties": {"stop_timezone": null, "stop_url": null, "vehicle_type": null, "stop_code": null, "stop_desc": null, "parent_station": "NAQ:StopPlace:31244", "stop_id": "NAQ:Quay:45086", "zone_id": null, "stop_name": "Vayres - Bourg*", "wheelchair_boarding": 2, "platform_code": null, "location_type": 0}, "geometry": {"type": "Point", "coordinates": [0.810257, 45.75966]}}, {"type": "Feature", "properties": {"stop_timezone": null, "stop_url": null, "vehicle_type": null, "stop_code": null, "stop_desc": null, "parent_station": "NAQ:StopPlace:31333", "stop_id": "NAQ:Quay:45252", "zone_id": null, "stop_name": "Oradour / V - Les Olli\u00e8res*", "wheelchair_boarding": 2, "platform_code": null, "location_type": 0}, "geometry": {"type": "Point", "coordinates": [0.877869, 45.760985999999995]}}, {"type": "Feature", "properties": {"stop_timezone": null, "stop_url": null, "vehicle_type": null, "stop_code": null, "stop_desc": null, "parent_station": "NAQ:StopPlace:31140", "stop_id": "NAQ:Quay:44893", "zone_id": null, "stop_name": "Aixe sur Vienne - Champ de Foire*", "wheelchair_boarding": 2, "platform_code": null, "location_type": 0}, "geometry": {"type": "Point", "coordinates": [1.1380540000000001, 45.796978]}}, {"type": "Feature", "properties": {"stop_timezone": null, "stop_url": null, "vehicle_type": null, "stop_code": null, "stop_desc": null, "parent_station": "NAQ:StopPlace:31288", "stop_id": "NAQ:Quay:45167", "zone_id": null, "stop_name": "Isle - Teytejeaud *", "wheelchair_boarding": 2, "platform_code": null, "location_type": 0}, "geometry": {"type": "Point", "coordinates": [1.197808, 45.821323]}}, {"type": "Feature", "properties": {"stop_timezone": null, "stop_url": null, "vehicle_type": null, "stop_code": null, "stop_desc": null, "parent_station": "NAQ:StopPlace:31276", "stop_id": "NAQ:Quay:45153", "zone_id": null, "stop_name": "Limoges - Fran\u00e7ois Perrin*", "wheelchair_boarding": 2, "platform_code": null, "location_type": 0}, "geometry": {"type": "Point", "coordinates": [1.2250780000000001, 45.824055]}}, {"type": "Feature", "properties": {"stop_timezone": null, "stop_url": null, "vehicle_type": null, "stop_code": null, "stop_desc": null, "parent_station": "NAQ:StopPlace:31281", "stop_id": "NAQ:Quay:45158", "zone_id": null, "stop_name": "Aixe sur Vienne - Les Querrades*", "wheelchair_boarding": 2, "platform_code": null, "location_type": 0}, "geometry": {"type": "Point", "coordinates": [1.1624729999999999, 45.808815]}}, {"type": "Feature", "properties": {"stop_timezone": null, "stop_url": null, "vehicle_type": null, "stop_code": null, "stop_desc": null, "parent_station": "NAQ:StopPlace:31277", "stop_id": "NAQ:Quay:45154", "zone_id": null, "stop_name": "Isle - Moulin Blanc*", "wheelchair_boarding": 2, "platform_code": null, "location_type": 0}, "geometry": {"type": "Point", "coordinates": [1.209734, 45.82115]}}, {"type": "Feature", "properties": {"stop_timezone": null, "stop_url": null, "vehicle_type": null, "stop_code": null, "stop_desc": null, "parent_station": "NAQ:StopPlace:31278", "stop_id": "NAQ:Quay:45155", "zone_id": null, "stop_name": "Isle - Le Mas des Landes*", "wheelchair_boarding": 2, "platform_code": null, "location_type": 0}, "geometry": {"type": "Point", "coordinates": [1.173314, 45.815870000000004]}}, {"type": "Feature", "properties": {"stop_timezone": null, "stop_url": null, "vehicle_type": null, "stop_code": null, "stop_desc": null, "parent_station": "NAQ:StopPlace:31302", "stop_id": "NAQ:Quay:45195", "zone_id": null, "stop_name": "Aixe sur V. - Av. Jean Rebier*", "wheelchair_boarding": 2, "platform_code": null, "location_type": 0}, "geometry": {"type": "Point", "coordinates": [1.148296, 45.798393]}}, {"type": "Feature", "properties": {"stop_timezone": null, "stop_url": null, "vehicle_type": null, "stop_code": null, "stop_desc": null, "parent_station": "NAQ:StopPlace:35200", "stop_id": "NAQ:Quay:51844", "zone_id": null, "stop_name": "Limoges - Place des Carmes*", "wheelchair_boarding": 2, "platform_code": null, "location_type": 0}, "geometry": {"type": "Point", "coordinates": [1.249949, 45.8302]}}, {"type": "Feature", "properties": {"stop_timezone": null, "stop_url": null, "vehicle_type": null, "stop_code": null, "stop_desc": null, "parent_station": "NAQ:StopPlace:35203", "stop_id": "NAQ:Quay:51845", "zone_id": null, "stop_name": "Sacr\u00e9 Coeur", "wheelchair_boarding": 2, "platform_code": null, "location_type": 0}, "geometry": {"type": "Point", "coordinates": [1.246294, 45.829624]}}, {"type": "Feature", "properties": {"stop_timezone": null, "stop_url": null, "vehicle_type": null, "stop_code": null, "stop_desc": null, "parent_station": "NAQ:StopPlace:35206", "stop_id": "NAQ:Quay:51846", "zone_id": null, "stop_name": "Limoges - Casimir Ranson*", "wheelchair_boarding": 2, "platform_code": null, "location_type": 0}, "geometry": {"type": "Point", "coordinates": [1.237801, 45.826687]}}, {"type": "Feature", "properties": {"stop_timezone": null, "stop_url": null, "vehicle_type": null, "stop_code": null, "stop_desc": null, "parent_station": "NAQ:StopPlace:31301", "stop_id": "NAQ:Quay:45193", "zone_id": null, "stop_name": "Aixe sur Vienne. - Beaubonnat*", "wheelchair_boarding": 2, "platform_code": null, "location_type": 0}, "geometry": {"type": "Point", "coordinates": [1.154619, 45.804790000000004]}}, {"type": "Feature", "properties": {"stop_timezone": null, "stop_url": null, "vehicle_type": null, "stop_code": null, "stop_desc": null, "parent_station": "NAQ:StopPlace:31248", "stop_id": "NAQ:Quay:45122", "zone_id": null, "stop_name": "Rochechouart - La Grosille", "wheelchair_boarding": 2, "platform_code": null, "location_type": 0}, "geometry": {"type": "Point", "coordinates": [0.8325549999999999, 45.832867]}}, {"type": "Feature", "properties": {"stop_timezone": null, "stop_url": null, "vehicle_type": null, "stop_code": null, "stop_desc": null, "parent_station": "NAQ:StopPlace:31253", "stop_id": "NAQ:Quay:45104", "zone_id": null, "stop_name": "Rochechouart - Rue MauriceThorez*", "wheelchair_boarding": 2, "platform_code": null, "location_type": 0}, "geometry": {"type": "Point", "coordinates": [0.821692, 45.823982]}}, {"type": "Feature", "properties": {"stop_timezone": null, "stop_url": null, "vehicle_type": null, "stop_code": null, "stop_desc": null, "parent_station": "NAQ:StopPlace:31148", "stop_id": "NAQ:Quay:44900", "zone_id": null, "stop_name": "Oradour / V. - Puymoreau*", "wheelchair_boarding": 2, "platform_code": null, "location_type": 0}, "geometry": {"type": "Point", "coordinates": [0.890899, 45.760146999999996]}}, {"type": "Feature", "properties": {"stop_timezone": null, "stop_url": null, "vehicle_type": null, "stop_code": null, "stop_desc": null, "parent_station": "NAQ:StopPlace:30938", "stop_id": "NAQ:Quay:44960", "zone_id": null, "stop_name": "Limoges - Place Winston Churchill", "wheelchair_boarding": 2, "platform_code": null, "location_type": 0}, "geometry": {"type": "Point", "coordinates": [1.253471, 45.831264000000004]}}, {"type": "Feature", "properties": {"stop_timezone": null, "stop_url": null, "vehicle_type": null, "stop_code": null, "stop_desc": null, "parent_station": "NAQ:StopPlace:34467", "stop_id": "NAQ:Quay:50148", "zone_id": null, "stop_name": "St Cyr - Le petit vedeix", "wheelchair_boarding": 2, "platform_code": null, "location_type": 0}, "geometry": {"type": "Point", "coordinates": [0.978059, 45.816444]}}, {"type": "Feature", "properties": {"stop_timezone": null, "stop_url": null, "vehicle_type": null, "stop_code": null, "stop_desc": null, "parent_station": "NAQ:StopPlace:31162", "stop_id": "NAQ:Quay:44937", "zone_id": null, "stop_name": "Aixe sur Vienne - Passage niveau*", "wheelchair_boarding": 2, "platform_code": null, "location_type": 0}, "geometry": {"type": "Point", "coordinates": [1.145108, 45.79735]}}, {"type": "Feature", "properties": {"stop_timezone": null, "stop_url": null, "vehicle_type": null, "stop_code": null, "stop_desc": null, "parent_station": "NAQ:StopPlace:31161", "stop_id": "NAQ:Quay:44935", "zone_id": null, "stop_name": "Aixe sur V. - Av. Pasteur*", "wheelchair_boarding": 2, "platform_code": null, "location_type": 0}, "geometry": {"type": "Point", "coordinates": [1.132819, 45.796158]}}]}