{"type": "FeatureCollection", "features": [{"type": "Feature", "properties": {"route_id": "HVI:Line:LR11_20190901", "service_id": "HVI:Timetable:15", "trip_id": "HVI:VehicleJourney:LR1116A_20190901_1", "trip_headsign": "LIMOGES - CIEL", "trip_short_name": null, "direction_id": 0, "wheelchair_accessible": 0, "shape_id": "shape_072"}, "geometry": {"type": "LineString", "coordinates": [[0.9042030000000001, 45.89054], [0.913108, 45.895634], [1.2273040000000002, 45.834441999999996], [1.250401, 45.830104999999996], [1.253471, 45.831264000000004], [1.258097, 45.831734000000004], [1.264219, 45.832122999999996], [1.268363, 45.83616]]}}, {"type": "Feature", "properties": {"stop_timezone": null, "stop_url": null, "vehicle_type": null, "stop_code": null, "stop_desc": null, "parent_station": "NAQ:StopPlace:34679", "stop_id": "NAQ:Quay:50811", "zone_id": null, "stop_name": "LIMOGES - CIEL", "wheelchair_boarding": 2, "platform_code": null, "location_type": 0}, "geometry": {"type": "Point", "coordinates": [1.268363, 45.83616]}}, {"type": "Feature", "properties": {"stop_timezone": null, "stop_url": null, "vehicle_type": null, "stop_code": null, "stop_desc": null, "parent_station": "NAQ:StopPlace:35205", "stop_id": "NAQ:Quay:51843", "zone_id": null, "stop_name": "Limoges - Place des Carmes", "wheelchair_boarding": 2, "platform_code": null, "location_type": 0}, "geometry": {"type": "Point", "coordinates": [1.250401, 45.830104999999996]}}, {"type": "Feature", "properties": {"stop_timezone": null, "stop_url": null, "vehicle_type": null, "stop_code": null, "stop_desc": null, "parent_station": "NAQ:StopPlace:31256", "stop_id": "NAQ:Quay:45121", "zone_id": null, "stop_name": "St Junien - Av. d'Oradour/Glane*", "wheelchair_boarding": 2, "platform_code": null, "location_type": 0}, "geometry": {"type": "Point", "coordinates": [0.913108, 45.895634]}}, {"type": "Feature", "properties": {"stop_timezone": null, "stop_url": null, "vehicle_type": null, "stop_code": null, "stop_desc": null, "parent_station": "NAQ:StopPlace:31255", "stop_id": "NAQ:Quay:45105", "zone_id": null, "stop_name": "St Junien - Champ de Foire*", "wheelchair_boarding": 2, "platform_code": null, "location_type": 0}, "geometry": {"type": "Point", "coordinates": [0.9042030000000001, 45.89054]}}, {"type": "Feature", "properties": {"stop_timezone": null, "stop_url": null, "vehicle_type": null, "stop_code": null, "stop_desc": null, "parent_station": "NAQ:StopPlace:29696", "stop_id": "NAQ:Quay:45101", "zone_id": null, "stop_name": "A. Dutreix", "wheelchair_boarding": 2, "platform_code": null, "location_type": 0}, "geometry": {"type": "Point", "coordinates": [1.2273040000000002, 45.834441999999996]}}, {"type": "Feature", "properties": {"stop_timezone": null, "stop_url": null, "vehicle_type": null, "stop_code": null, "stop_desc": null, "parent_station": "NAQ:StopPlace:31195", "stop_id": "NAQ:Quay:44991", "zone_id": null, "stop_name": "Limoges - La poste*", "wheelchair_boarding": 2, "platform_code": null, "location_type": 0}, "geometry": {"type": "Point", "coordinates": [1.258097, 45.831734000000004]}}, {"type": "Feature", "properties": {"stop_timezone": null, "stop_url": null, "vehicle_type": null, "stop_code": null, "stop_desc": null, "parent_station": "NAQ:StopPlace:32478", "stop_id": "NAQ:Quay:47198", "zone_id": null, "stop_name": "Limoges - Place Jourdan", "wheelchair_boarding": 2, "platform_code": null, "location_type": 0}, "geometry": {"type": "Point", "coordinates": [1.264219, 45.832122999999996]}}, {"type": "Feature", "properties": {"stop_timezone": null, "stop_url": null, "vehicle_type": null, "stop_code": null, "stop_desc": null, "parent_station": "NAQ:StopPlace:30938", "stop_id": "NAQ:Quay:44960", "zone_id": null, "stop_name": "Limoges - Place Winston Churchill", "wheelchair_boarding": 2, "platform_code": null, "location_type": 0}, "geometry": {"type": "Point", "coordinates": [1.253471, 45.831264000000004]}}]}