{"type": "FeatureCollection", "features": [{"type": "Feature", "properties": {"route_id": "HVI:Line:LR12_20190901", "service_id": "HVI:Timetable:1", "trip_id": "HVI:VehicleJourney:LR1201R_20190901_1", "trip_headsign": "Oradour - Champ de Foire*", "trip_short_name": null, "direction_id": 1, "wheelchair_accessible": 0, "shape_id": "shape_164"}, "geometry": {"type": "LineString", "coordinates": [[1.2683879999999998, 45.83576], [1.264074, 45.832172], [1.258097, 45.831734000000004], [1.253471, 45.831264000000004], [1.249949, 45.8302], [1.227841, 45.8343], [1.132258, 45.861346999999995], [1.114853, 45.87018], [1.103194, 45.876529999999995], [1.087831, 45.899147], [1.065531, 45.90677], [1.033298, 45.932518]]}}, {"type": "Feature", "properties": {"stop_timezone": null, "stop_url": null, "vehicle_type": null, "stop_code": null, "stop_desc": null, "parent_station": "NAQ:StopPlace:32484", "stop_id": "NAQ:Quay:47210", "zone_id": null, "stop_name": "Limoges - Armand Dutreix*", "wheelchair_boarding": 2, "platform_code": null, "location_type": 0}, "geometry": {"type": "Point", "coordinates": [1.227841, 45.8343]}}, {"type": "Feature", "properties": {"stop_timezone": null, "stop_url": null, "vehicle_type": null, "stop_code": null, "stop_desc": null, "parent_station": "NAQ:StopPlace:31242", "stop_id": "NAQ:Quay:45092", "zone_id": null, "stop_name": "Verneuil sur V. - La C\u00f4te*", "wheelchair_boarding": 2, "platform_code": null, "location_type": 0}, "geometry": {"type": "Point", "coordinates": [1.132258, 45.861346999999995]}}, {"type": "Feature", "properties": {"stop_timezone": null, "stop_url": null, "vehicle_type": null, "stop_code": null, "stop_desc": null, "parent_station": "NAQ:StopPlace:31243", "stop_id": "NAQ:Quay:45085", "zone_id": null, "stop_name": "Verneuil sur V. - Beauvalet", "wheelchair_boarding": 2, "platform_code": null, "location_type": 0}, "geometry": {"type": "Point", "coordinates": [1.103194, 45.876529999999995]}}, {"type": "Feature", "properties": {"stop_timezone": null, "stop_url": null, "vehicle_type": null, "stop_code": null, "stop_desc": null, "parent_station": "NAQ:StopPlace:31246", "stop_id": "NAQ:Quay:45089", "zone_id": null, "stop_name": "Verneuil sur V. - La Bouteille", "wheelchair_boarding": 2, "platform_code": null, "location_type": 0}, "geometry": {"type": "Point", "coordinates": [1.114853, 45.87018]}}, {"type": "Feature", "properties": {"stop_timezone": null, "stop_url": null, "vehicle_type": null, "stop_code": null, "stop_desc": null, "parent_station": "NAQ:StopPlace:34679", "stop_id": "NAQ:Quay:50810", "zone_id": null, "stop_name": "LIMOGES - CIEL*", "wheelchair_boarding": 2, "platform_code": null, "location_type": 0}, "geometry": {"type": "Point", "coordinates": [1.2683879999999998, 45.83576]}}, {"type": "Feature", "properties": {"stop_timezone": null, "stop_url": null, "vehicle_type": null, "stop_code": null, "stop_desc": null, "parent_station": "NAQ:StopPlace:29553", "stop_id": "NAQ:Quay:44871", "zone_id": null, "stop_name": "Limoges - Place Jourdan*", "wheelchair_boarding": 2, "platform_code": null, "location_type": 0}, "geometry": {"type": "Point", "coordinates": [1.264074, 45.832172]}}, {"type": "Feature", "properties": {"stop_timezone": null, "stop_url": null, "vehicle_type": null, "stop_code": null, "stop_desc": null, "parent_station": "NAQ:StopPlace:31270", "stop_id": "NAQ:Quay:45140", "zone_id": null, "stop_name": "Veyrac - La Plaine", "wheelchair_boarding": 2, "platform_code": null, "location_type": 0}, "geometry": {"type": "Point", "coordinates": [1.065531, 45.90677]}}, {"type": "Feature", "properties": {"stop_timezone": null, "stop_url": null, "vehicle_type": null, "stop_code": null, "stop_desc": null, "parent_station": "NAQ:StopPlace:31271", "stop_id": "NAQ:Quay:45141", "zone_id": null, "stop_name": "Oradour - Champ de Foire", "wheelchair_boarding": 2, "platform_code": null, "location_type": 0}, "geometry": {"type": "Point", "coordinates": [1.033298, 45.932518]}}, {"type": "Feature", "properties": {"stop_timezone": null, "stop_url": null, "vehicle_type": null, "stop_code": null, "stop_desc": null, "parent_station": "NAQ:StopPlace:35200", "stop_id": "NAQ:Quay:51844", "zone_id": null, "stop_name": "Limoges - Place des Carmes*", "wheelchair_boarding": 2, "platform_code": null, "location_type": 0}, "geometry": {"type": "Point", "coordinates": [1.249949, 45.8302]}}, {"type": "Feature", "properties": {"stop_timezone": null, "stop_url": null, "vehicle_type": null, "stop_code": null, "stop_desc": null, "parent_station": "NAQ:StopPlace:31088", "stop_id": "NAQ:Quay:45130", "zone_id": null, "stop_name": "Veyrac - Les Cinq Routes*", "wheelchair_boarding": 2, "platform_code": null, "location_type": 0}, "geometry": {"type": "Point", "coordinates": [1.087831, 45.899147]}}, {"type": "Feature", "properties": {"stop_timezone": null, "stop_url": null, "vehicle_type": null, "stop_code": null, "stop_desc": null, "parent_station": "NAQ:StopPlace:31195", "stop_id": "NAQ:Quay:44991", "zone_id": null, "stop_name": "Limoges - La poste*", "wheelchair_boarding": 2, "platform_code": null, "location_type": 0}, "geometry": {"type": "Point", "coordinates": [1.258097, 45.831734000000004]}}, {"type": "Feature", "properties": {"stop_timezone": null, "stop_url": null, "vehicle_type": null, "stop_code": null, "stop_desc": null, "parent_station": "NAQ:StopPlace:30938", "stop_id": "NAQ:Quay:44960", "zone_id": null, "stop_name": "Limoges - Place Winston Churchill", "wheelchair_boarding": 2, "platform_code": null, "location_type": 0}, "geometry": {"type": "Point", "coordinates": [1.253471, 45.831264000000004]}}]}