{"type": "FeatureCollection", "features": [{"type": "Feature", "properties": {"route_id": "HVI:Line:LR07_20190901", "service_id": "HVI:Timetable:10", "trip_id": "HVI:VehicleJourney:LR0802A_20190901_1", "trip_headsign": "Limoges - Place W. Churchill F", "trip_short_name": null, "direction_id": 0, "wheelchair_accessible": 0, "shape_id": "shape_047"}, "geometry": {"type": "LineString", "coordinates": [[1.276318, 46.133884], [1.372702, 46.130306], [1.370024, 46.1072], [1.3618860000000002, 46.102795], [1.345227, 46.032043], [1.327991, 45.990359999999995], [1.272607, 45.834198], [1.268363, 45.83616], [1.264219, 45.832122999999996], [1.258097, 45.831734000000004], [1.253471, 45.831264000000004]]}}, {"type": "Feature", "properties": {"stop_timezone": null, "stop_url": null, "vehicle_type": null, "stop_code": null, "stop_desc": null, "parent_station": "NAQ:StopPlace:31211", "stop_id": "NAQ:Quay:45027", "zone_id": null, "stop_name": "St Sylvestre - La Crouzille*", "wheelchair_boarding": 2, "platform_code": null, "location_type": 0}, "geometry": {"type": "Point", "coordinates": [1.327991, 45.990359999999995]}}, {"type": "Feature", "properties": {"stop_timezone": null, "stop_url": null, "vehicle_type": null, "stop_code": null, "stop_desc": null, "parent_station": "NAQ:StopPlace:34679", "stop_id": "NAQ:Quay:50811", "zone_id": null, "stop_name": "LIMOGES - CIEL", "wheelchair_boarding": 2, "platform_code": null, "location_type": 0}, "geometry": {"type": "Point", "coordinates": [1.268363, 45.83616]}}, {"type": "Feature", "properties": {"stop_timezone": null, "stop_url": null, "vehicle_type": null, "stop_code": null, "stop_desc": null, "parent_station": "NAQ:StopPlace:31199", "stop_id": "NAQ:Quay:45011", "zone_id": null, "stop_name": "Bessines - Route de Bersac", "wheelchair_boarding": 2, "platform_code": null, "location_type": 0}, "geometry": {"type": "Point", "coordinates": [1.370024, 46.1072]}}, {"type": "Feature", "properties": {"stop_timezone": null, "stop_url": null, "vehicle_type": null, "stop_code": null, "stop_desc": null, "parent_station": "NAQ:StopPlace:31213", "stop_id": "NAQ:Quay:45013", "zone_id": null, "stop_name": "Bessines - Route de Sagnat", "wheelchair_boarding": 2, "platform_code": null, "location_type": 0}, "geometry": {"type": "Point", "coordinates": [1.3618860000000002, 46.102795]}}, {"type": "Feature", "properties": {"stop_timezone": null, "stop_url": null, "vehicle_type": null, "stop_code": null, "stop_desc": null, "parent_station": "NAQ:StopPlace:31210", "stop_id": "NAQ:Quay:45009", "zone_id": null, "stop_name": "Raz\u00e8s - Haut", "wheelchair_boarding": 2, "platform_code": null, "location_type": 0}, "geometry": {"type": "Point", "coordinates": [1.345227, 46.032043]}}, {"type": "Feature", "properties": {"stop_timezone": null, "stop_url": null, "vehicle_type": null, "stop_code": null, "stop_desc": null, "parent_station": "NAQ:StopPlace:31194", "stop_id": "NAQ:Quay:45005", "zone_id": null, "stop_name": "Bessines - La Croix du Breuil", "wheelchair_boarding": 2, "platform_code": null, "location_type": 0}, "geometry": {"type": "Point", "coordinates": [1.372702, 46.130306]}}, {"type": "Feature", "properties": {"stop_timezone": null, "stop_url": null, "vehicle_type": null, "stop_code": null, "stop_desc": null, "parent_station": "NAQ:StopPlace:31137", "stop_id": "NAQ:Quay:44884", "zone_id": null, "stop_name": "Limoges - Jean Gagnant", "wheelchair_boarding": 2, "platform_code": null, "location_type": 0}, "geometry": {"type": "Point", "coordinates": [1.272607, 45.834198]}}, {"type": "Feature", "properties": {"stop_timezone": null, "stop_url": null, "vehicle_type": null, "stop_code": null, "stop_desc": null, "parent_station": "NAQ:StopPlace:31195", "stop_id": "NAQ:Quay:44991", "zone_id": null, "stop_name": "Limoges - La poste*", "wheelchair_boarding": 2, "platform_code": null, "location_type": 0}, "geometry": {"type": "Point", "coordinates": [1.258097, 45.831734000000004]}}, {"type": "Feature", "properties": {"stop_timezone": null, "stop_url": null, "vehicle_type": null, "stop_code": null, "stop_desc": null, "parent_station": "NAQ:StopPlace:31185", "stop_id": "NAQ:Quay:44971", "zone_id": null, "stop_name": "Ch\u00e2teauponsac - Gare routi\u00e8re*", "wheelchair_boarding": 2, "platform_code": null, "location_type": 0}, "geometry": {"type": "Point", "coordinates": [1.276318, 46.133884]}}, {"type": "Feature", "properties": {"stop_timezone": null, "stop_url": null, "vehicle_type": null, "stop_code": null, "stop_desc": null, "parent_station": "NAQ:StopPlace:32478", "stop_id": "NAQ:Quay:47198", "zone_id": null, "stop_name": "Limoges - Place Jourdan", "wheelchair_boarding": 2, "platform_code": null, "location_type": 0}, "geometry": {"type": "Point", "coordinates": [1.264219, 45.832122999999996]}}, {"type": "Feature", "properties": {"stop_timezone": null, "stop_url": null, "vehicle_type": null, "stop_code": null, "stop_desc": null, "parent_station": "NAQ:StopPlace:30938", "stop_id": "NAQ:Quay:44960", "zone_id": null, "stop_name": "Limoges - Place Winston Churchill", "wheelchair_boarding": 2, "platform_code": null, "location_type": 0}, "geometry": {"type": "Point", "coordinates": [1.253471, 45.831264000000004]}}]}