{"type": "FeatureCollection", "features": [{"type": "Feature", "properties": {"route_id": "HVI:Line:LR03_20190901", "service_id": "HVI:Timetable:20", "trip_id": "HVI:VehicleJourney:LR0309R_20190901_1", "trip_headsign": "Saint Mathieu - La Poste*", "trip_short_name": null, "direction_id": 1, "wheelchair_accessible": 0, "shape_id": "shape_037"}, "geometry": {"type": "LineString", "coordinates": [[1.253471, 45.831264000000004], [1.2662120000000001, 45.854843], [1.250699, 45.82566], [1.251943, 45.81928], [1.23252, 45.802944000000004], [1.228583, 45.79988], [1.219852, 45.792266999999995], [1.202925, 45.78317], [1.179809, 45.788265], [1.168239, 45.79072], [1.15886, 45.791340000000005], [1.145108, 45.79735], [1.1380540000000001, 45.796978], [1.132819, 45.796158], [1.095157, 45.77794], [1.083624, 45.771297], [1.079192, 45.76582], [1.064862, 45.76668], [1.053123, 45.770103000000006], [1.031132, 45.773926], [1.000422, 45.77296], [0.957643, 45.76887], [0.890899, 45.760146999999996], [0.866252, 45.73157], [0.864671, 45.72775], [0.8609690000000001, 45.713688], [0.851989, 45.705227], [0.803442, 45.70977], [0.7582369999999999, 45.70751]]}}, {"type": "Feature", "properties": {"stop_timezone": null, "stop_url": null, "vehicle_type": null, "stop_code": null, "stop_desc": null, "parent_station": "NAQ:StopPlace:31147", "stop_id": "NAQ:Quay:44899", "zone_id": null, "stop_name": "S\u00e9reilhac - Rte de Gorre*", "wheelchair_boarding": 2, "platform_code": null, "location_type": 0}, "geometry": {"type": "Point", "coordinates": [1.064862, 45.76668]}}, {"type": "Feature", "properties": {"stop_timezone": null, "stop_url": null, "vehicle_type": null, "stop_code": null, "stop_desc": null, "parent_station": "NAQ:StopPlace:31140", "stop_id": "NAQ:Quay:44893", "zone_id": null, "stop_name": "Aixe sur Vienne - Champ de Foire*", "wheelchair_boarding": 2, "platform_code": null, "location_type": 0}, "geometry": {"type": "Point", "coordinates": [1.1380540000000001, 45.796978]}}, {"type": "Feature", "properties": {"stop_timezone": null, "stop_url": null, "vehicle_type": null, "stop_code": null, "stop_desc": null, "parent_station": "NAQ:StopPlace:31143", "stop_id": "NAQ:Quay:44891", "zone_id": null, "stop_name": "S\u00e9reilhac - Bourg", "wheelchair_boarding": 2, "platform_code": null, "location_type": 0}, "geometry": {"type": "Point", "coordinates": [1.079192, 45.76582]}}, {"type": "Feature", "properties": {"stop_timezone": null, "stop_url": null, "vehicle_type": null, "stop_code": null, "stop_desc": null, "parent_station": "NAQ:StopPlace:31142", "stop_id": "NAQ:Quay:44890", "zone_id": null, "stop_name": "Isle - Pont de L'Aiguille", "wheelchair_boarding": 2, "platform_code": null, "location_type": 0}, "geometry": {"type": "Point", "coordinates": [1.202925, 45.78317]}}, {"type": "Feature", "properties": {"stop_timezone": null, "stop_url": null, "vehicle_type": null, "stop_code": null, "stop_desc": null, "parent_station": "NAQ:StopPlace:31146", "stop_id": "NAQ:Quay:44897", "zone_id": null, "stop_name": "S\u00e9reilhac - Villeneuve", "wheelchair_boarding": 2, "platform_code": null, "location_type": 0}, "geometry": {"type": "Point", "coordinates": [1.031132, 45.773926]}}, {"type": "Feature", "properties": {"stop_timezone": null, "stop_url": null, "vehicle_type": null, "stop_code": null, "stop_desc": null, "parent_station": "NAQ:StopPlace:31144", "stop_id": "NAQ:Quay:44896", "zone_id": null, "stop_name": "S\u00e9reilhac - Le Mas Vergnez*", "wheelchair_boarding": 2, "platform_code": null, "location_type": 0}, "geometry": {"type": "Point", "coordinates": [1.053123, 45.770103000000006]}}, {"type": "Feature", "properties": {"stop_timezone": null, "stop_url": null, "vehicle_type": null, "stop_code": null, "stop_desc": null, "parent_station": "NAQ:StopPlace:31145", "stop_id": "NAQ:Quay:44895", "zone_id": null, "stop_name": "Cussac - La Monnerie*", "wheelchair_boarding": 2, "platform_code": null, "location_type": 0}, "geometry": {"type": "Point", "coordinates": [0.8609690000000001, 45.713688]}}, {"type": "Feature", "properties": {"stop_timezone": null, "stop_url": null, "vehicle_type": null, "stop_code": null, "stop_desc": null, "parent_station": "NAQ:StopPlace:35204", "stop_id": "NAQ:Quay:51841", "zone_id": null, "stop_name": "Limoges - Ernest Ruben Bas*", "wheelchair_boarding": 2, "platform_code": null, "location_type": 0}, "geometry": {"type": "Point", "coordinates": [1.251943, 45.81928]}}, {"type": "Feature", "properties": {"stop_timezone": null, "stop_url": null, "vehicle_type": null, "stop_code": null, "stop_desc": null, "parent_station": "NAQ:StopPlace:31449", "stop_id": "NAQ:Quay:51811", "zone_id": null, "stop_name": "Limoges - Lyc\u00e9e Turgot*", "wheelchair_boarding": 2, "platform_code": null, "location_type": 0}, "geometry": {"type": "Point", "coordinates": [1.2662120000000001, 45.854843]}}, {"type": "Feature", "properties": {"stop_timezone": null, "stop_url": null, "vehicle_type": null, "stop_code": null, "stop_desc": null, "parent_station": "NAQ:StopPlace:31163", "stop_id": "NAQ:Quay:44921", "zone_id": null, "stop_name": "Limoges - Ernest Ruben Haut*", "wheelchair_boarding": 2, "platform_code": null, "location_type": 0}, "geometry": {"type": "Point", "coordinates": [1.250699, 45.82566]}}, {"type": "Feature", "properties": {"stop_timezone": null, "stop_url": null, "vehicle_type": null, "stop_code": null, "stop_desc": null, "parent_station": "NAQ:StopPlace:31158", "stop_id": "NAQ:Quay:44916", "zone_id": null, "stop_name": "Isle - Les P\u00e2querettes*", "wheelchair_boarding": 2, "platform_code": null, "location_type": 0}, "geometry": {"type": "Point", "coordinates": [1.23252, 45.802944000000004]}}, {"type": "Feature", "properties": {"stop_timezone": null, "stop_url": null, "vehicle_type": null, "stop_code": null, "stop_desc": null, "parent_station": "NAQ:StopPlace:31153", "stop_id": "NAQ:Quay:44915", "zone_id": null, "stop_name": "Oradour / V. - Rue G.Guingouin*", "wheelchair_boarding": 2, "platform_code": null, "location_type": 0}, "geometry": {"type": "Point", "coordinates": [0.864671, 45.72775]}}, {"type": "Feature", "properties": {"stop_timezone": null, "stop_url": null, "vehicle_type": null, "stop_code": null, "stop_desc": null, "parent_station": "NAQ:StopPlace:31149", "stop_id": "NAQ:Quay:44901", "zone_id": null, "stop_name": "St Laurent sur Gorre - Mairie", "wheelchair_boarding": 2, "platform_code": null, "location_type": 0}, "geometry": {"type": "Point", "coordinates": [0.957643, 45.76887]}}, {"type": "Feature", "properties": {"stop_timezone": null, "stop_url": null, "vehicle_type": null, "stop_code": null, "stop_desc": null, "parent_station": "NAQ:StopPlace:31148", "stop_id": "NAQ:Quay:44900", "zone_id": null, "stop_name": "Oradour / V. - Puymoreau*", "wheelchair_boarding": 2, "platform_code": null, "location_type": 0}, "geometry": {"type": "Point", "coordinates": [0.890899, 45.760146999999996]}}, {"type": "Feature", "properties": {"stop_timezone": null, "stop_url": null, "vehicle_type": null, "stop_code": null, "stop_desc": null, "parent_station": "NAQ:StopPlace:31151", "stop_id": "NAQ:Quay:44904", "zone_id": null, "stop_name": "St Mathieu - La Poste", "wheelchair_boarding": 2, "platform_code": null, "location_type": 0}, "geometry": {"type": "Point", "coordinates": [0.7582369999999999, 45.70751]}}, {"type": "Feature", "properties": {"stop_timezone": null, "stop_url": null, "vehicle_type": null, "stop_code": null, "stop_desc": null, "parent_station": "NAQ:StopPlace:31155", "stop_id": "NAQ:Quay:44909", "zone_id": null, "stop_name": "Cussac - Place de la Poste", "wheelchair_boarding": 2, "platform_code": null, "location_type": 0}, "geometry": {"type": "Point", "coordinates": [0.851989, 45.705227]}}, {"type": "Feature", "properties": {"stop_timezone": null, "stop_url": null, "vehicle_type": null, "stop_code": null, "stop_desc": null, "parent_station": "NAQ:StopPlace:31154", "stop_id": "NAQ:Quay:44908", "zone_id": null, "stop_name": "St Mathieu - La Forge*", "wheelchair_boarding": 2, "platform_code": null, "location_type": 0}, "geometry": {"type": "Point", "coordinates": [0.803442, 45.70977]}}, {"type": "Feature", "properties": {"stop_timezone": null, "stop_url": null, "vehicle_type": null, "stop_code": null, "stop_desc": null, "parent_station": "NAQ:StopPlace:31150", "stop_id": "NAQ:Quay:44906", "zone_id": null, "stop_name": "Oradour / V. - Office  Tourisme*", "wheelchair_boarding": 2, "platform_code": null, "location_type": 0}, "geometry": {"type": "Point", "coordinates": [0.866252, 45.73157]}}, {"type": "Feature", "properties": {"stop_timezone": null, "stop_url": null, "vehicle_type": null, "stop_code": null, "stop_desc": null, "parent_station": "NAQ:StopPlace:30938", "stop_id": "NAQ:Quay:44960", "zone_id": null, "stop_name": "Limoges - Place Winston Churchill", "wheelchair_boarding": 2, "platform_code": null, "location_type": 0}, "geometry": {"type": "Point", "coordinates": [1.253471, 45.831264000000004]}}, {"type": "Feature", "properties": {"stop_timezone": null, "stop_url": null, "vehicle_type": null, "stop_code": null, "stop_desc": null, "parent_station": "NAQ:StopPlace:31171", "stop_id": "NAQ:Quay:44943", "zone_id": null, "stop_name": "S\u00e9reilhac - Les Grands Bos*", "wheelchair_boarding": 2, "platform_code": null, "location_type": 0}, "geometry": {"type": "Point", "coordinates": [1.083624, 45.771297]}}, {"type": "Feature", "properties": {"stop_timezone": null, "stop_url": null, "vehicle_type": null, "stop_code": null, "stop_desc": null, "parent_station": "NAQ:StopPlace:31166", "stop_id": "NAQ:Quay:44934", "zone_id": null, "stop_name": "Isle - Le Pont de Condat*", "wheelchair_boarding": 2, "platform_code": null, "location_type": 0}, "geometry": {"type": "Point", "coordinates": [1.228583, 45.79988]}}, {"type": "Feature", "properties": {"stop_timezone": null, "stop_url": null, "vehicle_type": null, "stop_code": null, "stop_desc": null, "parent_station": "NAQ:StopPlace:31159", "stop_id": "NAQ:Quay:44933", "zone_id": null, "stop_name": "Isle - Chez Minet*", "wheelchair_boarding": 2, "platform_code": null, "location_type": 0}, "geometry": {"type": "Point", "coordinates": [1.219852, 45.792266999999995]}}, {"type": "Feature", "properties": {"stop_timezone": null, "stop_url": null, "vehicle_type": null, "stop_code": null, "stop_desc": null, "parent_station": "NAQ:StopPlace:31167", "stop_id": "NAQ:Quay:44932", "zone_id": null, "stop_name": "Isle - Le Caillaud", "wheelchair_boarding": 2, "platform_code": null, "location_type": 0}, "geometry": {"type": "Point", "coordinates": [1.179809, 45.788265]}}, {"type": "Feature", "properties": {"stop_timezone": null, "stop_url": null, "vehicle_type": null, "stop_code": null, "stop_desc": null, "parent_station": "NAQ:StopPlace:31165", "stop_id": "NAQ:Quay:44931", "zone_id": null, "stop_name": "Isle - Le Bas M\u00e9rignac*", "wheelchair_boarding": 2, "platform_code": null, "location_type": 0}, "geometry": {"type": "Point", "coordinates": [1.168239, 45.79072]}}, {"type": "Feature", "properties": {"stop_timezone": null, "stop_url": null, "vehicle_type": null, "stop_code": null, "stop_desc": null, "parent_station": "NAQ:StopPlace:31169", "stop_id": "NAQ:Quay:44938", "zone_id": null, "stop_name": "St Laurent sur Gorre - La Grange", "wheelchair_boarding": 2, "platform_code": null, "location_type": 0}, "geometry": {"type": "Point", "coordinates": [1.000422, 45.77296]}}, {"type": "Feature", "properties": {"stop_timezone": null, "stop_url": null, "vehicle_type": null, "stop_code": null, "stop_desc": null, "parent_station": "NAQ:StopPlace:31162", "stop_id": "NAQ:Quay:44937", "zone_id": null, "stop_name": "Aixe sur Vienne - Passage niveau*", "wheelchair_boarding": 2, "platform_code": null, "location_type": 0}, "geometry": {"type": "Point", "coordinates": [1.145108, 45.79735]}}, {"type": "Feature", "properties": {"stop_timezone": null, "stop_url": null, "vehicle_type": null, "stop_code": null, "stop_desc": null, "parent_station": "NAQ:StopPlace:31161", "stop_id": "NAQ:Quay:44935", "zone_id": null, "stop_name": "Aixe sur V. - Av. Pasteur*", "wheelchair_boarding": 2, "platform_code": null, "location_type": 0}, "geometry": {"type": "Point", "coordinates": [1.132819, 45.796158]}}, {"type": "Feature", "properties": {"stop_timezone": null, "stop_url": null, "vehicle_type": null, "stop_code": null, "stop_desc": null, "parent_station": "NAQ:StopPlace:31170", "stop_id": "NAQ:Quay:44939", "zone_id": null, "stop_name": "Aixe sur Vienne - Puy Panard", "wheelchair_boarding": 2, "platform_code": null, "location_type": 0}, "geometry": {"type": "Point", "coordinates": [1.15886, 45.791340000000005]}}, {"type": "Feature", "properties": {"stop_timezone": null, "stop_url": null, "vehicle_type": null, "stop_code": null, "stop_desc": null, "parent_station": "NAQ:StopPlace:31168", "stop_id": "NAQ:Quay:44930", "zone_id": null, "stop_name": "S\u00e9reilhac - Les Betoulles", "wheelchair_boarding": 2, "platform_code": null, "location_type": 0}, "geometry": {"type": "Point", "coordinates": [1.095157, 45.77794]}}]}