{"type": "FeatureCollection", "features": [{"type": "Feature", "properties": {"route_id": "HVI:Line:LR50_20190901", "service_id": "HVI:Timetable:20", "trip_id": "HVI:VehicleJourney:LR5007R_20190901_1", "trip_headsign": "Ladignac le Long - Mairie*", "trip_short_name": null, "direction_id": 1, "wheelchair_accessible": 0, "shape_id": "shape_147"}, "geometry": {"type": "LineString", "coordinates": [[1.2683879999999998, 45.83576], [1.264074, 45.832172], [1.253471, 45.831264000000004], [1.2662120000000001, 45.854843], [1.241359, 45.82365], [1.23252, 45.802944000000004], [1.219852, 45.792266999999995], [1.1988379999999998, 45.779625], [1.193526, 45.77321], [1.189648, 45.765083000000004], [1.186085, 45.766117], [1.1792719999999999, 45.7775], [1.167554, 45.76651], [1.168607, 45.75646], [1.162708, 45.74301], [1.151537, 45.725390000000004], [1.156641, 45.71342], [1.172792, 45.693657], [1.165162, 45.682693], [1.1867510000000001, 45.677715], [1.185426, 45.66144], [1.156145, 45.645103000000006], [1.150101, 45.641808000000005], [1.133508, 45.61505], [1.130665, 45.59559], [1.112802, 45.582676]]}}, {"type": "Feature", "properties": {"stop_timezone": null, "stop_url": null, "vehicle_type": null, "stop_code": null, "stop_desc": null, "parent_station": "NAQ:StopPlace:31353", "stop_id": "NAQ:Quay:45294", "zone_id": null, "stop_name": "Beynac - Bourg", "wheelchair_boarding": 2, "platform_code": null, "location_type": 0}, "geometry": {"type": "Point", "coordinates": [1.167554, 45.76651]}}, {"type": "Feature", "properties": {"stop_timezone": null, "stop_url": null, "vehicle_type": null, "stop_code": null, "stop_desc": null, "parent_station": "NAQ:StopPlace:34679", "stop_id": "NAQ:Quay:50810", "zone_id": null, "stop_name": "LIMOGES - CIEL*", "wheelchair_boarding": 2, "platform_code": null, "location_type": 0}, "geometry": {"type": "Point", "coordinates": [1.2683879999999998, 45.83576]}}, {"type": "Feature", "properties": {"stop_timezone": null, "stop_url": null, "vehicle_type": null, "stop_code": null, "stop_desc": null, "parent_station": "NAQ:StopPlace:31427", "stop_id": "NAQ:Quay:45437", "zone_id": null, "stop_name": "Ladignac le Long - Mairie*", "wheelchair_boarding": 2, "platform_code": null, "location_type": 0}, "geometry": {"type": "Point", "coordinates": [1.112802, 45.582676]}}, {"type": "Feature", "properties": {"stop_timezone": null, "stop_url": null, "vehicle_type": null, "stop_code": null, "stop_desc": null, "parent_station": "NAQ:StopPlace:31426", "stop_id": "NAQ:Quay:45435", "zone_id": null, "stop_name": "St Hilaire ls P - Les Vergnolles*", "wheelchair_boarding": 2, "platform_code": null, "location_type": 0}, "geometry": {"type": "Point", "coordinates": [1.150101, 45.641808000000005]}}, {"type": "Feature", "properties": {"stop_timezone": null, "stop_url": null, "vehicle_type": null, "stop_code": null, "stop_desc": null, "parent_station": "NAQ:StopPlace:31424", "stop_id": "NAQ:Quay:45436", "zone_id": null, "stop_name": "Burgnac - Les Landes*", "wheelchair_boarding": 2, "platform_code": null, "location_type": 0}, "geometry": {"type": "Point", "coordinates": [1.162708, 45.74301]}}, {"type": "Feature", "properties": {"stop_timezone": null, "stop_url": null, "vehicle_type": null, "stop_code": null, "stop_desc": null, "parent_station": "NAQ:StopPlace:31420", "stop_id": "NAQ:Quay:45430", "zone_id": null, "stop_name": "Nexon - Les Landes*", "wheelchair_boarding": 2, "platform_code": null, "location_type": 0}, "geometry": {"type": "Point", "coordinates": [1.185426, 45.66144]}}, {"type": "Feature", "properties": {"stop_timezone": null, "stop_url": null, "vehicle_type": null, "stop_code": null, "stop_desc": null, "parent_station": "NAQ:StopPlace:31425", "stop_id": "NAQ:Quay:45431", "zone_id": null, "stop_name": "Nexon - Biblioth\u00e8que*", "wheelchair_boarding": 2, "platform_code": null, "location_type": 0}, "geometry": {"type": "Point", "coordinates": [1.165162, 45.682693]}}, {"type": "Feature", "properties": {"stop_timezone": null, "stop_url": null, "vehicle_type": null, "stop_code": null, "stop_desc": null, "parent_station": "NAQ:StopPlace:31423", "stop_id": "NAQ:Quay:45426", "zone_id": null, "stop_name": "Ladignac - Laug\u00e8re", "wheelchair_boarding": 2, "platform_code": null, "location_type": 0}, "geometry": {"type": "Point", "coordinates": [1.130665, 45.59559]}}, {"type": "Feature", "properties": {"stop_timezone": null, "stop_url": null, "vehicle_type": null, "stop_code": null, "stop_desc": null, "parent_station": "NAQ:StopPlace:31421", "stop_id": "NAQ:Quay:45423", "zone_id": null, "stop_name": "St Hilaire - Les Places*", "wheelchair_boarding": 2, "platform_code": null, "location_type": 0}, "geometry": {"type": "Point", "coordinates": [1.156145, 45.645103000000006]}}, {"type": "Feature", "properties": {"stop_timezone": null, "stop_url": null, "vehicle_type": null, "stop_code": null, "stop_desc": null, "parent_station": "NAQ:StopPlace:31422", "stop_id": "NAQ:Quay:45424", "zone_id": null, "stop_name": "St Hilaire - La Gr\u00e9nerie", "wheelchair_boarding": 2, "platform_code": null, "location_type": 0}, "geometry": {"type": "Point", "coordinates": [1.133508, 45.61505]}}, {"type": "Feature", "properties": {"stop_timezone": null, "stop_url": null, "vehicle_type": null, "stop_code": null, "stop_desc": null, "parent_station": "NAQ:StopPlace:31415", "stop_id": "NAQ:Quay:45425", "zone_id": null, "stop_name": "Bosmie - Place Cr\u00e9piat", "wheelchair_boarding": 2, "platform_code": null, "location_type": 0}, "geometry": {"type": "Point", "coordinates": [1.1988379999999998, 45.779625]}}, {"type": "Feature", "properties": {"stop_timezone": null, "stop_url": null, "vehicle_type": null, "stop_code": null, "stop_desc": null, "parent_station": "NAQ:StopPlace:31418", "stop_id": "NAQ:Quay:45420", "zone_id": null, "stop_name": "Burgnac - Bourg*", "wheelchair_boarding": 2, "platform_code": null, "location_type": 0}, "geometry": {"type": "Point", "coordinates": [1.151537, 45.725390000000004]}}, {"type": "Feature", "properties": {"stop_timezone": null, "stop_url": null, "vehicle_type": null, "stop_code": null, "stop_desc": null, "parent_station": "NAQ:StopPlace:29553", "stop_id": "NAQ:Quay:44871", "zone_id": null, "stop_name": "Limoges - Place Jourdan*", "wheelchair_boarding": 2, "platform_code": null, "location_type": 0}, "geometry": {"type": "Point", "coordinates": [1.264074, 45.832172]}}, {"type": "Feature", "properties": {"stop_timezone": null, "stop_url": null, "vehicle_type": null, "stop_code": null, "stop_desc": null, "parent_station": "NAQ:StopPlace:35199", "stop_id": "NAQ:Quay:51851", "zone_id": null, "stop_name": "Lyc\u00e9e Renoir", "wheelchair_boarding": 2, "platform_code": null, "location_type": 0}, "geometry": {"type": "Point", "coordinates": [1.241359, 45.82365]}}, {"type": "Feature", "properties": {"stop_timezone": null, "stop_url": null, "vehicle_type": null, "stop_code": null, "stop_desc": null, "parent_station": "NAQ:StopPlace:31449", "stop_id": "NAQ:Quay:51811", "zone_id": null, "stop_name": "Limoges - Lyc\u00e9e Turgot*", "wheelchair_boarding": 2, "platform_code": null, "location_type": 0}, "geometry": {"type": "Point", "coordinates": [1.2662120000000001, 45.854843]}}, {"type": "Feature", "properties": {"stop_timezone": null, "stop_url": null, "vehicle_type": null, "stop_code": null, "stop_desc": null, "parent_station": "NAQ:StopPlace:31416", "stop_id": "NAQ:Quay:45415", "zone_id": null, "stop_name": "Beynac - La Sudrie*", "wheelchair_boarding": 2, "platform_code": null, "location_type": 0}, "geometry": {"type": "Point", "coordinates": [1.1792719999999999, 45.7775]}}, {"type": "Feature", "properties": {"stop_timezone": null, "stop_url": null, "vehicle_type": null, "stop_code": null, "stop_desc": null, "parent_station": "NAQ:StopPlace:31417", "stop_id": "NAQ:Quay:45418", "zone_id": null, "stop_name": "Beynac - Nouailhas*", "wheelchair_boarding": 2, "platform_code": null, "location_type": 0}, "geometry": {"type": "Point", "coordinates": [1.168607, 45.75646]}}, {"type": "Feature", "properties": {"stop_timezone": null, "stop_url": null, "vehicle_type": null, "stop_code": null, "stop_desc": null, "parent_station": "NAQ:StopPlace:31413", "stop_id": "NAQ:Quay:45411", "zone_id": null, "stop_name": "Nexon - Gare*", "wheelchair_boarding": 2, "platform_code": null, "location_type": 0}, "geometry": {"type": "Point", "coordinates": [1.172792, 45.693657]}}, {"type": "Feature", "properties": {"stop_timezone": null, "stop_url": null, "vehicle_type": null, "stop_code": null, "stop_desc": null, "parent_station": "NAQ:StopPlace:31414", "stop_id": "NAQ:Quay:45413", "zone_id": null, "stop_name": "Nexon - Place Fratellini*", "wheelchair_boarding": 2, "platform_code": null, "location_type": 0}, "geometry": {"type": "Point", "coordinates": [1.1867510000000001, 45.677715]}}, {"type": "Feature", "properties": {"stop_timezone": null, "stop_url": null, "vehicle_type": null, "stop_code": null, "stop_desc": null, "parent_station": "NAQ:StopPlace:31412", "stop_id": "NAQ:Quay:45410", "zone_id": null, "stop_name": "Bosmie - Lestrade", "wheelchair_boarding": 2, "platform_code": null, "location_type": 0}, "geometry": {"type": "Point", "coordinates": [1.189648, 45.765083000000004]}}, {"type": "Feature", "properties": {"stop_timezone": null, "stop_url": null, "vehicle_type": null, "stop_code": null, "stop_desc": null, "parent_station": "NAQ:StopPlace:31410", "stop_id": "NAQ:Quay:45408", "zone_id": null, "stop_name": "Beynac - Gare", "wheelchair_boarding": 2, "platform_code": null, "location_type": 0}, "geometry": {"type": "Point", "coordinates": [1.186085, 45.766117]}}, {"type": "Feature", "properties": {"stop_timezone": null, "stop_url": null, "vehicle_type": null, "stop_code": null, "stop_desc": null, "parent_station": "NAQ:StopPlace:31411", "stop_id": "NAQ:Quay:45409", "zone_id": null, "stop_name": "Meilhac - Bourg*", "wheelchair_boarding": 2, "platform_code": null, "location_type": 0}, "geometry": {"type": "Point", "coordinates": [1.156641, 45.71342]}}, {"type": "Feature", "properties": {"stop_timezone": null, "stop_url": null, "vehicle_type": null, "stop_code": null, "stop_desc": null, "parent_station": "NAQ:StopPlace:31409", "stop_id": "NAQ:Quay:45407", "zone_id": null, "stop_name": "Bosmie - Le Petit Bastier*", "wheelchair_boarding": 2, "platform_code": null, "location_type": 0}, "geometry": {"type": "Point", "coordinates": [1.193526, 45.77321]}}, {"type": "Feature", "properties": {"stop_timezone": null, "stop_url": null, "vehicle_type": null, "stop_code": null, "stop_desc": null, "parent_station": "NAQ:StopPlace:31158", "stop_id": "NAQ:Quay:44916", "zone_id": null, "stop_name": "Isle - Les P\u00e2querettes*", "wheelchair_boarding": 2, "platform_code": null, "location_type": 0}, "geometry": {"type": "Point", "coordinates": [1.23252, 45.802944000000004]}}, {"type": "Feature", "properties": {"stop_timezone": null, "stop_url": null, "vehicle_type": null, "stop_code": null, "stop_desc": null, "parent_station": "NAQ:StopPlace:30938", "stop_id": "NAQ:Quay:44960", "zone_id": null, "stop_name": "Limoges - Place Winston Churchill", "wheelchair_boarding": 2, "platform_code": null, "location_type": 0}, "geometry": {"type": "Point", "coordinates": [1.253471, 45.831264000000004]}}, {"type": "Feature", "properties": {"stop_timezone": null, "stop_url": null, "vehicle_type": null, "stop_code": null, "stop_desc": null, "parent_station": "NAQ:StopPlace:31159", "stop_id": "NAQ:Quay:44933", "zone_id": null, "stop_name": "Isle - Chez Minet*", "wheelchair_boarding": 2, "platform_code": null, "location_type": 0}, "geometry": {"type": "Point", "coordinates": [1.219852, 45.792266999999995]}}]}