{"type": "FeatureCollection", "features": [{"type": "Feature", "properties": {"route_id": "HVI:Line:LRB_20190901", "service_id": "HVI:Timetable:1", "trip_id": "HVI:VehicleJourney:LRB008A_20190901_1", "trip_headsign": "LIMOGES - CIEL", "trip_short_name": null, "direction_id": 1, "wheelchair_accessible": 0, "shape_id": "shape_055"}, "geometry": {"type": "LineString", "coordinates": [[1.370227, 46.109715], [1.345227, 46.032043], [1.327991, 45.990359999999995], [1.266217, 45.854847], [1.253471, 45.831264000000004], [1.258097, 45.831734000000004], [1.264219, 45.832122999999996], [1.268363, 45.83616]]}}, {"type": "Feature", "properties": {"stop_timezone": null, "stop_url": null, "vehicle_type": null, "stop_code": null, "stop_desc": null, "parent_station": "NAQ:StopPlace:31211", "stop_id": "NAQ:Quay:45027", "zone_id": null, "stop_name": "St Sylvestre - La Crouzille*", "wheelchair_boarding": 2, "platform_code": null, "location_type": 0}, "geometry": {"type": "Point", "coordinates": [1.327991, 45.990359999999995]}}, {"type": "Feature", "properties": {"stop_timezone": null, "stop_url": null, "vehicle_type": null, "stop_code": null, "stop_desc": null, "parent_station": "NAQ:StopPlace:34679", "stop_id": "NAQ:Quay:50811", "zone_id": null, "stop_name": "LIMOGES - CIEL", "wheelchair_boarding": 2, "platform_code": null, "location_type": 0}, "geometry": {"type": "Point", "coordinates": [1.268363, 45.83616]}}, {"type": "Feature", "properties": {"stop_timezone": null, "stop_url": null, "vehicle_type": null, "stop_code": null, "stop_desc": null, "parent_station": "NAQ:StopPlace:31210", "stop_id": "NAQ:Quay:45009", "zone_id": null, "stop_name": "Raz\u00e8s - Haut", "wheelchair_boarding": 2, "platform_code": null, "location_type": 0}, "geometry": {"type": "Point", "coordinates": [1.345227, 46.032043]}}, {"type": "Feature", "properties": {"stop_timezone": null, "stop_url": null, "vehicle_type": null, "stop_code": null, "stop_desc": null, "parent_station": "NAQ:StopPlace:31449", "stop_id": "NAQ:Quay:45473", "zone_id": null, "stop_name": "Limoges - Les Arcades", "wheelchair_boarding": 2, "platform_code": null, "location_type": 0}, "geometry": {"type": "Point", "coordinates": [1.266217, 45.854847]}}, {"type": "Feature", "properties": {"stop_timezone": null, "stop_url": null, "vehicle_type": null, "stop_code": null, "stop_desc": null, "parent_station": "NAQ:StopPlace:31195", "stop_id": "NAQ:Quay:44991", "zone_id": null, "stop_name": "Limoges - La poste*", "wheelchair_boarding": 2, "platform_code": null, "location_type": 0}, "geometry": {"type": "Point", "coordinates": [1.258097, 45.831734000000004]}}, {"type": "Feature", "properties": {"stop_timezone": null, "stop_url": null, "vehicle_type": null, "stop_code": null, "stop_desc": null, "parent_station": "NAQ:StopPlace:31197", "stop_id": "NAQ:Quay:44993", "zone_id": null, "stop_name": "Bessines - Bourg*", "wheelchair_boarding": 2, "platform_code": null, "location_type": 0}, "geometry": {"type": "Point", "coordinates": [1.370227, 46.109715]}}, {"type": "Feature", "properties": {"stop_timezone": null, "stop_url": null, "vehicle_type": null, "stop_code": null, "stop_desc": null, "parent_station": "NAQ:StopPlace:32478", "stop_id": "NAQ:Quay:47198", "zone_id": null, "stop_name": "Limoges - Place Jourdan", "wheelchair_boarding": 2, "platform_code": null, "location_type": 0}, "geometry": {"type": "Point", "coordinates": [1.264219, 45.832122999999996]}}, {"type": "Feature", "properties": {"stop_timezone": null, "stop_url": null, "vehicle_type": null, "stop_code": null, "stop_desc": null, "parent_station": "NAQ:StopPlace:30938", "stop_id": "NAQ:Quay:44960", "zone_id": null, "stop_name": "Limoges - Place Winston Churchill", "wheelchair_boarding": 2, "platform_code": null, "location_type": 0}, "geometry": {"type": "Point", "coordinates": [1.253471, 45.831264000000004]}}]}