{"type": "FeatureCollection", "features": [{"type": "Feature", "properties": {"route_id": "HVI:Line:LR11_20190901", "service_id": "HVI:Timetable:1", "trip_id": "HVI:VehicleJourney:LR1114A_20180901_1", "trip_headsign": "LIMOGES - CIEL", "trip_short_name": null, "direction_id": 0, "wheelchair_accessible": 0, "shape_id": "shape_007"}, "geometry": {"type": "LineString", "coordinates": [[0.866116, 45.731590000000004], [0.853427, 45.747906], [0.8487899999999999, 45.762159999999994], [0.8218049999999999, 45.824096999999995], [0.832716, 45.832752], [0.840816, 45.837063], [0.853923, 45.84661], [0.8999940000000001, 45.881718], [0.902983, 45.884792], [0.898659, 45.88647], [0.9042030000000001, 45.89054], [0.913108, 45.895634], [0.9186040000000001, 45.898216], [0.955651, 45.906338], [0.997426, 45.902527], [1.0340690000000001, 45.896609999999995], [1.0514940000000002, 45.89294], [1.1038299999999999, 45.876020000000004], [1.114694, 45.870148], [1.1313360000000001, 45.86138], [1.2273040000000002, 45.834441999999996], [1.250401, 45.830104999999996], [1.254033, 45.831115999999994], [1.258097, 45.831734000000004], [1.264219, 45.832122999999996], [1.268363, 45.83616]]}}, {"type": "Feature", "properties": {"stop_timezone": null, "stop_url": null, "vehicle_type": null, "stop_code": null, "stop_desc": null, "parent_station": "NAQ:StopPlace:31250", "stop_id": "NAQ:Quay:45095", "zone_id": null, "stop_name": "St Junien - carrefour de l'Europe", "wheelchair_boarding": 2, "platform_code": null, "location_type": 0}, "geometry": {"type": "Point", "coordinates": [0.9186040000000001, 45.898216]}}, {"type": "Feature", "properties": {"stop_timezone": null, "stop_url": null, "vehicle_type": null, "stop_code": null, "stop_desc": null, "parent_station": "NAQ:StopPlace:31247", "stop_id": "NAQ:Quay:45091", "zone_id": null, "stop_name": "Rochechouart - Croix de Labrousse", "wheelchair_boarding": 2, "platform_code": null, "location_type": 0}, "geometry": {"type": "Point", "coordinates": [0.840816, 45.837063]}}, {"type": "Feature", "properties": {"stop_timezone": null, "stop_url": null, "vehicle_type": null, "stop_code": null, "stop_desc": null, "parent_station": "NAQ:StopPlace:31248", "stop_id": "NAQ:Quay:45093", "zone_id": null, "stop_name": "Rochechouart - La Grosille", "wheelchair_boarding": 2, "platform_code": null, "location_type": 0}, "geometry": {"type": "Point", "coordinates": [0.832716, 45.832752]}}, {"type": "Feature", "properties": {"stop_timezone": null, "stop_url": null, "vehicle_type": null, "stop_code": null, "stop_desc": null, "parent_station": "NAQ:StopPlace:31243", "stop_id": "NAQ:Quay:45084", "zone_id": null, "stop_name": "Verneuil sur V. - Beauvalet", "wheelchair_boarding": 2, "platform_code": null, "location_type": 0}, "geometry": {"type": "Point", "coordinates": [1.1038299999999999, 45.876020000000004]}}, {"type": "Feature", "properties": {"stop_timezone": null, "stop_url": null, "vehicle_type": null, "stop_code": null, "stop_desc": null, "parent_station": "NAQ:StopPlace:31242", "stop_id": "NAQ:Quay:45082", "zone_id": null, "stop_name": "Verneuil sur V. - La C\u00f4te*", "wheelchair_boarding": 2, "platform_code": null, "location_type": 0}, "geometry": {"type": "Point", "coordinates": [1.1313360000000001, 45.86138]}}, {"type": "Feature", "properties": {"stop_timezone": null, "stop_url": null, "vehicle_type": null, "stop_code": null, "stop_desc": null, "parent_station": "NAQ:StopPlace:31239", "stop_id": "NAQ:Quay:45083", "zone_id": null, "stop_name": "Rochechouart - Les Plats*", "wheelchair_boarding": 2, "platform_code": null, "location_type": 0}, "geometry": {"type": "Point", "coordinates": [0.853923, 45.84661]}}, {"type": "Feature", "properties": {"stop_timezone": null, "stop_url": null, "vehicle_type": null, "stop_code": null, "stop_desc": null, "parent_station": "NAQ:StopPlace:31246", "stop_id": "NAQ:Quay:45088", "zone_id": null, "stop_name": "Verneuil sur V. - La Bouteille", "wheelchair_boarding": 2, "platform_code": null, "location_type": 0}, "geometry": {"type": "Point", "coordinates": [1.114694, 45.870148]}}, {"type": "Feature", "properties": {"stop_timezone": null, "stop_url": null, "vehicle_type": null, "stop_code": null, "stop_desc": null, "parent_station": "NAQ:StopPlace:35205", "stop_id": "NAQ:Quay:45074", "zone_id": null, "stop_name": "Limoges - Place W. Churchill A", "wheelchair_boarding": 2, "platform_code": null, "location_type": 0}, "geometry": {"type": "Point", "coordinates": [1.254033, 45.831115999999994]}}, {"type": "Feature", "properties": {"stop_timezone": null, "stop_url": null, "vehicle_type": null, "stop_code": null, "stop_desc": null, "parent_station": "NAQ:StopPlace:31231", "stop_id": "NAQ:Quay:45075", "zone_id": null, "stop_name": "St Junien - Place la c\u00f4te", "wheelchair_boarding": 2, "platform_code": null, "location_type": 0}, "geometry": {"type": "Point", "coordinates": [0.898659, 45.88647]}}, {"type": "Feature", "properties": {"stop_timezone": null, "stop_url": null, "vehicle_type": null, "stop_code": null, "stop_desc": null, "parent_station": "NAQ:StopPlace:31236", "stop_id": "NAQ:Quay:45076", "zone_id": null, "stop_name": "St Brice sur Vienne - La Malaise", "wheelchair_boarding": 2, "platform_code": null, "location_type": 0}, "geometry": {"type": "Point", "coordinates": [0.997426, 45.902527]}}, {"type": "Feature", "properties": {"stop_timezone": null, "stop_url": null, "vehicle_type": null, "stop_code": null, "stop_desc": null, "parent_station": "NAQ:StopPlace:31237", "stop_id": "NAQ:Quay:45077", "zone_id": null, "stop_name": "St Junien - Coll\u00e8ge P. Langevin*", "wheelchair_boarding": 2, "platform_code": null, "location_type": 0}, "geometry": {"type": "Point", "coordinates": [0.902983, 45.884792]}}, {"type": "Feature", "properties": {"stop_timezone": null, "stop_url": null, "vehicle_type": null, "stop_code": null, "stop_desc": null, "parent_station": "NAQ:StopPlace:31238", "stop_id": "NAQ:Quay:45078", "zone_id": null, "stop_name": "Veyrac - La Barre Bourg", "wheelchair_boarding": 2, "platform_code": null, "location_type": 0}, "geometry": {"type": "Point", "coordinates": [1.0514940000000002, 45.89294]}}, {"type": "Feature", "properties": {"stop_timezone": null, "stop_url": null, "vehicle_type": null, "stop_code": null, "stop_desc": null, "parent_station": "NAQ:StopPlace:34679", "stop_id": "NAQ:Quay:50811", "zone_id": null, "stop_name": "LIMOGES - CIEL", "wheelchair_boarding": 2, "platform_code": null, "location_type": 0}, "geometry": {"type": "Point", "coordinates": [1.268363, 45.83616]}}, {"type": "Feature", "properties": {"stop_timezone": null, "stop_url": null, "vehicle_type": null, "stop_code": null, "stop_desc": null, "parent_station": "NAQ:StopPlace:35205", "stop_id": "NAQ:Quay:51843", "zone_id": null, "stop_name": "Limoges - Place des Carmes", "wheelchair_boarding": 2, "platform_code": null, "location_type": 0}, "geometry": {"type": "Point", "coordinates": [1.250401, 45.830104999999996]}}, {"type": "Feature", "properties": {"stop_timezone": null, "stop_url": null, "vehicle_type": null, "stop_code": null, "stop_desc": null, "parent_station": "NAQ:StopPlace:31256", "stop_id": "NAQ:Quay:45121", "zone_id": null, "stop_name": "St Junien - Av. d'Oradour/Glane*", "wheelchair_boarding": 2, "platform_code": null, "location_type": 0}, "geometry": {"type": "Point", "coordinates": [0.913108, 45.895634]}}, {"type": "Feature", "properties": {"stop_timezone": null, "stop_url": null, "vehicle_type": null, "stop_code": null, "stop_desc": null, "parent_station": "NAQ:StopPlace:31258", "stop_id": "NAQ:Quay:45118", "zone_id": null, "stop_name": "Vayres - La Treille", "wheelchair_boarding": 2, "platform_code": null, "location_type": 0}, "geometry": {"type": "Point", "coordinates": [0.8487899999999999, 45.762159999999994]}}, {"type": "Feature", "properties": {"stop_timezone": null, "stop_url": null, "vehicle_type": null, "stop_code": null, "stop_desc": null, "parent_station": "NAQ:StopPlace:31259", "stop_id": "NAQ:Quay:45115", "zone_id": null, "stop_name": "Oradour / V. - Manvin*", "wheelchair_boarding": 2, "platform_code": null, "location_type": 0}, "geometry": {"type": "Point", "coordinates": [0.853427, 45.747906]}}, {"type": "Feature", "properties": {"stop_timezone": null, "stop_url": null, "vehicle_type": null, "stop_code": null, "stop_desc": null, "parent_station": "NAQ:StopPlace:31257", "stop_id": "NAQ:Quay:45116", "zone_id": null, "stop_name": "St Junien - Les S\u00e9guines", "wheelchair_boarding": 2, "platform_code": null, "location_type": 0}, "geometry": {"type": "Point", "coordinates": [0.955651, 45.906338]}}, {"type": "Feature", "properties": {"stop_timezone": null, "stop_url": null, "vehicle_type": null, "stop_code": null, "stop_desc": null, "parent_station": "NAQ:StopPlace:31245", "stop_id": "NAQ:Quay:45107", "zone_id": null, "stop_name": "St Junien - Gare SNCF", "wheelchair_boarding": 2, "platform_code": null, "location_type": 0}, "geometry": {"type": "Point", "coordinates": [0.8999940000000001, 45.881718]}}, {"type": "Feature", "properties": {"stop_timezone": null, "stop_url": null, "vehicle_type": null, "stop_code": null, "stop_desc": null, "parent_station": "NAQ:StopPlace:31255", "stop_id": "NAQ:Quay:45105", "zone_id": null, "stop_name": "St Junien - Champ de Foire*", "wheelchair_boarding": 2, "platform_code": null, "location_type": 0}, "geometry": {"type": "Point", "coordinates": [0.9042030000000001, 45.89054]}}, {"type": "Feature", "properties": {"stop_timezone": null, "stop_url": null, "vehicle_type": null, "stop_code": null, "stop_desc": null, "parent_station": "NAQ:StopPlace:31253", "stop_id": "NAQ:Quay:45100", "zone_id": null, "stop_name": "Rochechouart - Rue MauriceThorez*", "wheelchair_boarding": 2, "platform_code": null, "location_type": 0}, "geometry": {"type": "Point", "coordinates": [0.8218049999999999, 45.824096999999995]}}, {"type": "Feature", "properties": {"stop_timezone": null, "stop_url": null, "vehicle_type": null, "stop_code": null, "stop_desc": null, "parent_station": "NAQ:StopPlace:29696", "stop_id": "NAQ:Quay:45101", "zone_id": null, "stop_name": "A. Dutreix", "wheelchair_boarding": 2, "platform_code": null, "location_type": 0}, "geometry": {"type": "Point", "coordinates": [1.2273040000000002, 45.834441999999996]}}, {"type": "Feature", "properties": {"stop_timezone": null, "stop_url": null, "vehicle_type": null, "stop_code": null, "stop_desc": null, "parent_station": "NAQ:StopPlace:31254", "stop_id": "NAQ:Quay:45102", "zone_id": null, "stop_name": "St Victurnien - Le Loubier", "wheelchair_boarding": 2, "platform_code": null, "location_type": 0}, "geometry": {"type": "Point", "coordinates": [1.0340690000000001, 45.896609999999995]}}, {"type": "Feature", "properties": {"stop_timezone": null, "stop_url": null, "vehicle_type": null, "stop_code": null, "stop_desc": null, "parent_station": "NAQ:StopPlace:31195", "stop_id": "NAQ:Quay:44991", "zone_id": null, "stop_name": "Limoges - La poste*", "wheelchair_boarding": 2, "platform_code": null, "location_type": 0}, "geometry": {"type": "Point", "coordinates": [1.258097, 45.831734000000004]}}, {"type": "Feature", "properties": {"stop_timezone": null, "stop_url": null, "vehicle_type": null, "stop_code": null, "stop_desc": null, "parent_station": "NAQ:StopPlace:32478", "stop_id": "NAQ:Quay:47198", "zone_id": null, "stop_name": "Limoges - Place Jourdan", "wheelchair_boarding": 2, "platform_code": null, "location_type": 0}, "geometry": {"type": "Point", "coordinates": [1.264219, 45.832122999999996]}}, {"type": "Feature", "properties": {"stop_timezone": null, "stop_url": null, "vehicle_type": null, "stop_code": null, "stop_desc": null, "parent_station": "NAQ:StopPlace:31150", "stop_id": "NAQ:Quay:44903", "zone_id": null, "stop_name": "Oradour / V. - Office  Tourisme", "wheelchair_boarding": 2, "platform_code": null, "location_type": 0}, "geometry": {"type": "Point", "coordinates": [0.866116, 45.731590000000004]}}]}