{"type": "FeatureCollection", "features": [{"type": "Feature", "properties": {"route_id": "HVI:Line:LR11_20190901", "service_id": "HVI:Timetable:20", "trip_id": "HVI:VehicleJourney:LR1111R_20190901_1", "trip_headsign": "St Junien - Place la c\u00f4te*", "trip_short_name": null, "direction_id": 1, "wheelchair_accessible": 0, "shape_id": "shape_160"}, "geometry": {"type": "LineString", "coordinates": [[1.2683879999999998, 45.83576], [1.264074, 45.832172], [1.258097, 45.831734000000004], [1.253471, 45.831264000000004], [1.249949, 45.8302], [1.227841, 45.8343], [1.132258, 45.861346999999995], [1.114853, 45.87018], [1.103194, 45.876529999999995], [1.053731, 45.892790000000005], [1.033859, 45.89673], [0.998451, 45.902504], [0.9555030000000001, 45.906487], [0.9186040000000001, 45.898216], [0.912243, 45.89539], [0.9042030000000001, 45.89054], [0.8987360000000001, 45.88658]]}}, {"type": "Feature", "properties": {"stop_timezone": null, "stop_url": null, "vehicle_type": null, "stop_code": null, "stop_desc": null, "parent_station": "NAQ:StopPlace:32484", "stop_id": "NAQ:Quay:47210", "zone_id": null, "stop_name": "Limoges - Armand Dutreix*", "wheelchair_boarding": 2, "platform_code": null, "location_type": 0}, "geometry": {"type": "Point", "coordinates": [1.227841, 45.8343]}}, {"type": "Feature", "properties": {"stop_timezone": null, "stop_url": null, "vehicle_type": null, "stop_code": null, "stop_desc": null, "parent_station": "NAQ:StopPlace:31250", "stop_id": "NAQ:Quay:45095", "zone_id": null, "stop_name": "St Junien - carrefour de l'Europe", "wheelchair_boarding": 2, "platform_code": null, "location_type": 0}, "geometry": {"type": "Point", "coordinates": [0.9186040000000001, 45.898216]}}, {"type": "Feature", "properties": {"stop_timezone": null, "stop_url": null, "vehicle_type": null, "stop_code": null, "stop_desc": null, "parent_station": "NAQ:StopPlace:31238", "stop_id": "NAQ:Quay:45097", "zone_id": null, "stop_name": "Veyrac - La Barre Bourg", "wheelchair_boarding": 2, "platform_code": null, "location_type": 0}, "geometry": {"type": "Point", "coordinates": [1.053731, 45.892790000000005]}}, {"type": "Feature", "properties": {"stop_timezone": null, "stop_url": null, "vehicle_type": null, "stop_code": null, "stop_desc": null, "parent_station": "NAQ:StopPlace:31242", "stop_id": "NAQ:Quay:45092", "zone_id": null, "stop_name": "Verneuil sur V. - La C\u00f4te*", "wheelchair_boarding": 2, "platform_code": null, "location_type": 0}, "geometry": {"type": "Point", "coordinates": [1.132258, 45.861346999999995]}}, {"type": "Feature", "properties": {"stop_timezone": null, "stop_url": null, "vehicle_type": null, "stop_code": null, "stop_desc": null, "parent_station": "NAQ:StopPlace:31243", "stop_id": "NAQ:Quay:45085", "zone_id": null, "stop_name": "Verneuil sur V. - Beauvalet", "wheelchair_boarding": 2, "platform_code": null, "location_type": 0}, "geometry": {"type": "Point", "coordinates": [1.103194, 45.876529999999995]}}, {"type": "Feature", "properties": {"stop_timezone": null, "stop_url": null, "vehicle_type": null, "stop_code": null, "stop_desc": null, "parent_station": "NAQ:StopPlace:31246", "stop_id": "NAQ:Quay:45089", "zone_id": null, "stop_name": "Verneuil sur V. - La Bouteille", "wheelchair_boarding": 2, "platform_code": null, "location_type": 0}, "geometry": {"type": "Point", "coordinates": [1.114853, 45.87018]}}, {"type": "Feature", "properties": {"stop_timezone": null, "stop_url": null, "vehicle_type": null, "stop_code": null, "stop_desc": null, "parent_station": "NAQ:StopPlace:31231", "stop_id": "NAQ:Quay:45069", "zone_id": null, "stop_name": "St Junien - Place la c\u00f4te", "wheelchair_boarding": 2, "platform_code": null, "location_type": 0}, "geometry": {"type": "Point", "coordinates": [0.8987360000000001, 45.88658]}}, {"type": "Feature", "properties": {"stop_timezone": null, "stop_url": null, "vehicle_type": null, "stop_code": null, "stop_desc": null, "parent_station": "NAQ:StopPlace:34679", "stop_id": "NAQ:Quay:50810", "zone_id": null, "stop_name": "LIMOGES - CIEL*", "wheelchair_boarding": 2, "platform_code": null, "location_type": 0}, "geometry": {"type": "Point", "coordinates": [1.2683879999999998, 45.83576]}}, {"type": "Feature", "properties": {"stop_timezone": null, "stop_url": null, "vehicle_type": null, "stop_code": null, "stop_desc": null, "parent_station": "NAQ:StopPlace:29553", "stop_id": "NAQ:Quay:44871", "zone_id": null, "stop_name": "Limoges - Place Jourdan*", "wheelchair_boarding": 2, "platform_code": null, "location_type": 0}, "geometry": {"type": "Point", "coordinates": [1.264074, 45.832172]}}, {"type": "Feature", "properties": {"stop_timezone": null, "stop_url": null, "vehicle_type": null, "stop_code": null, "stop_desc": null, "parent_station": "NAQ:StopPlace:35200", "stop_id": "NAQ:Quay:51844", "zone_id": null, "stop_name": "Limoges - Place des Carmes*", "wheelchair_boarding": 2, "platform_code": null, "location_type": 0}, "geometry": {"type": "Point", "coordinates": [1.249949, 45.8302]}}, {"type": "Feature", "properties": {"stop_timezone": null, "stop_url": null, "vehicle_type": null, "stop_code": null, "stop_desc": null, "parent_station": "NAQ:StopPlace:31236", "stop_id": "NAQ:Quay:45110", "zone_id": null, "stop_name": "St Brice sur Vienne - La Malaise", "wheelchair_boarding": 2, "platform_code": null, "location_type": 0}, "geometry": {"type": "Point", "coordinates": [0.998451, 45.902504]}}, {"type": "Feature", "properties": {"stop_timezone": null, "stop_url": null, "vehicle_type": null, "stop_code": null, "stop_desc": null, "parent_station": "NAQ:StopPlace:31257", "stop_id": "NAQ:Quay:45109", "zone_id": null, "stop_name": "St Junien - Les S\u00e9guines*", "wheelchair_boarding": 2, "platform_code": null, "location_type": 0}, "geometry": {"type": "Point", "coordinates": [0.9555030000000001, 45.906487]}}, {"type": "Feature", "properties": {"stop_timezone": null, "stop_url": null, "vehicle_type": null, "stop_code": null, "stop_desc": null, "parent_station": "NAQ:StopPlace:31254", "stop_id": "NAQ:Quay:45103", "zone_id": null, "stop_name": "St Victurnien - Le Loubier*", "wheelchair_boarding": 2, "platform_code": null, "location_type": 0}, "geometry": {"type": "Point", "coordinates": [1.033859, 45.89673]}}, {"type": "Feature", "properties": {"stop_timezone": null, "stop_url": null, "vehicle_type": null, "stop_code": null, "stop_desc": null, "parent_station": "NAQ:StopPlace:31255", "stop_id": "NAQ:Quay:45105", "zone_id": null, "stop_name": "St Junien - Champ de Foire*", "wheelchair_boarding": 2, "platform_code": null, "location_type": 0}, "geometry": {"type": "Point", "coordinates": [0.9042030000000001, 45.89054]}}, {"type": "Feature", "properties": {"stop_timezone": null, "stop_url": null, "vehicle_type": null, "stop_code": null, "stop_desc": null, "parent_station": "NAQ:StopPlace:31256", "stop_id": "NAQ:Quay:45106", "zone_id": null, "stop_name": "St Junien - Av. d'Oradour/Glane*", "wheelchair_boarding": 2, "platform_code": null, "location_type": 0}, "geometry": {"type": "Point", "coordinates": [0.912243, 45.89539]}}, {"type": "Feature", "properties": {"stop_timezone": null, "stop_url": null, "vehicle_type": null, "stop_code": null, "stop_desc": null, "parent_station": "NAQ:StopPlace:31195", "stop_id": "NAQ:Quay:44991", "zone_id": null, "stop_name": "Limoges - La poste*", "wheelchair_boarding": 2, "platform_code": null, "location_type": 0}, "geometry": {"type": "Point", "coordinates": [1.258097, 45.831734000000004]}}, {"type": "Feature", "properties": {"stop_timezone": null, "stop_url": null, "vehicle_type": null, "stop_code": null, "stop_desc": null, "parent_station": "NAQ:StopPlace:30938", "stop_id": "NAQ:Quay:44960", "zone_id": null, "stop_name": "Limoges - Place Winston Churchill", "wheelchair_boarding": 2, "platform_code": null, "location_type": 0}, "geometry": {"type": "Point", "coordinates": [1.253471, 45.831264000000004]}}]}