{"type": "FeatureCollection", "features": [{"type": "Feature", "properties": {"route_id": "HVI:Line:LR50_20190901", "service_id": "HVI:Timetable:20", "trip_id": "HVI:VehicleJourney:LR5002A_20190901_1", "trip_headsign": "LIMOGES - CIEL", "trip_short_name": null, "direction_id": 0, "wheelchair_accessible": 0, "shape_id": "shape_134"}, "geometry": {"type": "LineString", "coordinates": [[1.112802, 45.582676], [1.130665, 45.59559], [1.133585, 45.615140000000004], [1.156272, 45.645214], [1.185554, 45.66149], [1.187087, 45.677647], [1.180715, 45.682873], [1.174748, 45.691629999999996], [1.156641, 45.71342], [1.151477, 45.72582], [1.162783, 45.742915999999994], [1.168447, 45.757404], [1.167602, 45.76662], [1.179355, 45.777428], [1.186009, 45.765842], [1.189503, 45.764957], [1.193526, 45.77321], [1.2007729999999999, 45.779522], [1.220543, 45.79294], [1.23243, 45.802704], [1.241343, 45.823612], [1.250401, 45.830104999999996], [1.253471, 45.831264000000004], [1.264219, 45.832122999999996], [1.268363, 45.83616]]}}, {"type": "Feature", "properties": {"stop_timezone": null, "stop_url": null, "vehicle_type": null, "stop_code": null, "stop_desc": null, "parent_station": "NAQ:StopPlace:31353", "stop_id": "NAQ:Quay:45296", "zone_id": null, "stop_name": "Beynac - Bourg", "wheelchair_boarding": 2, "platform_code": null, "location_type": 0}, "geometry": {"type": "Point", "coordinates": [1.167602, 45.76662]}}, {"type": "Feature", "properties": {"stop_timezone": null, "stop_url": null, "vehicle_type": null, "stop_code": null, "stop_desc": null, "parent_station": "NAQ:StopPlace:34679", "stop_id": "NAQ:Quay:50811", "zone_id": null, "stop_name": "LIMOGES - CIEL", "wheelchair_boarding": 2, "platform_code": null, "location_type": 0}, "geometry": {"type": "Point", "coordinates": [1.268363, 45.83616]}}, {"type": "Feature", "properties": {"stop_timezone": null, "stop_url": null, "vehicle_type": null, "stop_code": null, "stop_desc": null, "parent_station": "NAQ:StopPlace:31427", "stop_id": "NAQ:Quay:45437", "zone_id": null, "stop_name": "Ladignac le Long - Mairie*", "wheelchair_boarding": 2, "platform_code": null, "location_type": 0}, "geometry": {"type": "Point", "coordinates": [1.112802, 45.582676]}}, {"type": "Feature", "properties": {"stop_timezone": null, "stop_url": null, "vehicle_type": null, "stop_code": null, "stop_desc": null, "parent_station": "NAQ:StopPlace:31421", "stop_id": "NAQ:Quay:45433", "zone_id": null, "stop_name": "St Hilaire - Les Places", "wheelchair_boarding": 2, "platform_code": null, "location_type": 0}, "geometry": {"type": "Point", "coordinates": [1.156272, 45.645214]}}, {"type": "Feature", "properties": {"stop_timezone": null, "stop_url": null, "vehicle_type": null, "stop_code": null, "stop_desc": null, "parent_station": "NAQ:StopPlace:31422", "stop_id": "NAQ:Quay:45434", "zone_id": null, "stop_name": "St Hilaire - La Gr\u00e9nerie", "wheelchair_boarding": 2, "platform_code": null, "location_type": 0}, "geometry": {"type": "Point", "coordinates": [1.133585, 45.615140000000004]}}, {"type": "Feature", "properties": {"stop_timezone": null, "stop_url": null, "vehicle_type": null, "stop_code": null, "stop_desc": null, "parent_station": "NAQ:StopPlace:31418", "stop_id": "NAQ:Quay:45432", "zone_id": null, "stop_name": "Burgnac - Bourg", "wheelchair_boarding": 2, "platform_code": null, "location_type": 0}, "geometry": {"type": "Point", "coordinates": [1.151477, 45.72582]}}, {"type": "Feature", "properties": {"stop_timezone": null, "stop_url": null, "vehicle_type": null, "stop_code": null, "stop_desc": null, "parent_station": "NAQ:StopPlace:31423", "stop_id": "NAQ:Quay:45426", "zone_id": null, "stop_name": "Ladignac - Laug\u00e8re", "wheelchair_boarding": 2, "platform_code": null, "location_type": 0}, "geometry": {"type": "Point", "coordinates": [1.130665, 45.59559]}}, {"type": "Feature", "properties": {"stop_timezone": null, "stop_url": null, "vehicle_type": null, "stop_code": null, "stop_desc": null, "parent_station": "NAQ:StopPlace:31416", "stop_id": "NAQ:Quay:45427", "zone_id": null, "stop_name": "Beynac - La Sudrie*", "wheelchair_boarding": 2, "platform_code": null, "location_type": 0}, "geometry": {"type": "Point", "coordinates": [1.179355, 45.777428]}}, {"type": "Feature", "properties": {"stop_timezone": null, "stop_url": null, "vehicle_type": null, "stop_code": null, "stop_desc": null, "parent_station": "NAQ:StopPlace:31424", "stop_id": "NAQ:Quay:45428", "zone_id": null, "stop_name": "Burgnac - Les Landes", "wheelchair_boarding": 2, "platform_code": null, "location_type": 0}, "geometry": {"type": "Point", "coordinates": [1.162783, 45.742915999999994]}}, {"type": "Feature", "properties": {"stop_timezone": null, "stop_url": null, "vehicle_type": null, "stop_code": null, "stop_desc": null, "parent_station": "NAQ:StopPlace:31413", "stop_id": "NAQ:Quay:45429", "zone_id": null, "stop_name": "Nexon - Gare", "wheelchair_boarding": 2, "platform_code": null, "location_type": 0}, "geometry": {"type": "Point", "coordinates": [1.174748, 45.691629999999996]}}, {"type": "Feature", "properties": {"stop_timezone": null, "stop_url": null, "vehicle_type": null, "stop_code": null, "stop_desc": null, "parent_station": "NAQ:StopPlace:31420", "stop_id": "NAQ:Quay:45422", "zone_id": null, "stop_name": "Nexon - Les Landes*", "wheelchair_boarding": 2, "platform_code": null, "location_type": 0}, "geometry": {"type": "Point", "coordinates": [1.185554, 45.66149]}}, {"type": "Feature", "properties": {"stop_timezone": null, "stop_url": null, "vehicle_type": null, "stop_code": null, "stop_desc": null, "parent_station": "NAQ:StopPlace:31419", "stop_id": "NAQ:Quay:45421", "zone_id": null, "stop_name": "Nexon - Biblioth\u00e8que", "wheelchair_boarding": 2, "platform_code": null, "location_type": 0}, "geometry": {"type": "Point", "coordinates": [1.180715, 45.682873]}}, {"type": "Feature", "properties": {"stop_timezone": null, "stop_url": null, "vehicle_type": null, "stop_code": null, "stop_desc": null, "parent_station": "NAQ:StopPlace:35205", "stop_id": "NAQ:Quay:51843", "zone_id": null, "stop_name": "Limoges - Place des Carmes", "wheelchair_boarding": 2, "platform_code": null, "location_type": 0}, "geometry": {"type": "Point", "coordinates": [1.250401, 45.830104999999996]}}, {"type": "Feature", "properties": {"stop_timezone": null, "stop_url": null, "vehicle_type": null, "stop_code": null, "stop_desc": null, "parent_station": "NAQ:StopPlace:35210", "stop_id": "NAQ:Quay:51854", "zone_id": null, "stop_name": "Limoges - Lyc\u00e9e Renoir", "wheelchair_boarding": 2, "platform_code": null, "location_type": 0}, "geometry": {"type": "Point", "coordinates": [1.241343, 45.823612]}}, {"type": "Feature", "properties": {"stop_timezone": null, "stop_url": null, "vehicle_type": null, "stop_code": null, "stop_desc": null, "parent_station": "NAQ:StopPlace:31417", "stop_id": "NAQ:Quay:45419", "zone_id": null, "stop_name": "Beynac - Nouailhas*", "wheelchair_boarding": 2, "platform_code": null, "location_type": 0}, "geometry": {"type": "Point", "coordinates": [1.168447, 45.757404]}}, {"type": "Feature", "properties": {"stop_timezone": null, "stop_url": null, "vehicle_type": null, "stop_code": null, "stop_desc": null, "parent_station": "NAQ:StopPlace:31412", "stop_id": "NAQ:Quay:45416", "zone_id": null, "stop_name": "Bosmie - Lestrade", "wheelchair_boarding": 2, "platform_code": null, "location_type": 0}, "geometry": {"type": "Point", "coordinates": [1.189503, 45.764957]}}, {"type": "Feature", "properties": {"stop_timezone": null, "stop_url": null, "vehicle_type": null, "stop_code": null, "stop_desc": null, "parent_station": "NAQ:StopPlace:31410", "stop_id": "NAQ:Quay:45417", "zone_id": null, "stop_name": "Beynac - Gare", "wheelchair_boarding": 2, "platform_code": null, "location_type": 0}, "geometry": {"type": "Point", "coordinates": [1.186009, 45.765842]}}, {"type": "Feature", "properties": {"stop_timezone": null, "stop_url": null, "vehicle_type": null, "stop_code": null, "stop_desc": null, "parent_station": "NAQ:StopPlace:31414", "stop_id": "NAQ:Quay:45412", "zone_id": null, "stop_name": "Nexon - Place Fratellini", "wheelchair_boarding": 2, "platform_code": null, "location_type": 0}, "geometry": {"type": "Point", "coordinates": [1.187087, 45.677647]}}, {"type": "Feature", "properties": {"stop_timezone": null, "stop_url": null, "vehicle_type": null, "stop_code": null, "stop_desc": null, "parent_station": "NAQ:StopPlace:31415", "stop_id": "NAQ:Quay:45414", "zone_id": null, "stop_name": "Bosmie - Place Cr\u00e9piat", "wheelchair_boarding": 2, "platform_code": null, "location_type": 0}, "geometry": {"type": "Point", "coordinates": [1.2007729999999999, 45.779522]}}, {"type": "Feature", "properties": {"stop_timezone": null, "stop_url": null, "vehicle_type": null, "stop_code": null, "stop_desc": null, "parent_station": "NAQ:StopPlace:31411", "stop_id": "NAQ:Quay:45409", "zone_id": null, "stop_name": "Meilhac - Bourg*", "wheelchair_boarding": 2, "platform_code": null, "location_type": 0}, "geometry": {"type": "Point", "coordinates": [1.156641, 45.71342]}}, {"type": "Feature", "properties": {"stop_timezone": null, "stop_url": null, "vehicle_type": null, "stop_code": null, "stop_desc": null, "parent_station": "NAQ:StopPlace:31409", "stop_id": "NAQ:Quay:45407", "zone_id": null, "stop_name": "Bosmie - Le Petit Bastier*", "wheelchair_boarding": 2, "platform_code": null, "location_type": 0}, "geometry": {"type": "Point", "coordinates": [1.193526, 45.77321]}}, {"type": "Feature", "properties": {"stop_timezone": null, "stop_url": null, "vehicle_type": null, "stop_code": null, "stop_desc": null, "parent_station": "NAQ:StopPlace:32478", "stop_id": "NAQ:Quay:47198", "zone_id": null, "stop_name": "Limoges - Place Jourdan", "wheelchair_boarding": 2, "platform_code": null, "location_type": 0}, "geometry": {"type": "Point", "coordinates": [1.264219, 45.832122999999996]}}, {"type": "Feature", "properties": {"stop_timezone": null, "stop_url": null, "vehicle_type": null, "stop_code": null, "stop_desc": null, "parent_station": "NAQ:StopPlace:31159", "stop_id": "NAQ:Quay:44914", "zone_id": null, "stop_name": "Isle - Chez Minet*", "wheelchair_boarding": 2, "platform_code": null, "location_type": 0}, "geometry": {"type": "Point", "coordinates": [1.220543, 45.79294]}}, {"type": "Feature", "properties": {"stop_timezone": null, "stop_url": null, "vehicle_type": null, "stop_code": null, "stop_desc": null, "parent_station": "NAQ:StopPlace:31158", "stop_id": "NAQ:Quay:44913", "zone_id": null, "stop_name": "Isle - Les P\u00e2querettes", "wheelchair_boarding": 2, "platform_code": null, "location_type": 0}, "geometry": {"type": "Point", "coordinates": [1.23243, 45.802704]}}, {"type": "Feature", "properties": {"stop_timezone": null, "stop_url": null, "vehicle_type": null, "stop_code": null, "stop_desc": null, "parent_station": "NAQ:StopPlace:30938", "stop_id": "NAQ:Quay:44960", "zone_id": null, "stop_name": "Limoges - Place Winston Churchill", "wheelchair_boarding": 2, "platform_code": null, "location_type": 0}, "geometry": {"type": "Point", "coordinates": [1.253471, 45.831264000000004]}}]}