{"type": "FeatureCollection", "features": [{"type": "Feature", "properties": {"route_id": "HVI:Line:LR24_20190901", "service_id": "HVI:Timetable:1", "trip_id": "HVI:VehicleJourney:LR2409R_20190901_1", "trip_headsign": "Aixe sur Vienne - Chambor\u00eat*", "trip_short_name": null, "direction_id": 1, "wheelchair_accessible": 0, "shape_id": "shape_050"}, "geometry": {"type": "LineString", "coordinates": [[1.252749, 45.831062], [1.2662120000000001, 45.854843], [1.250699, 45.82566], [1.251943, 45.81928], [1.23252, 45.802944000000004], [1.228583, 45.79988], [1.219852, 45.792266999999995], [1.202925, 45.78317], [1.179809, 45.788265], [1.168239, 45.79072], [1.15886, 45.791340000000005], [1.145108, 45.79735], [1.1380540000000001, 45.796978], [1.132819, 45.796158], [1.13069, 45.793423], [1.127456, 45.795418]]}}, {"type": "Feature", "properties": {"stop_timezone": null, "stop_url": null, "vehicle_type": null, "stop_code": null, "stop_desc": null, "parent_station": "NAQ:StopPlace:31348", "stop_id": "NAQ:Quay:45280", "zone_id": null, "stop_name": "Aixe sur Vienne - Chambor\u00eat*", "wheelchair_boarding": 2, "platform_code": null, "location_type": 0}, "geometry": {"type": "Point", "coordinates": [1.127456, 45.795418]}}, {"type": "Feature", "properties": {"stop_timezone": null, "stop_url": null, "vehicle_type": null, "stop_code": null, "stop_desc": null, "parent_station": "NAQ:StopPlace:31330", "stop_id": "NAQ:Quay:45247", "zone_id": null, "stop_name": "Aixe sur Vienne - Coll\u00e8ge", "wheelchair_boarding": 2, "platform_code": null, "location_type": 0}, "geometry": {"type": "Point", "coordinates": [1.13069, 45.793423]}}, {"type": "Feature", "properties": {"stop_timezone": null, "stop_url": null, "vehicle_type": null, "stop_code": null, "stop_desc": null, "parent_station": "NAQ:StopPlace:31140", "stop_id": "NAQ:Quay:44893", "zone_id": null, "stop_name": "Aixe sur Vienne - Champ de Foire*", "wheelchair_boarding": 2, "platform_code": null, "location_type": 0}, "geometry": {"type": "Point", "coordinates": [1.1380540000000001, 45.796978]}}, {"type": "Feature", "properties": {"stop_timezone": null, "stop_url": null, "vehicle_type": null, "stop_code": null, "stop_desc": null, "parent_station": "NAQ:StopPlace:31142", "stop_id": "NAQ:Quay:44890", "zone_id": null, "stop_name": "Isle - Pont de L'Aiguille", "wheelchair_boarding": 2, "platform_code": null, "location_type": 0}, "geometry": {"type": "Point", "coordinates": [1.202925, 45.78317]}}, {"type": "Feature", "properties": {"stop_timezone": null, "stop_url": null, "vehicle_type": null, "stop_code": null, "stop_desc": null, "parent_station": "NAQ:StopPlace:35204", "stop_id": "NAQ:Quay:51841", "zone_id": null, "stop_name": "Limoges - Ernest Ruben Bas*", "wheelchair_boarding": 2, "platform_code": null, "location_type": 0}, "geometry": {"type": "Point", "coordinates": [1.251943, 45.81928]}}, {"type": "Feature", "properties": {"stop_timezone": null, "stop_url": null, "vehicle_type": null, "stop_code": null, "stop_desc": null, "parent_station": "NAQ:StopPlace:31449", "stop_id": "NAQ:Quay:51811", "zone_id": null, "stop_name": "Limoges - Lyc\u00e9e Turgot*", "wheelchair_boarding": 2, "platform_code": null, "location_type": 0}, "geometry": {"type": "Point", "coordinates": [1.2662120000000001, 45.854843]}}, {"type": "Feature", "properties": {"stop_timezone": null, "stop_url": null, "vehicle_type": null, "stop_code": null, "stop_desc": null, "parent_station": "NAQ:StopPlace:30938", "stop_id": "NAQ:Quay:44978", "zone_id": null, "stop_name": "Pl. W. Churchill", "wheelchair_boarding": 2, "platform_code": null, "location_type": 0}, "geometry": {"type": "Point", "coordinates": [1.252749, 45.831062]}}, {"type": "Feature", "properties": {"stop_timezone": null, "stop_url": null, "vehicle_type": null, "stop_code": null, "stop_desc": null, "parent_station": "NAQ:StopPlace:31163", "stop_id": "NAQ:Quay:44921", "zone_id": null, "stop_name": "Limoges - Ernest Ruben Haut*", "wheelchair_boarding": 2, "platform_code": null, "location_type": 0}, "geometry": {"type": "Point", "coordinates": [1.250699, 45.82566]}}, {"type": "Feature", "properties": {"stop_timezone": null, "stop_url": null, "vehicle_type": null, "stop_code": null, "stop_desc": null, "parent_station": "NAQ:StopPlace:31158", "stop_id": "NAQ:Quay:44916", "zone_id": null, "stop_name": "Isle - Les P\u00e2querettes*", "wheelchair_boarding": 2, "platform_code": null, "location_type": 0}, "geometry": {"type": "Point", "coordinates": [1.23252, 45.802944000000004]}}, {"type": "Feature", "properties": {"stop_timezone": null, "stop_url": null, "vehicle_type": null, "stop_code": null, "stop_desc": null, "parent_station": "NAQ:StopPlace:31166", "stop_id": "NAQ:Quay:44934", "zone_id": null, "stop_name": "Isle - Le Pont de Condat*", "wheelchair_boarding": 2, "platform_code": null, "location_type": 0}, "geometry": {"type": "Point", "coordinates": [1.228583, 45.79988]}}, {"type": "Feature", "properties": {"stop_timezone": null, "stop_url": null, "vehicle_type": null, "stop_code": null, "stop_desc": null, "parent_station": "NAQ:StopPlace:31159", "stop_id": "NAQ:Quay:44933", "zone_id": null, "stop_name": "Isle - Chez Minet*", "wheelchair_boarding": 2, "platform_code": null, "location_type": 0}, "geometry": {"type": "Point", "coordinates": [1.219852, 45.792266999999995]}}, {"type": "Feature", "properties": {"stop_timezone": null, "stop_url": null, "vehicle_type": null, "stop_code": null, "stop_desc": null, "parent_station": "NAQ:StopPlace:31167", "stop_id": "NAQ:Quay:44932", "zone_id": null, "stop_name": "Isle - Le Caillaud", "wheelchair_boarding": 2, "platform_code": null, "location_type": 0}, "geometry": {"type": "Point", "coordinates": [1.179809, 45.788265]}}, {"type": "Feature", "properties": {"stop_timezone": null, "stop_url": null, "vehicle_type": null, "stop_code": null, "stop_desc": null, "parent_station": "NAQ:StopPlace:31165", "stop_id": "NAQ:Quay:44931", "zone_id": null, "stop_name": "Isle - Le Bas M\u00e9rignac*", "wheelchair_boarding": 2, "platform_code": null, "location_type": 0}, "geometry": {"type": "Point", "coordinates": [1.168239, 45.79072]}}, {"type": "Feature", "properties": {"stop_timezone": null, "stop_url": null, "vehicle_type": null, "stop_code": null, "stop_desc": null, "parent_station": "NAQ:StopPlace:31162", "stop_id": "NAQ:Quay:44937", "zone_id": null, "stop_name": "Aixe sur Vienne - Passage niveau*", "wheelchair_boarding": 2, "platform_code": null, "location_type": 0}, "geometry": {"type": "Point", "coordinates": [1.145108, 45.79735]}}, {"type": "Feature", "properties": {"stop_timezone": null, "stop_url": null, "vehicle_type": null, "stop_code": null, "stop_desc": null, "parent_station": "NAQ:StopPlace:31161", "stop_id": "NAQ:Quay:44935", "zone_id": null, "stop_name": "Aixe sur V. - Av. Pasteur*", "wheelchair_boarding": 2, "platform_code": null, "location_type": 0}, "geometry": {"type": "Point", "coordinates": [1.132819, 45.796158]}}, {"type": "Feature", "properties": {"stop_timezone": null, "stop_url": null, "vehicle_type": null, "stop_code": null, "stop_desc": null, "parent_station": "NAQ:StopPlace:31170", "stop_id": "NAQ:Quay:44939", "zone_id": null, "stop_name": "Aixe sur Vienne - Puy Panard", "wheelchair_boarding": 2, "platform_code": null, "location_type": 0}, "geometry": {"type": "Point", "coordinates": [1.15886, 45.791340000000005]}}]}