{"type": "FeatureCollection", "features": [{"type": "Feature", "properties": {"route_id": "HVI:Line:LR04_20190706", "service_id": "HVI:Timetable:21", "trip_id": "HVI:VehicleJourney:LR0408A_20190706_1", "trip_headsign": "Limoges - Place W. Churchill F", "trip_short_name": null, "direction_id": 0, "wheelchair_accessible": 0, "shape_id": "shape_013"}, "geometry": {"type": "LineString", "coordinates": [[1.279933, 46.058346], [1.282641, 46.05021], [1.296661, 46.032740000000004], [1.292429, 46.028076], [1.345227, 46.032043], [1.268363, 45.83616], [1.253471, 45.831264000000004]]}}, {"type": "Feature", "properties": {"stop_timezone": null, "stop_url": null, "vehicle_type": null, "stop_code": null, "stop_desc": null, "parent_station": "NAQ:StopPlace:34679", "stop_id": "NAQ:Quay:50811", "zone_id": null, "stop_name": "LIMOGES - CIEL", "wheelchair_boarding": 2, "platform_code": null, "location_type": 0}, "geometry": {"type": "Point", "coordinates": [1.268363, 45.83616]}}, {"type": "Feature", "properties": {"stop_timezone": null, "stop_url": null, "vehicle_type": null, "stop_code": null, "stop_desc": null, "parent_station": "NAQ:StopPlace:31210", "stop_id": "NAQ:Quay:45009", "zone_id": null, "stop_name": "Raz\u00e8s - Haut", "wheelchair_boarding": 2, "platform_code": null, "location_type": 0}, "geometry": {"type": "Point", "coordinates": [1.345227, 46.032043]}}, {"type": "Feature", "properties": {"stop_timezone": null, "stop_url": null, "vehicle_type": null, "stop_code": null, "stop_desc": null, "parent_station": "NAQ:StopPlace:31183", "stop_id": "NAQ:Quay:44969", "zone_id": null, "stop_name": "Raz\u00e8s - Santrop plage", "wheelchair_boarding": 2, "platform_code": null, "location_type": 0}, "geometry": {"type": "Point", "coordinates": [1.296661, 46.032740000000004]}}, {"type": "Feature", "properties": {"stop_timezone": null, "stop_url": null, "vehicle_type": null, "stop_code": null, "stop_desc": null, "parent_station": "NAQ:StopPlace:31182", "stop_id": "NAQ:Quay:44968", "zone_id": null, "stop_name": "Compreignac - Chabannes / Base", "wheelchair_boarding": 2, "platform_code": null, "location_type": 0}, "geometry": {"type": "Point", "coordinates": [1.292429, 46.028076]}}, {"type": "Feature", "properties": {"stop_timezone": null, "stop_url": null, "vehicle_type": null, "stop_code": null, "stop_desc": null, "parent_station": "NAQ:StopPlace:30938", "stop_id": "NAQ:Quay:44960", "zone_id": null, "stop_name": "Limoges - Place Winston Churchill", "wheelchair_boarding": 2, "platform_code": null, "location_type": 0}, "geometry": {"type": "Point", "coordinates": [1.253471, 45.831264000000004]}}, {"type": "Feature", "properties": {"stop_timezone": null, "stop_url": null, "vehicle_type": null, "stop_code": null, "stop_desc": null, "parent_station": "NAQ:StopPlace:31175", "stop_id": "NAQ:Quay:44951", "zone_id": null, "stop_name": "St Pardoux - Fr\u00e9audour / Camping*", "wheelchair_boarding": 2, "platform_code": null, "location_type": 0}, "geometry": {"type": "Point", "coordinates": [1.282641, 46.05021]}}, {"type": "Feature", "properties": {"stop_timezone": null, "stop_url": null, "vehicle_type": null, "stop_code": null, "stop_desc": null, "parent_station": "NAQ:StopPlace:31174", "stop_id": "NAQ:Quay:44950", "zone_id": null, "stop_name": "St Pardoux - Bourg", "wheelchair_boarding": 2, "platform_code": null, "location_type": 0}, "geometry": {"type": "Point", "coordinates": [1.279933, 46.058346]}}]}