{"type": "FeatureCollection", "features": [{"type": "Feature", "properties": {"route_id": "HVI:Line:LR01_20191011", "service_id": "HVI:Timetable:10", "trip_id": "HVI:VehicleJourney:LR0104A_20191011_1", "trip_headsign": "Limoges - Place Winston Churchill", "trip_short_name": null, "direction_id": 0, "wheelchair_accessible": 0, "shape_id": "shape_004"}, "geometry": {"type": "LineString", "coordinates": [[1.497914, 45.951096], [1.5062229999999999, 45.906437], [1.486825, 45.916171999999996], [1.482648, 45.9161], [1.465917, 45.91758], [1.443565, 45.919163], [1.436187, 45.912445], [1.4177680000000001, 45.899204], [1.397625, 45.886627000000004], [1.393597, 45.887234], [1.385574, 45.882587], [1.357437, 45.878417999999996], [1.327391, 45.86787], [1.324648, 45.86705], [1.323667, 45.864494], [1.300618, 45.851295], [1.272607, 45.834198], [1.268363, 45.83616], [1.264219, 45.832122999999996], [1.253471, 45.831264000000004]]}}, {"type": "Feature", "properties": {"stop_timezone": null, "stop_url": null, "vehicle_type": null, "stop_code": null, "stop_desc": null, "parent_station": "NAQ:StopPlace:34679", "stop_id": "NAQ:Quay:50811", "zone_id": null, "stop_name": "LIMOGES - CIEL", "wheelchair_boarding": 2, "platform_code": null, "location_type": 0}, "geometry": {"type": "Point", "coordinates": [1.268363, 45.83616]}}, {"type": "Feature", "properties": {"stop_timezone": null, "stop_url": null, "vehicle_type": null, "stop_code": null, "stop_desc": null, "parent_station": "NAQ:StopPlace:31125", "stop_id": "NAQ:Quay:44880", "zone_id": null, "stop_name": "St Priest Taur - Le Pont*", "wheelchair_boarding": 2, "platform_code": null, "location_type": 0}, "geometry": {"type": "Point", "coordinates": [1.393597, 45.887234]}}, {"type": "Feature", "properties": {"stop_timezone": null, "stop_url": null, "vehicle_type": null, "stop_code": null, "stop_desc": null, "parent_station": "NAQ:StopPlace:31048", "stop_id": "NAQ:Quay:44885", "zone_id": null, "stop_name": "Le Palais Centre", "wheelchair_boarding": 2, "platform_code": null, "location_type": 0}, "geometry": {"type": "Point", "coordinates": [1.323667, 45.864494]}}, {"type": "Feature", "properties": {"stop_timezone": null, "stop_url": null, "vehicle_type": null, "stop_code": null, "stop_desc": null, "parent_station": "NAQ:StopPlace:31137", "stop_id": "NAQ:Quay:44884", "zone_id": null, "stop_name": "Limoges - Jean Gagnant", "wheelchair_boarding": 2, "platform_code": null, "location_type": 0}, "geometry": {"type": "Point", "coordinates": [1.272607, 45.834198]}}, {"type": "Feature", "properties": {"stop_timezone": null, "stop_url": null, "vehicle_type": null, "stop_code": null, "stop_desc": null, "parent_station": "NAQ:StopPlace:31135", "stop_id": "NAQ:Quay:44878", "zone_id": null, "stop_name": "St Martin Terressus - Le Bouquet*", "wheelchair_boarding": 2, "platform_code": null, "location_type": 0}, "geometry": {"type": "Point", "coordinates": [1.482648, 45.9161]}}, {"type": "Feature", "properties": {"stop_timezone": null, "stop_url": null, "vehicle_type": null, "stop_code": null, "stop_desc": null, "parent_station": "NAQ:StopPlace:31136", "stop_id": "NAQ:Quay:44877", "zone_id": null, "stop_name": "St M. Tersessus - Les Charrauds*", "wheelchair_boarding": 2, "platform_code": null, "location_type": 0}, "geometry": {"type": "Point", "coordinates": [1.465917, 45.91758]}}, {"type": "Feature", "properties": {"stop_timezone": null, "stop_url": null, "vehicle_type": null, "stop_code": null, "stop_desc": null, "parent_station": "NAQ:StopPlace:31129", "stop_id": "NAQ:Quay:44876", "zone_id": null, "stop_name": "St Martin Terressus - Triadour*", "wheelchair_boarding": 2, "platform_code": null, "location_type": 0}, "geometry": {"type": "Point", "coordinates": [1.436187, 45.912445]}}, {"type": "Feature", "properties": {"stop_timezone": null, "stop_url": null, "vehicle_type": null, "stop_code": null, "stop_desc": null, "parent_station": "NAQ:StopPlace:31134", "stop_id": "NAQ:Quay:44872", "zone_id": null, "stop_name": "St Martin Terressus - La Maligne*", "wheelchair_boarding": 2, "platform_code": null, "location_type": 0}, "geometry": {"type": "Point", "coordinates": [1.486825, 45.916171999999996]}}, {"type": "Feature", "properties": {"stop_timezone": null, "stop_url": null, "vehicle_type": null, "stop_code": null, "stop_desc": null, "parent_station": "NAQ:StopPlace:29837", "stop_id": "NAQ:Quay:44868", "zone_id": null, "stop_name": "Limoges - Lyc\u00e9e St Exup\u00e9ry*", "wheelchair_boarding": 2, "platform_code": null, "location_type": 0}, "geometry": {"type": "Point", "coordinates": [1.300618, 45.851295]}}, {"type": "Feature", "properties": {"stop_timezone": null, "stop_url": null, "vehicle_type": null, "stop_code": null, "stop_desc": null, "parent_station": "NAQ:StopPlace:31131", "stop_id": "NAQ:Quay:44867", "zone_id": null, "stop_name": "St Priest Taur - Mairie", "wheelchair_boarding": 2, "platform_code": null, "location_type": 0}, "geometry": {"type": "Point", "coordinates": [1.397625, 45.886627000000004]}}, {"type": "Feature", "properties": {"stop_timezone": null, "stop_url": null, "vehicle_type": null, "stop_code": null, "stop_desc": null, "parent_station": "NAQ:StopPlace:31130", "stop_id": "NAQ:Quay:44865", "zone_id": null, "stop_name": "St Martin Terressus - Bourg*", "wheelchair_boarding": 2, "platform_code": null, "location_type": 0}, "geometry": {"type": "Point", "coordinates": [1.443565, 45.919163]}}, {"type": "Feature", "properties": {"stop_timezone": null, "stop_url": null, "vehicle_type": null, "stop_code": null, "stop_desc": null, "parent_station": "NAQ:StopPlace:31122", "stop_id": "NAQ:Quay:44861", "zone_id": null, "stop_name": "St Laurent les Egl - Bourg", "wheelchair_boarding": 2, "platform_code": null, "location_type": 0}, "geometry": {"type": "Point", "coordinates": [1.497914, 45.951096]}}, {"type": "Feature", "properties": {"stop_timezone": null, "stop_url": null, "vehicle_type": null, "stop_code": null, "stop_desc": null, "parent_station": "NAQ:StopPlace:31126", "stop_id": "NAQ:Quay:44856", "zone_id": null, "stop_name": "St Priest Taur - RTE du Mazeau*", "wheelchair_boarding": 2, "platform_code": null, "location_type": 0}, "geometry": {"type": "Point", "coordinates": [1.385574, 45.882587]}}, {"type": "Feature", "properties": {"stop_timezone": null, "stop_url": null, "vehicle_type": null, "stop_code": null, "stop_desc": null, "parent_station": "NAQ:StopPlace:31128", "stop_id": "NAQ:Quay:44859", "zone_id": null, "stop_name": "St Priest Taur - Maison Br\u00fbl\u00e9e*", "wheelchair_boarding": 2, "platform_code": null, "location_type": 0}, "geometry": {"type": "Point", "coordinates": [1.4177680000000001, 45.899204]}}, {"type": "Feature", "properties": {"stop_timezone": null, "stop_url": null, "vehicle_type": null, "stop_code": null, "stop_desc": null, "parent_station": "NAQ:StopPlace:31049", "stop_id": "NAQ:Quay:44853", "zone_id": null, "stop_name": "J. Ferry", "wheelchair_boarding": 2, "platform_code": null, "location_type": 0}, "geometry": {"type": "Point", "coordinates": [1.324648, 45.86705]}}, {"type": "Feature", "properties": {"stop_timezone": null, "stop_url": null, "vehicle_type": null, "stop_code": null, "stop_desc": null, "parent_station": "NAQ:StopPlace:31075", "stop_id": "NAQ:Quay:44851", "zone_id": null, "stop_name": "S. Carnot", "wheelchair_boarding": 2, "platform_code": null, "location_type": 0}, "geometry": {"type": "Point", "coordinates": [1.327391, 45.86787]}}, {"type": "Feature", "properties": {"stop_timezone": null, "stop_url": null, "vehicle_type": null, "stop_code": null, "stop_desc": null, "parent_station": "NAQ:StopPlace:31123", "stop_id": "NAQ:Quay:44849", "zone_id": null, "stop_name": "Ch\u00e2tenet en Dognon - Bourg", "wheelchair_boarding": 2, "platform_code": null, "location_type": 0}, "geometry": {"type": "Point", "coordinates": [1.5062229999999999, 45.906437]}}, {"type": "Feature", "properties": {"stop_timezone": null, "stop_url": null, "vehicle_type": null, "stop_code": null, "stop_desc": null, "parent_station": "NAQ:StopPlace:31127", "stop_id": "NAQ:Quay:47197", "zone_id": null, "stop_name": "St Priest Taur - La Chabasse*", "wheelchair_boarding": 2, "platform_code": null, "location_type": 0}, "geometry": {"type": "Point", "coordinates": [1.357437, 45.878417999999996]}}, {"type": "Feature", "properties": {"stop_timezone": null, "stop_url": null, "vehicle_type": null, "stop_code": null, "stop_desc": null, "parent_station": "NAQ:StopPlace:32478", "stop_id": "NAQ:Quay:47198", "zone_id": null, "stop_name": "Limoges - Place Jourdan", "wheelchair_boarding": 2, "platform_code": null, "location_type": 0}, "geometry": {"type": "Point", "coordinates": [1.264219, 45.832122999999996]}}, {"type": "Feature", "properties": {"stop_timezone": null, "stop_url": null, "vehicle_type": null, "stop_code": null, "stop_desc": null, "parent_station": "NAQ:StopPlace:30938", "stop_id": "NAQ:Quay:44960", "zone_id": null, "stop_name": "Limoges - Place Winston Churchill", "wheelchair_boarding": 2, "platform_code": null, "location_type": 0}, "geometry": {"type": "Point", "coordinates": [1.253471, 45.831264000000004]}}]}