{"type": "FeatureCollection", "features": [{"type": "Feature", "properties": {"route_id": "HVI:Line:LR61_20190901", "service_id": "HVI:Timetable:10", "trip_id": "HVI:VehicleJourney:LR6101A_20190901_1", "trip_headsign": "St Junien - LP Edouart Vaillant", "trip_short_name": null, "direction_id": 0, "wheelchair_accessible": 0, "shape_id": "shape_011"}, "geometry": {"type": "LineString", "coordinates": [[0.8521350000000001, 45.705166], [0.866116, 45.731590000000004], [0.853427, 45.747906], [0.8487899999999999, 45.762159999999994], [0.8218049999999999, 45.824096999999995], [0.840816, 45.837063], [0.8376870000000001, 45.83858], [0.853923, 45.84661], [0.902983, 45.884792], [0.894249, 45.893826000000004], [0.9042030000000001, 45.89054], [0.9129510000000001, 45.897705]]}}, {"type": "Feature", "properties": {"stop_timezone": null, "stop_url": null, "vehicle_type": null, "stop_code": null, "stop_desc": null, "parent_station": "NAQ:StopPlace:31247", "stop_id": "NAQ:Quay:45091", "zone_id": null, "stop_name": "Rochechouart - Croix de Labrousse", "wheelchair_boarding": 2, "platform_code": null, "location_type": 0}, "geometry": {"type": "Point", "coordinates": [0.840816, 45.837063]}}, {"type": "Feature", "properties": {"stop_timezone": null, "stop_url": null, "vehicle_type": null, "stop_code": null, "stop_desc": null, "parent_station": "NAQ:StopPlace:31240", "stop_id": "NAQ:Quay:45080", "zone_id": null, "stop_name": "St Junien - Cit\u00e9 scolaire*", "wheelchair_boarding": 2, "platform_code": null, "location_type": 0}, "geometry": {"type": "Point", "coordinates": [0.894249, 45.893826000000004]}}, {"type": "Feature", "properties": {"stop_timezone": null, "stop_url": null, "vehicle_type": null, "stop_code": null, "stop_desc": null, "parent_station": "NAQ:StopPlace:31239", "stop_id": "NAQ:Quay:45083", "zone_id": null, "stop_name": "Rochechouart - Les Plats*", "wheelchair_boarding": 2, "platform_code": null, "location_type": 0}, "geometry": {"type": "Point", "coordinates": [0.853923, 45.84661]}}, {"type": "Feature", "properties": {"stop_timezone": null, "stop_url": null, "vehicle_type": null, "stop_code": null, "stop_desc": null, "parent_station": "NAQ:StopPlace:31237", "stop_id": "NAQ:Quay:45077", "zone_id": null, "stop_name": "St Junien - Coll\u00e8ge P. Langevin*", "wheelchair_boarding": 2, "platform_code": null, "location_type": 0}, "geometry": {"type": "Point", "coordinates": [0.902983, 45.884792]}}, {"type": "Feature", "properties": {"stop_timezone": null, "stop_url": null, "vehicle_type": null, "stop_code": null, "stop_desc": null, "parent_station": "NAQ:StopPlace:31429", "stop_id": "NAQ:Quay:45440", "zone_id": null, "stop_name": "Rochechouart - Le Ch\u00e2teau d'eau", "wheelchair_boarding": 2, "platform_code": null, "location_type": 0}, "geometry": {"type": "Point", "coordinates": [0.8376870000000001, 45.83858]}}, {"type": "Feature", "properties": {"stop_timezone": null, "stop_url": null, "vehicle_type": null, "stop_code": null, "stop_desc": null, "parent_station": "NAQ:StopPlace:31428", "stop_id": "NAQ:Quay:45438", "zone_id": null, "stop_name": "St Junien - LP Edouart Vaillant", "wheelchair_boarding": 2, "platform_code": null, "location_type": 0}, "geometry": {"type": "Point", "coordinates": [0.9129510000000001, 45.897705]}}, {"type": "Feature", "properties": {"stop_timezone": null, "stop_url": null, "vehicle_type": null, "stop_code": null, "stop_desc": null, "parent_station": "NAQ:StopPlace:31258", "stop_id": "NAQ:Quay:45118", "zone_id": null, "stop_name": "Vayres - La Treille", "wheelchair_boarding": 2, "platform_code": null, "location_type": 0}, "geometry": {"type": "Point", "coordinates": [0.8487899999999999, 45.762159999999994]}}, {"type": "Feature", "properties": {"stop_timezone": null, "stop_url": null, "vehicle_type": null, "stop_code": null, "stop_desc": null, "parent_station": "NAQ:StopPlace:31259", "stop_id": "NAQ:Quay:45115", "zone_id": null, "stop_name": "Oradour / V. - Manvin*", "wheelchair_boarding": 2, "platform_code": null, "location_type": 0}, "geometry": {"type": "Point", "coordinates": [0.853427, 45.747906]}}, {"type": "Feature", "properties": {"stop_timezone": null, "stop_url": null, "vehicle_type": null, "stop_code": null, "stop_desc": null, "parent_station": "NAQ:StopPlace:31255", "stop_id": "NAQ:Quay:45105", "zone_id": null, "stop_name": "St Junien - Champ de Foire*", "wheelchair_boarding": 2, "platform_code": null, "location_type": 0}, "geometry": {"type": "Point", "coordinates": [0.9042030000000001, 45.89054]}}, {"type": "Feature", "properties": {"stop_timezone": null, "stop_url": null, "vehicle_type": null, "stop_code": null, "stop_desc": null, "parent_station": "NAQ:StopPlace:31253", "stop_id": "NAQ:Quay:45100", "zone_id": null, "stop_name": "Rochechouart - Rue MauriceThorez*", "wheelchair_boarding": 2, "platform_code": null, "location_type": 0}, "geometry": {"type": "Point", "coordinates": [0.8218049999999999, 45.824096999999995]}}, {"type": "Feature", "properties": {"stop_timezone": null, "stop_url": null, "vehicle_type": null, "stop_code": null, "stop_desc": null, "parent_station": "NAQ:StopPlace:31155", "stop_id": "NAQ:Quay:44919", "zone_id": null, "stop_name": "Cussac - Place de la Poste", "wheelchair_boarding": 2, "platform_code": null, "location_type": 0}, "geometry": {"type": "Point", "coordinates": [0.8521350000000001, 45.705166]}}, {"type": "Feature", "properties": {"stop_timezone": null, "stop_url": null, "vehicle_type": null, "stop_code": null, "stop_desc": null, "parent_station": "NAQ:StopPlace:31150", "stop_id": "NAQ:Quay:44903", "zone_id": null, "stop_name": "Oradour / V. - Office  Tourisme", "wheelchair_boarding": 2, "platform_code": null, "location_type": 0}, "geometry": {"type": "Point", "coordinates": [0.866116, 45.731590000000004]}}]}