{"type": "FeatureCollection", "features": [{"type": "Feature", "properties": {"route_id": "HVI:Line:LRR9_20191126", "service_id": "HVI:Timetable:10", "trip_id": "HVI:VehicleJourney:54610_20181119_1", "trip_headsign": "Felletin - Gare SNCF*", "trip_short_name": null, "direction_id": 0, "wheelchair_accessible": 0, "shape_id": "shape_059"}, "geometry": {"type": "LineString", "coordinates": [[1.253601, 45.831154], [1.264074, 45.832172], [1.2683879999999998, 45.83576], [1.284468, 45.827255], [1.301267, 45.831284000000004], [1.37604, 45.845814000000004], [1.604852, 45.848743], [1.430691, 45.848484], [1.4769999999999999, 45.83406], [1.481839, 45.832085], [1.491956, 45.83739], [1.492874, 45.844809999999995], [1.514605, 45.860325], [1.550332, 45.878094], [1.604067, 45.907616], [1.6338409999999999, 45.918797], [1.684791, 45.94944], [1.751066, 45.95482], [1.757497, 45.954826000000004], [1.850616, 45.997494], [1.89461, 45.982815], [1.9415169999999997, 45.981003], [1.9679799999999998, 45.971718], [2.049476, 45.94334], [2.170912, 45.954803000000005], [2.172171, 45.940056], [2.193332, 45.919373], [2.184024, 45.89261], [2.172743, 45.885040000000004], [2.169874, 45.8863]]}}, {"type": "Feature", "properties": {"stop_timezone": null, "stop_url": null, "vehicle_type": null, "stop_code": null, "stop_desc": null, "parent_station": "NAQ:StopPlace:35205", "stop_id": "NAQ:Quay:45043", "zone_id": null, "stop_name": "Limoges - Place W. Churchill B", "wheelchair_boarding": 2, "platform_code": null, "location_type": 0}, "geometry": {"type": "Point", "coordinates": [1.253601, 45.831154]}}, {"type": "Feature", "properties": {"stop_timezone": null, "stop_url": null, "vehicle_type": null, "stop_code": null, "stop_desc": null, "parent_station": "NAQ:StopPlace:34679", "stop_id": "NAQ:Quay:50810", "zone_id": null, "stop_name": "LIMOGES - CIEL*", "wheelchair_boarding": 2, "platform_code": null, "location_type": 0}, "geometry": {"type": "Point", "coordinates": [1.2683879999999998, 45.83576]}}, {"type": "Feature", "properties": {"stop_timezone": null, "stop_url": null, "vehicle_type": null, "stop_code": null, "stop_desc": null, "parent_station": "NAQ:StopPlace:29553", "stop_id": "NAQ:Quay:44871", "zone_id": null, "stop_name": "Limoges - Place Jourdan*", "wheelchair_boarding": 2, "platform_code": null, "location_type": 0}, "geometry": {"type": "Point", "coordinates": [1.264074, 45.832172]}}, {"type": "Feature", "properties": {"stop_timezone": null, "stop_url": null, "vehicle_type": null, "stop_code": null, "stop_desc": null, "parent_station": "NAQ:StopPlace:35196", "stop_id": "NAQ:Quay:51824", "zone_id": null, "stop_name": "Lyc\u00e9e Delphine Gay*", "wheelchair_boarding": 2, "platform_code": null, "location_type": 0}, "geometry": {"type": "Point", "coordinates": [1.751066, 45.95482]}}, {"type": "Feature", "properties": {"stop_timezone": null, "stop_url": null, "vehicle_type": null, "stop_code": null, "stop_desc": null, "parent_station": "NAQ:StopPlace:34493", "stop_id": "NAQ:Quay:50188", "zone_id": null, "stop_name": "La Pouge Centre", "wheelchair_boarding": 2, "platform_code": null, "location_type": 0}, "geometry": {"type": "Point", "coordinates": [1.9415169999999997, 45.981003]}}, {"type": "Feature", "properties": {"stop_timezone": null, "stop_url": null, "vehicle_type": null, "stop_code": null, "stop_desc": null, "parent_station": "NAQ:StopPlace:34492", "stop_id": "NAQ:Quay:50187", "zone_id": null, "stop_name": "St Hilaire Le Ch\u00e2teau Centre*", "wheelchair_boarding": 2, "platform_code": null, "location_type": 0}, "geometry": {"type": "Point", "coordinates": [1.89461, 45.982815]}}, {"type": "Feature", "properties": {"stop_timezone": null, "stop_url": null, "vehicle_type": null, "stop_code": null, "stop_desc": null, "parent_station": "NAQ:StopPlace:34491", "stop_id": "NAQ:Quay:50186", "zone_id": null, "stop_name": "Charbonnier*", "wheelchair_boarding": 2, "platform_code": null, "location_type": 0}, "geometry": {"type": "Point", "coordinates": [1.9679799999999998, 45.971718]}}, {"type": "Feature", "properties": {"stop_timezone": null, "stop_url": null, "vehicle_type": null, "stop_code": null, "stop_desc": null, "parent_station": "NAQ:StopPlace:34490", "stop_id": "NAQ:Quay:50185", "zone_id": null, "stop_name": "Courcelles", "wheelchair_boarding": 2, "platform_code": null, "location_type": 0}, "geometry": {"type": "Point", "coordinates": [2.049476, 45.94334]}}, {"type": "Feature", "properties": {"stop_timezone": null, "stop_url": null, "vehicle_type": null, "stop_code": null, "stop_desc": null, "parent_station": "NAQ:StopPlace:34489", "stop_id": "NAQ:Quay:50184", "zone_id": null, "stop_name": "Eycouveaux", "wheelchair_boarding": 2, "platform_code": null, "location_type": 0}, "geometry": {"type": "Point", "coordinates": [1.514605, 45.860325]}}, {"type": "Feature", "properties": {"stop_timezone": null, "stop_url": null, "vehicle_type": null, "stop_code": null, "stop_desc": null, "parent_station": "NAQ:StopPlace:8798", "stop_id": "NAQ:Quay:50183", "zone_id": null, "stop_name": "Mairie Abribus", "wheelchair_boarding": 2, "platform_code": null, "location_type": 0}, "geometry": {"type": "Point", "coordinates": [1.850616, 45.997494]}}, {"type": "Feature", "properties": {"stop_timezone": null, "stop_url": null, "vehicle_type": null, "stop_code": null, "stop_desc": null, "parent_station": "NAQ:StopPlace:34488", "stop_id": "NAQ:Quay:50182", "zone_id": null, "stop_name": "Cit\u00e9 d'Aug\u00e8res*", "wheelchair_boarding": 2, "platform_code": null, "location_type": 0}, "geometry": {"type": "Point", "coordinates": [1.492874, 45.844809999999995]}}, {"type": "Feature", "properties": {"stop_timezone": null, "stop_url": null, "vehicle_type": null, "stop_code": null, "stop_desc": null, "parent_station": "NAQ:StopPlace:34487", "stop_id": "NAQ:Quay:50181", "zone_id": null, "stop_name": "Felletin mairie*", "wheelchair_boarding": 2, "platform_code": null, "location_type": 0}, "geometry": {"type": "Point", "coordinates": [2.172743, 45.885040000000004]}}, {"type": "Feature", "properties": {"stop_timezone": null, "stop_url": null, "vehicle_type": null, "stop_code": null, "stop_desc": null, "parent_station": "NAQ:StopPlace:34486", "stop_id": "NAQ:Quay:50180", "zone_id": null, "stop_name": "Le Nouhaud*", "wheelchair_boarding": 2, "platform_code": null, "location_type": 0}, "geometry": {"type": "Point", "coordinates": [1.6338409999999999, 45.918797]}}, {"type": "Feature", "properties": {"stop_timezone": null, "stop_url": null, "vehicle_type": null, "stop_code": null, "stop_desc": null, "parent_station": "NAQ:StopPlace:34485", "stop_id": "NAQ:Quay:50179", "zone_id": null, "stop_name": "Rte de Moissannes*", "wheelchair_boarding": 2, "platform_code": null, "location_type": 0}, "geometry": {"type": "Point", "coordinates": [1.550332, 45.878094]}}, {"type": "Feature", "properties": {"stop_timezone": null, "stop_url": null, "vehicle_type": null, "stop_code": null, "stop_desc": null, "parent_station": "NAQ:StopPlace:34484", "stop_id": "NAQ:Quay:50178", "zone_id": null, "stop_name": "La Croix Blanche*", "wheelchair_boarding": 2, "platform_code": null, "location_type": 0}, "geometry": {"type": "Point", "coordinates": [2.172171, 45.940056]}}, {"type": "Feature", "properties": {"stop_timezone": null, "stop_url": null, "vehicle_type": null, "stop_code": null, "stop_desc": null, "parent_station": "NAQ:StopPlace:8807", "stop_id": "NAQ:Quay:50177", "zone_id": null, "stop_name": "Felletin Gare*", "wheelchair_boarding": 2, "platform_code": null, "location_type": 0}, "geometry": {"type": "Point", "coordinates": [2.169874, 45.8863]}}, {"type": "Feature", "properties": {"stop_timezone": null, "stop_url": null, "vehicle_type": null, "stop_code": null, "stop_desc": null, "parent_station": "NAQ:StopPlace:8829", "stop_id": "NAQ:Quay:50175", "zone_id": null, "stop_name": "Aubusson Gare Routi\u00e8re*", "wheelchair_boarding": 2, "platform_code": null, "location_type": 0}, "geometry": {"type": "Point", "coordinates": [2.170912, 45.954803000000005]}}, {"type": "Feature", "properties": {"stop_timezone": null, "stop_url": null, "vehicle_type": null, "stop_code": null, "stop_desc": null, "parent_station": "NAQ:StopPlace:8867", "stop_id": "NAQ:Quay:50174", "zone_id": null, "stop_name": "La Clide", "wheelchair_boarding": 2, "platform_code": null, "location_type": 0}, "geometry": {"type": "Point", "coordinates": [2.193332, 45.919373]}}, {"type": "Feature", "properties": {"stop_timezone": null, "stop_url": null, "vehicle_type": null, "stop_code": null, "stop_desc": null, "parent_station": "NAQ:StopPlace:8784", "stop_id": "NAQ:Quay:50173", "zone_id": null, "stop_name": "Felletin-Lmb", "wheelchair_boarding": 2, "platform_code": null, "location_type": 0}, "geometry": {"type": "Point", "coordinates": [2.184024, 45.89261]}}, {"type": "Feature", "properties": {"stop_timezone": null, "stop_url": null, "vehicle_type": null, "stop_code": null, "stop_desc": null, "parent_station": "NAQ:StopPlace:34483", "stop_id": "NAQ:Quay:50172", "zone_id": null, "stop_name": "Bourganeuf Gare Routi\u00e8re*", "wheelchair_boarding": 2, "platform_code": null, "location_type": 0}, "geometry": {"type": "Point", "coordinates": [1.757497, 45.954826000000004]}}, {"type": "Feature", "properties": {"stop_timezone": null, "stop_url": null, "vehicle_type": null, "stop_code": null, "stop_desc": null, "parent_station": "NAQ:StopPlace:34482", "stop_id": "NAQ:Quay:50171", "zone_id": null, "stop_name": "La G\u00e2ne Du Clos*", "wheelchair_boarding": 2, "platform_code": null, "location_type": 0}, "geometry": {"type": "Point", "coordinates": [1.684791, 45.94944]}}, {"type": "Feature", "properties": {"stop_timezone": null, "stop_url": null, "vehicle_type": null, "stop_code": null, "stop_desc": null, "parent_station": "NAQ:StopPlace:34481", "stop_id": "NAQ:Quay:50170", "zone_id": null, "stop_name": "St L\u00e9onard Gare*", "wheelchair_boarding": 2, "platform_code": null, "location_type": 0}, "geometry": {"type": "Point", "coordinates": [1.481839, 45.832085]}}, {"type": "Feature", "properties": {"stop_timezone": null, "stop_url": null, "vehicle_type": null, "stop_code": null, "stop_desc": null, "parent_station": "NAQ:StopPlace:34480", "stop_id": "NAQ:Quay:50169", "zone_id": null, "stop_name": "Sauviat Centre*", "wheelchair_boarding": 2, "platform_code": null, "location_type": 0}, "geometry": {"type": "Point", "coordinates": [1.604067, 45.907616]}}, {"type": "Feature", "properties": {"stop_timezone": null, "stop_url": null, "vehicle_type": null, "stop_code": null, "stop_desc": null, "parent_station": "NAQ:StopPlace:34479", "stop_id": "NAQ:Quay:50168", "zone_id": null, "stop_name": "St L\u00e9onard Centre*", "wheelchair_boarding": 2, "platform_code": null, "location_type": 0}, "geometry": {"type": "Point", "coordinates": [1.491956, 45.83739]}}, {"type": "Feature", "properties": {"stop_timezone": null, "stop_url": null, "vehicle_type": null, "stop_code": null, "stop_desc": null, "parent_station": "NAQ:StopPlace:34478", "stop_id": "NAQ:Quay:50167", "zone_id": null, "stop_name": "Pont de Noblat*", "wheelchair_boarding": 2, "platform_code": null, "location_type": 0}, "geometry": {"type": "Point", "coordinates": [1.4769999999999999, 45.83406]}}, {"type": "Feature", "properties": {"stop_timezone": null, "stop_url": null, "vehicle_type": null, "stop_code": null, "stop_desc": null, "parent_station": "NAQ:StopPlace:34477", "stop_id": "NAQ:Quay:50166", "zone_id": null, "stop_name": "L\u00e9on Blum*", "wheelchair_boarding": 2, "platform_code": null, "location_type": 0}, "geometry": {"type": "Point", "coordinates": [1.301267, 45.831284000000004]}}, {"type": "Feature", "properties": {"stop_timezone": null, "stop_url": null, "vehicle_type": null, "stop_code": null, "stop_desc": null, "parent_station": "NAQ:StopPlace:29918", "stop_id": "NAQ:Quay:50165", "zone_id": null, "stop_name": "Les Chabannes", "wheelchair_boarding": 2, "platform_code": null, "location_type": 0}, "geometry": {"type": "Point", "coordinates": [1.37604, 45.845814000000004]}}, {"type": "Feature", "properties": {"stop_timezone": null, "stop_url": null, "vehicle_type": null, "stop_code": null, "stop_desc": null, "parent_station": "NAQ:StopPlace:29534", "stop_id": "NAQ:Quay:50164", "zone_id": null, "stop_name": "Chastaingt", "wheelchair_boarding": 2, "platform_code": null, "location_type": 0}, "geometry": {"type": "Point", "coordinates": [1.284468, 45.827255]}}, {"type": "Feature", "properties": {"stop_timezone": null, "stop_url": null, "vehicle_type": null, "stop_code": null, "stop_desc": null, "parent_station": "NAQ:StopPlace:34476", "stop_id": "NAQ:Quay:50163", "zone_id": null, "stop_name": "St Just le Martel-Le Verdeau*", "wheelchair_boarding": 2, "platform_code": null, "location_type": 0}, "geometry": {"type": "Point", "coordinates": [1.604852, 45.848743]}}, {"type": "Feature", "properties": {"stop_timezone": null, "stop_url": null, "vehicle_type": null, "stop_code": null, "stop_desc": null, "parent_station": "NAQ:StopPlace:34475", "stop_id": "NAQ:Quay:50162", "zone_id": null, "stop_name": "Roy\u00e8res Centre*", "wheelchair_boarding": 2, "platform_code": null, "location_type": 0}, "geometry": {"type": "Point", "coordinates": [1.430691, 45.848484]}}]}