{"type": "FeatureCollection", "features": [{"type": "Feature", "properties": {"route_id": "HVI:Line:LR07_20190901", "service_id": "HVI:Timetable:16", "trip_id": "HVI:VehicleJourney:LR0709R_20190901_1", "trip_headsign": "Ch\u00e2teauponsac - Gare routi\u00e8re*", "trip_short_name": null, "direction_id": 1, "wheelchair_accessible": 0, "shape_id": "shape_017"}, "geometry": {"type": "LineString", "coordinates": [[1.253471, 45.831264000000004], [1.258097, 45.831734000000004], [1.264074, 45.832172], [1.2683879999999998, 45.83576], [1.272485, 45.833984], [1.3101129999999999, 45.938778000000006], [1.321243, 45.976562], [1.327649, 45.989246], [1.335429, 46.00553], [1.338266, 46.01312], [1.340169, 46.019065999999995], [1.345227, 46.032043], [1.344769, 46.036808], [1.347612, 46.041557], [1.357292, 46.04492], [1.360458, 46.056484000000005], [1.3608870000000002, 46.077988], [1.362368, 46.086890000000004], [1.362309, 46.10318], [1.370227, 46.109715], [1.373112, 46.11698], [1.372789, 46.129856], [1.36611, 46.147655], [1.322759, 46.135162], [1.276289, 46.13402]]}}, {"type": "Feature", "properties": {"stop_timezone": null, "stop_url": null, "vehicle_type": null, "stop_code": null, "stop_desc": null, "parent_station": "NAQ:StopPlace:31213", "stop_id": "NAQ:Quay:45020", "zone_id": null, "stop_name": "Bessines - Route de Sagnat", "wheelchair_boarding": 2, "platform_code": null, "location_type": 0}, "geometry": {"type": "Point", "coordinates": [1.362309, 46.10318]}}, {"type": "Feature", "properties": {"stop_timezone": null, "stop_url": null, "vehicle_type": null, "stop_code": null, "stop_desc": null, "parent_station": "NAQ:StopPlace:31200", "stop_id": "NAQ:Quay:45023", "zone_id": null, "stop_name": "Bessines - Avent", "wheelchair_boarding": 2, "platform_code": null, "location_type": 0}, "geometry": {"type": "Point", "coordinates": [1.3608870000000002, 46.077988]}}, {"type": "Feature", "properties": {"stop_timezone": null, "stop_url": null, "vehicle_type": null, "stop_code": null, "stop_desc": null, "parent_station": "NAQ:StopPlace:34679", "stop_id": "NAQ:Quay:50810", "zone_id": null, "stop_name": "LIMOGES - CIEL*", "wheelchair_boarding": 2, "platform_code": null, "location_type": 0}, "geometry": {"type": "Point", "coordinates": [1.2683879999999998, 45.83576]}}, {"type": "Feature", "properties": {"stop_timezone": null, "stop_url": null, "vehicle_type": null, "stop_code": null, "stop_desc": null, "parent_station": "NAQ:StopPlace:31211", "stop_id": "NAQ:Quay:45010", "zone_id": null, "stop_name": "St Sylvestre - La Crouzille*", "wheelchair_boarding": 2, "platform_code": null, "location_type": 0}, "geometry": {"type": "Point", "coordinates": [1.327649, 45.989246]}}, {"type": "Feature", "properties": {"stop_timezone": null, "stop_url": null, "vehicle_type": null, "stop_code": null, "stop_desc": null, "parent_station": "NAQ:StopPlace:31214", "stop_id": "NAQ:Quay:45016", "zone_id": null, "stop_name": "Bessines - Le Mazataud*", "wheelchair_boarding": 2, "platform_code": null, "location_type": 0}, "geometry": {"type": "Point", "coordinates": [1.362368, 46.086890000000004]}}, {"type": "Feature", "properties": {"stop_timezone": null, "stop_url": null, "vehicle_type": null, "stop_code": null, "stop_desc": null, "parent_station": "NAQ:StopPlace:31212", "stop_id": "NAQ:Quay:45012", "zone_id": null, "stop_name": "Raz\u00e8s - Chanteloube*", "wheelchair_boarding": 2, "platform_code": null, "location_type": 0}, "geometry": {"type": "Point", "coordinates": [1.360458, 46.056484000000005]}}, {"type": "Feature", "properties": {"stop_timezone": null, "stop_url": null, "vehicle_type": null, "stop_code": null, "stop_desc": null, "parent_station": "NAQ:StopPlace:31209", "stop_id": "NAQ:Quay:45008", "zone_id": null, "stop_name": "Raz\u00e8s - Mairie*", "wheelchair_boarding": 2, "platform_code": null, "location_type": 0}, "geometry": {"type": "Point", "coordinates": [1.344769, 46.036808]}}, {"type": "Feature", "properties": {"stop_timezone": null, "stop_url": null, "vehicle_type": null, "stop_code": null, "stop_desc": null, "parent_station": "NAQ:StopPlace:31210", "stop_id": "NAQ:Quay:45009", "zone_id": null, "stop_name": "Raz\u00e8s - Haut", "wheelchair_boarding": 2, "platform_code": null, "location_type": 0}, "geometry": {"type": "Point", "coordinates": [1.345227, 46.032043]}}, {"type": "Feature", "properties": {"stop_timezone": null, "stop_url": null, "vehicle_type": null, "stop_code": null, "stop_desc": null, "parent_station": "NAQ:StopPlace:31207", "stop_id": "NAQ:Quay:45006", "zone_id": null, "stop_name": "Raz\u00e8s - Charensannes*", "wheelchair_boarding": 2, "platform_code": null, "location_type": 0}, "geometry": {"type": "Point", "coordinates": [1.357292, 46.04492]}}, {"type": "Feature", "properties": {"stop_timezone": null, "stop_url": null, "vehicle_type": null, "stop_code": null, "stop_desc": null, "parent_station": "NAQ:StopPlace:31208", "stop_id": "NAQ:Quay:45007", "zone_id": null, "stop_name": "Raz\u00e8s - Bas*", "wheelchair_boarding": 2, "platform_code": null, "location_type": 0}, "geometry": {"type": "Point", "coordinates": [1.347612, 46.041557]}}, {"type": "Feature", "properties": {"stop_timezone": null, "stop_url": null, "vehicle_type": null, "stop_code": null, "stop_desc": null, "parent_station": "NAQ:StopPlace:31203", "stop_id": "NAQ:Quay:45000", "zone_id": null, "stop_name": "Compreignac - N\u00e9poulas", "wheelchair_boarding": 2, "platform_code": null, "location_type": 0}, "geometry": {"type": "Point", "coordinates": [1.321243, 45.976562]}}, {"type": "Feature", "properties": {"stop_timezone": null, "stop_url": null, "vehicle_type": null, "stop_code": null, "stop_desc": null, "parent_station": "NAQ:StopPlace:31204", "stop_id": "NAQ:Quay:45001", "zone_id": null, "stop_name": "Bonnac la C. - Maison Rouge*", "wheelchair_boarding": 2, "platform_code": null, "location_type": 0}, "geometry": {"type": "Point", "coordinates": [1.3101129999999999, 45.938778000000006]}}, {"type": "Feature", "properties": {"stop_timezone": null, "stop_url": null, "vehicle_type": null, "stop_code": null, "stop_desc": null, "parent_station": "NAQ:StopPlace:31205", "stop_id": "NAQ:Quay:45002", "zone_id": null, "stop_name": "Raz\u00e8s - Silord", "wheelchair_boarding": 2, "platform_code": null, "location_type": 0}, "geometry": {"type": "Point", "coordinates": [1.340169, 46.019065999999995]}}, {"type": "Feature", "properties": {"stop_timezone": null, "stop_url": null, "vehicle_type": null, "stop_code": null, "stop_desc": null, "parent_station": "NAQ:StopPlace:31206", "stop_id": "NAQ:Quay:45003", "zone_id": null, "stop_name": "St Sylvestre - Les Roussilles", "wheelchair_boarding": 2, "platform_code": null, "location_type": 0}, "geometry": {"type": "Point", "coordinates": [1.335429, 46.00553]}}, {"type": "Feature", "properties": {"stop_timezone": null, "stop_url": null, "vehicle_type": null, "stop_code": null, "stop_desc": null, "parent_station": "NAQ:StopPlace:31137", "stop_id": "NAQ:Quay:44882", "zone_id": null, "stop_name": "Limoges - Jean Gagnant", "wheelchair_boarding": 2, "platform_code": null, "location_type": 0}, "geometry": {"type": "Point", "coordinates": [1.272485, 45.833984]}}, {"type": "Feature", "properties": {"stop_timezone": null, "stop_url": null, "vehicle_type": null, "stop_code": null, "stop_desc": null, "parent_station": "NAQ:StopPlace:29553", "stop_id": "NAQ:Quay:44871", "zone_id": null, "stop_name": "Limoges - Place Jourdan*", "wheelchair_boarding": 2, "platform_code": null, "location_type": 0}, "geometry": {"type": "Point", "coordinates": [1.264074, 45.832172]}}, {"type": "Feature", "properties": {"stop_timezone": null, "stop_url": null, "vehicle_type": null, "stop_code": null, "stop_desc": null, "parent_station": "NAQ:StopPlace:31202", "stop_id": "NAQ:Quay:44999", "zone_id": null, "stop_name": "Ch\u00e2teauponsac - Puymailhac*", "wheelchair_boarding": 2, "platform_code": null, "location_type": 0}, "geometry": {"type": "Point", "coordinates": [1.322759, 46.135162]}}, {"type": "Feature", "properties": {"stop_timezone": null, "stop_url": null, "vehicle_type": null, "stop_code": null, "stop_desc": null, "parent_station": "NAQ:StopPlace:31201", "stop_id": "NAQ:Quay:44998", "zone_id": null, "stop_name": "Raz\u00e8s - Le Ritor*", "wheelchair_boarding": 2, "platform_code": null, "location_type": 0}, "geometry": {"type": "Point", "coordinates": [1.338266, 46.01312]}}, {"type": "Feature", "properties": {"stop_timezone": null, "stop_url": null, "vehicle_type": null, "stop_code": null, "stop_desc": null, "parent_station": "NAQ:StopPlace:31196", "stop_id": "NAQ:Quay:44992", "zone_id": null, "stop_name": "Bessines - La Chataigni\u00e8re*", "wheelchair_boarding": 2, "platform_code": null, "location_type": 0}, "geometry": {"type": "Point", "coordinates": [1.373112, 46.11698]}}, {"type": "Feature", "properties": {"stop_timezone": null, "stop_url": null, "vehicle_type": null, "stop_code": null, "stop_desc": null, "parent_station": "NAQ:StopPlace:31195", "stop_id": "NAQ:Quay:44991", "zone_id": null, "stop_name": "Limoges - La poste*", "wheelchair_boarding": 2, "platform_code": null, "location_type": 0}, "geometry": {"type": "Point", "coordinates": [1.258097, 45.831734000000004]}}, {"type": "Feature", "properties": {"stop_timezone": null, "stop_url": null, "vehicle_type": null, "stop_code": null, "stop_desc": null, "parent_station": "NAQ:StopPlace:31194", "stop_id": "NAQ:Quay:44990", "zone_id": null, "stop_name": "Bessines - La Croix du Breuil", "wheelchair_boarding": 2, "platform_code": null, "location_type": 0}, "geometry": {"type": "Point", "coordinates": [1.372789, 46.129856]}}, {"type": "Feature", "properties": {"stop_timezone": null, "stop_url": null, "vehicle_type": null, "stop_code": null, "stop_desc": null, "parent_station": "NAQ:StopPlace:31198", "stop_id": "NAQ:Quay:44994", "zone_id": null, "stop_name": "Bessines - Morterolles*", "wheelchair_boarding": 2, "platform_code": null, "location_type": 0}, "geometry": {"type": "Point", "coordinates": [1.36611, 46.147655]}}, {"type": "Feature", "properties": {"stop_timezone": null, "stop_url": null, "vehicle_type": null, "stop_code": null, "stop_desc": null, "parent_station": "NAQ:StopPlace:31197", "stop_id": "NAQ:Quay:44993", "zone_id": null, "stop_name": "Bessines - Bourg*", "wheelchair_boarding": 2, "platform_code": null, "location_type": 0}, "geometry": {"type": "Point", "coordinates": [1.370227, 46.109715]}}, {"type": "Feature", "properties": {"stop_timezone": null, "stop_url": null, "vehicle_type": null, "stop_code": null, "stop_desc": null, "parent_station": "NAQ:StopPlace:31185", "stop_id": "NAQ:Quay:44984", "zone_id": null, "stop_name": "Ch\u00e2teauponsac - Gare routi\u00e8re*", "wheelchair_boarding": 2, "platform_code": null, "location_type": 0}, "geometry": {"type": "Point", "coordinates": [1.276289, 46.13402]}}, {"type": "Feature", "properties": {"stop_timezone": null, "stop_url": null, "vehicle_type": null, "stop_code": null, "stop_desc": null, "parent_station": "NAQ:StopPlace:30938", "stop_id": "NAQ:Quay:44960", "zone_id": null, "stop_name": "Limoges - Place Winston Churchill", "wheelchair_boarding": 2, "platform_code": null, "location_type": 0}, "geometry": {"type": "Point", "coordinates": [1.253471, 45.831264000000004]}}]}