{"type": "FeatureCollection", "features": [{"type": "Feature", "properties": {"route_id": "HVI:Line:LRR9_20191126", "service_id": "HVI:Timetable:14", "trip_id": "HVI:VehicleJourney:54611_20181119_1", "trip_headsign": "Limoges - / Limoges - Place W. Churchill A", "trip_short_name": null, "direction_id": 1, "wheelchair_accessible": 0, "shape_id": "shape_179"}, "geometry": {"type": "LineString", "coordinates": [[1.751066, 45.95482], [1.684791, 45.94944], [1.6338409999999999, 45.918797], [1.604067, 45.907616], [1.550332, 45.878094], [1.514605, 45.860325], [1.492874, 45.844809999999995], [1.491956, 45.83739], [1.481839, 45.832085], [1.4769999999999999, 45.83406], [1.430691, 45.848484], [1.604852, 45.848743], [1.37604, 45.845814000000004], [1.301267, 45.831284000000004], [1.284468, 45.827255], [1.268363, 45.83616], [1.264219, 45.832122999999996], [1.254033, 45.831115999999994]]}}, {"type": "Feature", "properties": {"stop_timezone": null, "stop_url": null, "vehicle_type": null, "stop_code": null, "stop_desc": null, "parent_station": "NAQ:StopPlace:35205", "stop_id": "NAQ:Quay:45074", "zone_id": null, "stop_name": "Limoges - Place W. Churchill A", "wheelchair_boarding": 2, "platform_code": null, "location_type": 0}, "geometry": {"type": "Point", "coordinates": [1.254033, 45.831115999999994]}}, {"type": "Feature", "properties": {"stop_timezone": null, "stop_url": null, "vehicle_type": null, "stop_code": null, "stop_desc": null, "parent_station": "NAQ:StopPlace:34679", "stop_id": "NAQ:Quay:50811", "zone_id": null, "stop_name": "LIMOGES - CIEL", "wheelchair_boarding": 2, "platform_code": null, "location_type": 0}, "geometry": {"type": "Point", "coordinates": [1.268363, 45.83616]}}, {"type": "Feature", "properties": {"stop_timezone": null, "stop_url": null, "vehicle_type": null, "stop_code": null, "stop_desc": null, "parent_station": "NAQ:StopPlace:35196", "stop_id": "NAQ:Quay:51824", "zone_id": null, "stop_name": "Lyc\u00e9e Delphine Gay*", "wheelchair_boarding": 2, "platform_code": null, "location_type": 0}, "geometry": {"type": "Point", "coordinates": [1.751066, 45.95482]}}, {"type": "Feature", "properties": {"stop_timezone": null, "stop_url": null, "vehicle_type": null, "stop_code": null, "stop_desc": null, "parent_station": "NAQ:StopPlace:34489", "stop_id": "NAQ:Quay:50184", "zone_id": null, "stop_name": "Eycouveaux", "wheelchair_boarding": 2, "platform_code": null, "location_type": 0}, "geometry": {"type": "Point", "coordinates": [1.514605, 45.860325]}}, {"type": "Feature", "properties": {"stop_timezone": null, "stop_url": null, "vehicle_type": null, "stop_code": null, "stop_desc": null, "parent_station": "NAQ:StopPlace:34488", "stop_id": "NAQ:Quay:50182", "zone_id": null, "stop_name": "Cit\u00e9 d'Aug\u00e8res*", "wheelchair_boarding": 2, "platform_code": null, "location_type": 0}, "geometry": {"type": "Point", "coordinates": [1.492874, 45.844809999999995]}}, {"type": "Feature", "properties": {"stop_timezone": null, "stop_url": null, "vehicle_type": null, "stop_code": null, "stop_desc": null, "parent_station": "NAQ:StopPlace:34486", "stop_id": "NAQ:Quay:50180", "zone_id": null, "stop_name": "Le Nouhaud*", "wheelchair_boarding": 2, "platform_code": null, "location_type": 0}, "geometry": {"type": "Point", "coordinates": [1.6338409999999999, 45.918797]}}, {"type": "Feature", "properties": {"stop_timezone": null, "stop_url": null, "vehicle_type": null, "stop_code": null, "stop_desc": null, "parent_station": "NAQ:StopPlace:34485", "stop_id": "NAQ:Quay:50179", "zone_id": null, "stop_name": "Rte de Moissannes*", "wheelchair_boarding": 2, "platform_code": null, "location_type": 0}, "geometry": {"type": "Point", "coordinates": [1.550332, 45.878094]}}, {"type": "Feature", "properties": {"stop_timezone": null, "stop_url": null, "vehicle_type": null, "stop_code": null, "stop_desc": null, "parent_station": "NAQ:StopPlace:34482", "stop_id": "NAQ:Quay:50171", "zone_id": null, "stop_name": "La G\u00e2ne Du Clos*", "wheelchair_boarding": 2, "platform_code": null, "location_type": 0}, "geometry": {"type": "Point", "coordinates": [1.684791, 45.94944]}}, {"type": "Feature", "properties": {"stop_timezone": null, "stop_url": null, "vehicle_type": null, "stop_code": null, "stop_desc": null, "parent_station": "NAQ:StopPlace:34481", "stop_id": "NAQ:Quay:50170", "zone_id": null, "stop_name": "St L\u00e9onard Gare*", "wheelchair_boarding": 2, "platform_code": null, "location_type": 0}, "geometry": {"type": "Point", "coordinates": [1.481839, 45.832085]}}, {"type": "Feature", "properties": {"stop_timezone": null, "stop_url": null, "vehicle_type": null, "stop_code": null, "stop_desc": null, "parent_station": "NAQ:StopPlace:32478", "stop_id": "NAQ:Quay:47198", "zone_id": null, "stop_name": "Limoges - Place Jourdan", "wheelchair_boarding": 2, "platform_code": null, "location_type": 0}, "geometry": {"type": "Point", "coordinates": [1.264219, 45.832122999999996]}}, {"type": "Feature", "properties": {"stop_timezone": null, "stop_url": null, "vehicle_type": null, "stop_code": null, "stop_desc": null, "parent_station": "NAQ:StopPlace:34480", "stop_id": "NAQ:Quay:50169", "zone_id": null, "stop_name": "Sauviat Centre*", "wheelchair_boarding": 2, "platform_code": null, "location_type": 0}, "geometry": {"type": "Point", "coordinates": [1.604067, 45.907616]}}, {"type": "Feature", "properties": {"stop_timezone": null, "stop_url": null, "vehicle_type": null, "stop_code": null, "stop_desc": null, "parent_station": "NAQ:StopPlace:34479", "stop_id": "NAQ:Quay:50168", "zone_id": null, "stop_name": "St L\u00e9onard Centre*", "wheelchair_boarding": 2, "platform_code": null, "location_type": 0}, "geometry": {"type": "Point", "coordinates": [1.491956, 45.83739]}}, {"type": "Feature", "properties": {"stop_timezone": null, "stop_url": null, "vehicle_type": null, "stop_code": null, "stop_desc": null, "parent_station": "NAQ:StopPlace:34478", "stop_id": "NAQ:Quay:50167", "zone_id": null, "stop_name": "Pont de Noblat*", "wheelchair_boarding": 2, "platform_code": null, "location_type": 0}, "geometry": {"type": "Point", "coordinates": [1.4769999999999999, 45.83406]}}, {"type": "Feature", "properties": {"stop_timezone": null, "stop_url": null, "vehicle_type": null, "stop_code": null, "stop_desc": null, "parent_station": "NAQ:StopPlace:34477", "stop_id": "NAQ:Quay:50166", "zone_id": null, "stop_name": "L\u00e9on Blum*", "wheelchair_boarding": 2, "platform_code": null, "location_type": 0}, "geometry": {"type": "Point", "coordinates": [1.301267, 45.831284000000004]}}, {"type": "Feature", "properties": {"stop_timezone": null, "stop_url": null, "vehicle_type": null, "stop_code": null, "stop_desc": null, "parent_station": "NAQ:StopPlace:29918", "stop_id": "NAQ:Quay:50165", "zone_id": null, "stop_name": "Les Chabannes", "wheelchair_boarding": 2, "platform_code": null, "location_type": 0}, "geometry": {"type": "Point", "coordinates": [1.37604, 45.845814000000004]}}, {"type": "Feature", "properties": {"stop_timezone": null, "stop_url": null, "vehicle_type": null, "stop_code": null, "stop_desc": null, "parent_station": "NAQ:StopPlace:29534", "stop_id": "NAQ:Quay:50164", "zone_id": null, "stop_name": "Chastaingt", "wheelchair_boarding": 2, "platform_code": null, "location_type": 0}, "geometry": {"type": "Point", "coordinates": [1.284468, 45.827255]}}, {"type": "Feature", "properties": {"stop_timezone": null, "stop_url": null, "vehicle_type": null, "stop_code": null, "stop_desc": null, "parent_station": "NAQ:StopPlace:34476", "stop_id": "NAQ:Quay:50163", "zone_id": null, "stop_name": "St Just le Martel-Le Verdeau*", "wheelchair_boarding": 2, "platform_code": null, "location_type": 0}, "geometry": {"type": "Point", "coordinates": [1.604852, 45.848743]}}, {"type": "Feature", "properties": {"stop_timezone": null, "stop_url": null, "vehicle_type": null, "stop_code": null, "stop_desc": null, "parent_station": "NAQ:StopPlace:34475", "stop_id": "NAQ:Quay:50162", "zone_id": null, "stop_name": "Roy\u00e8res Centre*", "wheelchair_boarding": 2, "platform_code": null, "location_type": 0}, "geometry": {"type": "Point", "coordinates": [1.430691, 45.848484]}}]}