{"type": "FeatureCollection", "features": [{"type": "Feature", "properties": {"route_id": "HVI:Line:LR21_20190901", "service_id": "HVI:Timetable:16", "trip_id": "HVI:VehicleJourney:LR2107R_20190901_1", "trip_headsign": "St Yrieix ss Aixe - Erin*", "trip_short_name": null, "direction_id": 1, "wheelchair_accessible": 0, "shape_id": "shape_168"}, "geometry": {"type": "LineString", "coordinates": [[1.2683879999999998, 45.83576], [1.264074, 45.832172], [1.258097, 45.831734000000004], [1.253471, 45.831264000000004], [1.249949, 45.8302], [1.246294, 45.829624], [1.237801, 45.826687], [1.2250780000000001, 45.824055], [1.209734, 45.82115], [1.197808, 45.821323], [1.173314, 45.815870000000004], [1.1624729999999999, 45.808815], [1.154619, 45.804790000000004], [1.148296, 45.798393], [1.145108, 45.79735], [1.1380540000000001, 45.796978], [1.132819, 45.796158], [1.13069, 45.793423], [1.127456, 45.795418], [1.112139, 45.808105], [1.104244, 45.8111], [1.098303, 45.81694], [1.0942479999999999, 45.81201], [1.092118, 45.806416], [1.069608, 45.7991], [1.0715709999999998, 45.809387], [1.0729090000000001, 45.811993], [1.053029, 45.811904999999996], [1.051561, 45.817345], [1.048451, 45.839929999999995]]}}, {"type": "Feature", "properties": {"stop_timezone": null, "stop_url": null, "vehicle_type": null, "stop_code": null, "stop_desc": null, "parent_station": "NAQ:StopPlace:31338", "stop_id": "NAQ:Quay:45282", "zone_id": null, "stop_name": "St Priest ss Aixe - Bournazaud", "wheelchair_boarding": 2, "platform_code": null, "location_type": 0}, "geometry": {"type": "Point", "coordinates": [1.092118, 45.806416]}}, {"type": "Feature", "properties": {"stop_timezone": null, "stop_url": null, "vehicle_type": null, "stop_code": null, "stop_desc": null, "parent_station": "NAQ:StopPlace:31331", "stop_id": "NAQ:Quay:45283", "zone_id": null, "stop_name": "St Priest ss Aixe - Scierie*", "wheelchair_boarding": 2, "platform_code": null, "location_type": 0}, "geometry": {"type": "Point", "coordinates": [1.0729090000000001, 45.811993]}}, {"type": "Feature", "properties": {"stop_timezone": null, "stop_url": null, "vehicle_type": null, "stop_code": null, "stop_desc": null, "parent_station": "NAQ:StopPlace:31342", "stop_id": "NAQ:Quay:45284", "zone_id": null, "stop_name": "St Priest ss Aixe - Tarnaud", "wheelchair_boarding": 2, "platform_code": null, "location_type": 0}, "geometry": {"type": "Point", "coordinates": [1.112139, 45.808105]}}, {"type": "Feature", "properties": {"stop_timezone": null, "stop_url": null, "vehicle_type": null, "stop_code": null, "stop_desc": null, "parent_station": "NAQ:StopPlace:31347", "stop_id": "NAQ:Quay:45285", "zone_id": null, "stop_name": "St Priest ss Aixe - Lot les M\u00fbres", "wheelchair_boarding": 2, "platform_code": null, "location_type": 0}, "geometry": {"type": "Point", "coordinates": [1.104244, 45.8111]}}, {"type": "Feature", "properties": {"stop_timezone": null, "stop_url": null, "vehicle_type": null, "stop_code": null, "stop_desc": null, "parent_station": "NAQ:StopPlace:31348", "stop_id": "NAQ:Quay:45280", "zone_id": null, "stop_name": "Aixe sur Vienne - Chambor\u00eat*", "wheelchair_boarding": 2, "platform_code": null, "location_type": 0}, "geometry": {"type": "Point", "coordinates": [1.127456, 45.795418]}}, {"type": "Feature", "properties": {"stop_timezone": null, "stop_url": null, "vehicle_type": null, "stop_code": null, "stop_desc": null, "parent_station": "NAQ:StopPlace:31349", "stop_id": "NAQ:Quay:45281", "zone_id": null, "stop_name": "St Priest ss Aixe - Les Bouchats*", "wheelchair_boarding": 2, "platform_code": null, "location_type": 0}, "geometry": {"type": "Point", "coordinates": [1.0715709999999998, 45.809387]}}, {"type": "Feature", "properties": {"stop_timezone": null, "stop_url": null, "vehicle_type": null, "stop_code": null, "stop_desc": null, "parent_station": "NAQ:StopPlace:31350", "stop_id": "NAQ:Quay:45286", "zone_id": null, "stop_name": "St Priest s A. - Pl. de la Poste*", "wheelchair_boarding": 2, "platform_code": null, "location_type": 0}, "geometry": {"type": "Point", "coordinates": [1.098303, 45.81694]}}, {"type": "Feature", "properties": {"stop_timezone": null, "stop_url": null, "vehicle_type": null, "stop_code": null, "stop_desc": null, "parent_station": "NAQ:StopPlace:31339", "stop_id": "NAQ:Quay:45287", "zone_id": null, "stop_name": "St Priest ss Aixe - Stade*", "wheelchair_boarding": 2, "platform_code": null, "location_type": 0}, "geometry": {"type": "Point", "coordinates": [1.0942479999999999, 45.81201]}}, {"type": "Feature", "properties": {"stop_timezone": null, "stop_url": null, "vehicle_type": null, "stop_code": null, "stop_desc": null, "parent_station": "NAQ:StopPlace:31351", "stop_id": "NAQ:Quay:45288", "zone_id": null, "stop_name": "Cognac la For\u00eat - Le Palais", "wheelchair_boarding": 2, "platform_code": null, "location_type": 0}, "geometry": {"type": "Point", "coordinates": [1.051561, 45.817345]}}, {"type": "Feature", "properties": {"stop_timezone": null, "stop_url": null, "vehicle_type": null, "stop_code": null, "stop_desc": null, "parent_station": "NAQ:StopPlace:31340", "stop_id": "NAQ:Quay:45263", "zone_id": null, "stop_name": "St Priest ss Aixe - Maison Dieu", "wheelchair_boarding": 2, "platform_code": null, "location_type": 0}, "geometry": {"type": "Point", "coordinates": [1.069608, 45.7991]}}, {"type": "Feature", "properties": {"stop_timezone": null, "stop_url": null, "vehicle_type": null, "stop_code": null, "stop_desc": null, "parent_station": "NAQ:StopPlace:31341", "stop_id": "NAQ:Quay:45264", "zone_id": null, "stop_name": "St Priest ss Aixe - Les Lattes*", "wheelchair_boarding": 2, "platform_code": null, "location_type": 0}, "geometry": {"type": "Point", "coordinates": [1.053029, 45.811904999999996]}}, {"type": "Feature", "properties": {"stop_timezone": null, "stop_url": null, "vehicle_type": null, "stop_code": null, "stop_desc": null, "parent_station": "NAQ:StopPlace:34679", "stop_id": "NAQ:Quay:50810", "zone_id": null, "stop_name": "LIMOGES - CIEL*", "wheelchair_boarding": 2, "platform_code": null, "location_type": 0}, "geometry": {"type": "Point", "coordinates": [1.2683879999999998, 45.83576]}}, {"type": "Feature", "properties": {"stop_timezone": null, "stop_url": null, "vehicle_type": null, "stop_code": null, "stop_desc": null, "parent_station": "NAQ:StopPlace:31334", "stop_id": "NAQ:Quay:45255", "zone_id": null, "stop_name": "St Yrieix ss Aixe - Erin*", "wheelchair_boarding": 2, "platform_code": null, "location_type": 0}, "geometry": {"type": "Point", "coordinates": [1.048451, 45.839929999999995]}}, {"type": "Feature", "properties": {"stop_timezone": null, "stop_url": null, "vehicle_type": null, "stop_code": null, "stop_desc": null, "parent_station": "NAQ:StopPlace:31330", "stop_id": "NAQ:Quay:45247", "zone_id": null, "stop_name": "Aixe sur Vienne - Coll\u00e8ge", "wheelchair_boarding": 2, "platform_code": null, "location_type": 0}, "geometry": {"type": "Point", "coordinates": [1.13069, 45.793423]}}, {"type": "Feature", "properties": {"stop_timezone": null, "stop_url": null, "vehicle_type": null, "stop_code": null, "stop_desc": null, "parent_station": "NAQ:StopPlace:29553", "stop_id": "NAQ:Quay:44871", "zone_id": null, "stop_name": "Limoges - Place Jourdan*", "wheelchair_boarding": 2, "platform_code": null, "location_type": 0}, "geometry": {"type": "Point", "coordinates": [1.264074, 45.832172]}}, {"type": "Feature", "properties": {"stop_timezone": null, "stop_url": null, "vehicle_type": null, "stop_code": null, "stop_desc": null, "parent_station": "NAQ:StopPlace:31140", "stop_id": "NAQ:Quay:44893", "zone_id": null, "stop_name": "Aixe sur Vienne - Champ de Foire*", "wheelchair_boarding": 2, "platform_code": null, "location_type": 0}, "geometry": {"type": "Point", "coordinates": [1.1380540000000001, 45.796978]}}, {"type": "Feature", "properties": {"stop_timezone": null, "stop_url": null, "vehicle_type": null, "stop_code": null, "stop_desc": null, "parent_station": "NAQ:StopPlace:31288", "stop_id": "NAQ:Quay:45167", "zone_id": null, "stop_name": "Isle - Teytejeaud *", "wheelchair_boarding": 2, "platform_code": null, "location_type": 0}, "geometry": {"type": "Point", "coordinates": [1.197808, 45.821323]}}, {"type": "Feature", "properties": {"stop_timezone": null, "stop_url": null, "vehicle_type": null, "stop_code": null, "stop_desc": null, "parent_station": "NAQ:StopPlace:31276", "stop_id": "NAQ:Quay:45153", "zone_id": null, "stop_name": "Limoges - Fran\u00e7ois Perrin*", "wheelchair_boarding": 2, "platform_code": null, "location_type": 0}, "geometry": {"type": "Point", "coordinates": [1.2250780000000001, 45.824055]}}, {"type": "Feature", "properties": {"stop_timezone": null, "stop_url": null, "vehicle_type": null, "stop_code": null, "stop_desc": null, "parent_station": "NAQ:StopPlace:31281", "stop_id": "NAQ:Quay:45158", "zone_id": null, "stop_name": "Aixe sur Vienne - Les Querrades*", "wheelchair_boarding": 2, "platform_code": null, "location_type": 0}, "geometry": {"type": "Point", "coordinates": [1.1624729999999999, 45.808815]}}, {"type": "Feature", "properties": {"stop_timezone": null, "stop_url": null, "vehicle_type": null, "stop_code": null, "stop_desc": null, "parent_station": "NAQ:StopPlace:31277", "stop_id": "NAQ:Quay:45154", "zone_id": null, "stop_name": "Isle - Moulin Blanc*", "wheelchair_boarding": 2, "platform_code": null, "location_type": 0}, "geometry": {"type": "Point", "coordinates": [1.209734, 45.82115]}}, {"type": "Feature", "properties": {"stop_timezone": null, "stop_url": null, "vehicle_type": null, "stop_code": null, "stop_desc": null, "parent_station": "NAQ:StopPlace:31278", "stop_id": "NAQ:Quay:45155", "zone_id": null, "stop_name": "Isle - Le Mas des Landes*", "wheelchair_boarding": 2, "platform_code": null, "location_type": 0}, "geometry": {"type": "Point", "coordinates": [1.173314, 45.815870000000004]}}, {"type": "Feature", "properties": {"stop_timezone": null, "stop_url": null, "vehicle_type": null, "stop_code": null, "stop_desc": null, "parent_station": "NAQ:StopPlace:31302", "stop_id": "NAQ:Quay:45195", "zone_id": null, "stop_name": "Aixe sur V. - Av. Jean Rebier*", "wheelchair_boarding": 2, "platform_code": null, "location_type": 0}, "geometry": {"type": "Point", "coordinates": [1.148296, 45.798393]}}, {"type": "Feature", "properties": {"stop_timezone": null, "stop_url": null, "vehicle_type": null, "stop_code": null, "stop_desc": null, "parent_station": "NAQ:StopPlace:35200", "stop_id": "NAQ:Quay:51844", "zone_id": null, "stop_name": "Limoges - Place des Carmes*", "wheelchair_boarding": 2, "platform_code": null, "location_type": 0}, "geometry": {"type": "Point", "coordinates": [1.249949, 45.8302]}}, {"type": "Feature", "properties": {"stop_timezone": null, "stop_url": null, "vehicle_type": null, "stop_code": null, "stop_desc": null, "parent_station": "NAQ:StopPlace:35203", "stop_id": "NAQ:Quay:51845", "zone_id": null, "stop_name": "Sacr\u00e9 Coeur", "wheelchair_boarding": 2, "platform_code": null, "location_type": 0}, "geometry": {"type": "Point", "coordinates": [1.246294, 45.829624]}}, {"type": "Feature", "properties": {"stop_timezone": null, "stop_url": null, "vehicle_type": null, "stop_code": null, "stop_desc": null, "parent_station": "NAQ:StopPlace:35206", "stop_id": "NAQ:Quay:51846", "zone_id": null, "stop_name": "Limoges - Casimir Ranson*", "wheelchair_boarding": 2, "platform_code": null, "location_type": 0}, "geometry": {"type": "Point", "coordinates": [1.237801, 45.826687]}}, {"type": "Feature", "properties": {"stop_timezone": null, "stop_url": null, "vehicle_type": null, "stop_code": null, "stop_desc": null, "parent_station": "NAQ:StopPlace:31301", "stop_id": "NAQ:Quay:45193", "zone_id": null, "stop_name": "Aixe sur Vienne. - Beaubonnat*", "wheelchair_boarding": 2, "platform_code": null, "location_type": 0}, "geometry": {"type": "Point", "coordinates": [1.154619, 45.804790000000004]}}, {"type": "Feature", "properties": {"stop_timezone": null, "stop_url": null, "vehicle_type": null, "stop_code": null, "stop_desc": null, "parent_station": "NAQ:StopPlace:31195", "stop_id": "NAQ:Quay:44991", "zone_id": null, "stop_name": "Limoges - La poste*", "wheelchair_boarding": 2, "platform_code": null, "location_type": 0}, "geometry": {"type": "Point", "coordinates": [1.258097, 45.831734000000004]}}, {"type": "Feature", "properties": {"stop_timezone": null, "stop_url": null, "vehicle_type": null, "stop_code": null, "stop_desc": null, "parent_station": "NAQ:StopPlace:30938", "stop_id": "NAQ:Quay:44960", "zone_id": null, "stop_name": "Limoges - Place Winston Churchill", "wheelchair_boarding": 2, "platform_code": null, "location_type": 0}, "geometry": {"type": "Point", "coordinates": [1.253471, 45.831264000000004]}}, {"type": "Feature", "properties": {"stop_timezone": null, "stop_url": null, "vehicle_type": null, "stop_code": null, "stop_desc": null, "parent_station": "NAQ:StopPlace:31162", "stop_id": "NAQ:Quay:44937", "zone_id": null, "stop_name": "Aixe sur Vienne - Passage niveau*", "wheelchair_boarding": 2, "platform_code": null, "location_type": 0}, "geometry": {"type": "Point", "coordinates": [1.145108, 45.79735]}}, {"type": "Feature", "properties": {"stop_timezone": null, "stop_url": null, "vehicle_type": null, "stop_code": null, "stop_desc": null, "parent_station": "NAQ:StopPlace:31161", "stop_id": "NAQ:Quay:44935", "zone_id": null, "stop_name": "Aixe sur V. - Av. Pasteur*", "wheelchair_boarding": 2, "platform_code": null, "location_type": 0}, "geometry": {"type": "Point", "coordinates": [1.132819, 45.796158]}}]}