{"type": "FeatureCollection", "features": [{"type": "Feature", "properties": {"route_id": "HVI:Line:LR05_20190901", "service_id": "HVI:Timetable:1", "trip_id": "HVI:VehicleJourney:LR0506A_20190706_1", "trip_headsign": "Limoges - Place W. Churchill F", "trip_short_name": null, "direction_id": 0, "wheelchair_accessible": 0, "shape_id": "shape_046"}, "geometry": {"type": "LineString", "coordinates": [[1.276318, 46.133884], [1.215444, 46.145393], [1.182598, 46.13155], [1.201465, 46.077805], [1.2350290000000002, 46.06061], [1.279933, 46.058346], [1.252302, 46.044563000000004], [1.255924, 46.019012], [1.268363, 46.018356], [1.278324, 46.01977], [1.278211, 46.0139], [1.275673, 46.005062], [1.274758, 45.992172], [1.251918, 45.96985], [1.2363110000000002, 45.958405], [1.231503, 45.940514], [1.229695, 45.92579], [1.238076, 45.879090000000005], [1.245449, 45.845074], [1.253471, 45.831264000000004]]}}, {"type": "Feature", "properties": {"stop_timezone": null, "stop_url": null, "vehicle_type": null, "stop_code": null, "stop_desc": null, "parent_station": "NAQ:StopPlace:29863", "stop_id": "NAQ:Quay:47207", "zone_id": null, "stop_name": "Montjovis", "wheelchair_boarding": 2, "platform_code": null, "location_type": 0}, "geometry": {"type": "Point", "coordinates": [1.245449, 45.845074]}}, {"type": "Feature", "properties": {"stop_timezone": null, "stop_url": null, "vehicle_type": null, "stop_code": null, "stop_desc": null, "parent_station": "NAQ:StopPlace:32481", "stop_id": "NAQ:Quay:47206", "zone_id": null, "stop_name": "Roussac - Bourg*", "wheelchair_boarding": 2, "platform_code": null, "location_type": 0}, "geometry": {"type": "Point", "coordinates": [1.201465, 46.077805]}}, {"type": "Feature", "properties": {"stop_timezone": null, "stop_url": null, "vehicle_type": null, "stop_code": null, "stop_desc": null, "parent_station": "NAQ:StopPlace:30039", "stop_id": "NAQ:Quay:47203", "zone_id": null, "stop_name": "Morcheval", "wheelchair_boarding": 2, "platform_code": null, "location_type": 0}, "geometry": {"type": "Point", "coordinates": [1.229695, 45.92579]}}, {"type": "Feature", "properties": {"stop_timezone": null, "stop_url": null, "vehicle_type": null, "stop_code": null, "stop_desc": null, "parent_station": "NAQ:StopPlace:31191", "stop_id": "NAQ:Quay:44981", "zone_id": null, "stop_name": "Rancon - Villevit", "wheelchair_boarding": 2, "platform_code": null, "location_type": 0}, "geometry": {"type": "Point", "coordinates": [1.215444, 46.145393]}}, {"type": "Feature", "properties": {"stop_timezone": null, "stop_url": null, "vehicle_type": null, "stop_code": null, "stop_desc": null, "parent_station": "NAQ:StopPlace:31188", "stop_id": "NAQ:Quay:44980", "zone_id": null, "stop_name": "St Symphorien - Bourg", "wheelchair_boarding": 2, "platform_code": null, "location_type": 0}, "geometry": {"type": "Point", "coordinates": [1.2350290000000002, 46.06061]}}, {"type": "Feature", "properties": {"stop_timezone": null, "stop_url": null, "vehicle_type": null, "stop_code": null, "stop_desc": null, "parent_station": "NAQ:StopPlace:31192", "stop_id": "NAQ:Quay:44982", "zone_id": null, "stop_name": "St Symphorien - Crumaud", "wheelchair_boarding": 2, "platform_code": null, "location_type": 0}, "geometry": {"type": "Point", "coordinates": [1.252302, 46.044563000000004]}}, {"type": "Feature", "properties": {"stop_timezone": null, "stop_url": null, "vehicle_type": null, "stop_code": null, "stop_desc": null, "parent_station": "NAQ:StopPlace:31190", "stop_id": "NAQ:Quay:44977", "zone_id": null, "stop_name": "Rancon - Bourg", "wheelchair_boarding": 2, "platform_code": null, "location_type": 0}, "geometry": {"type": "Point", "coordinates": [1.182598, 46.13155]}}, {"type": "Feature", "properties": {"stop_timezone": null, "stop_url": null, "vehicle_type": null, "stop_code": null, "stop_desc": null, "parent_station": "NAQ:StopPlace:31189", "stop_id": "NAQ:Quay:44975", "zone_id": null, "stop_name": "Compreignac - Les Landes*", "wheelchair_boarding": 2, "platform_code": null, "location_type": 0}, "geometry": {"type": "Point", "coordinates": [1.275673, 46.005062]}}, {"type": "Feature", "properties": {"stop_timezone": null, "stop_url": null, "vehicle_type": null, "stop_code": null, "stop_desc": null, "parent_station": "NAQ:StopPlace:31184", "stop_id": "NAQ:Quay:44970", "zone_id": null, "stop_name": "Compreignac - Nepoux*", "wheelchair_boarding": 2, "platform_code": null, "location_type": 0}, "geometry": {"type": "Point", "coordinates": [1.268363, 46.018356]}}, {"type": "Feature", "properties": {"stop_timezone": null, "stop_url": null, "vehicle_type": null, "stop_code": null, "stop_desc": null, "parent_station": "NAQ:StopPlace:31187", "stop_id": "NAQ:Quay:44973", "zone_id": null, "stop_name": "Compreignac - Le Puymenier*", "wheelchair_boarding": 2, "platform_code": null, "location_type": 0}, "geometry": {"type": "Point", "coordinates": [1.255924, 46.019012]}}, {"type": "Feature", "properties": {"stop_timezone": null, "stop_url": null, "vehicle_type": null, "stop_code": null, "stop_desc": null, "parent_station": "NAQ:StopPlace:31185", "stop_id": "NAQ:Quay:44971", "zone_id": null, "stop_name": "Ch\u00e2teauponsac - Gare routi\u00e8re*", "wheelchair_boarding": 2, "platform_code": null, "location_type": 0}, "geometry": {"type": "Point", "coordinates": [1.276318, 46.133884]}}, {"type": "Feature", "properties": {"stop_timezone": null, "stop_url": null, "vehicle_type": null, "stop_code": null, "stop_desc": null, "parent_station": "NAQ:StopPlace:31181", "stop_id": "NAQ:Quay:44966", "zone_id": null, "stop_name": "Compreignac - Camping Municipal*", "wheelchair_boarding": 2, "platform_code": null, "location_type": 0}, "geometry": {"type": "Point", "coordinates": [1.278211, 46.0139]}}, {"type": "Feature", "properties": {"stop_timezone": null, "stop_url": null, "vehicle_type": null, "stop_code": null, "stop_desc": null, "parent_station": "NAQ:StopPlace:30938", "stop_id": "NAQ:Quay:44960", "zone_id": null, "stop_name": "Limoges - Place Winston Churchill", "wheelchair_boarding": 2, "platform_code": null, "location_type": 0}, "geometry": {"type": "Point", "coordinates": [1.253471, 45.831264000000004]}}, {"type": "Feature", "properties": {"stop_timezone": null, "stop_url": null, "vehicle_type": null, "stop_code": null, "stop_desc": null, "parent_station": "NAQ:StopPlace:31179", "stop_id": "NAQ:Quay:44956", "zone_id": null, "stop_name": "Compreignac - Le Malagnac*", "wheelchair_boarding": 2, "platform_code": null, "location_type": 0}, "geometry": {"type": "Point", "coordinates": [1.251918, 45.96985]}}, {"type": "Feature", "properties": {"stop_timezone": null, "stop_url": null, "vehicle_type": null, "stop_code": null, "stop_desc": null, "parent_station": "NAQ:StopPlace:31178", "stop_id": "NAQ:Quay:44955", "zone_id": null, "stop_name": "St Jouvent - Les Quatre Poteaux*", "wheelchair_boarding": 2, "platform_code": null, "location_type": 0}, "geometry": {"type": "Point", "coordinates": [1.2363110000000002, 45.958405]}}, {"type": "Feature", "properties": {"stop_timezone": null, "stop_url": null, "vehicle_type": null, "stop_code": null, "stop_desc": null, "parent_station": "NAQ:StopPlace:31177", "stop_id": "NAQ:Quay:44954", "zone_id": null, "stop_name": "Compreignac - Bourg*", "wheelchair_boarding": 2, "platform_code": null, "location_type": 0}, "geometry": {"type": "Point", "coordinates": [1.274758, 45.992172]}}, {"type": "Feature", "properties": {"stop_timezone": null, "stop_url": null, "vehicle_type": null, "stop_code": null, "stop_desc": null, "parent_station": "NAQ:StopPlace:30002", "stop_id": "NAQ:Quay:44953", "zone_id": null, "stop_name": "Couzeix Mairie", "wheelchair_boarding": 2, "platform_code": null, "location_type": 0}, "geometry": {"type": "Point", "coordinates": [1.238076, 45.879090000000005]}}, {"type": "Feature", "properties": {"stop_timezone": null, "stop_url": null, "vehicle_type": null, "stop_code": null, "stop_desc": null, "parent_station": "NAQ:StopPlace:31173", "stop_id": "NAQ:Quay:44958", "zone_id": null, "stop_name": "St Jouvent - Fontbesse*", "wheelchair_boarding": 2, "platform_code": null, "location_type": 0}, "geometry": {"type": "Point", "coordinates": [1.231503, 45.940514]}}, {"type": "Feature", "properties": {"stop_timezone": null, "stop_url": null, "vehicle_type": null, "stop_code": null, "stop_desc": null, "parent_station": "NAQ:StopPlace:31176", "stop_id": "NAQ:Quay:44952", "zone_id": null, "stop_name": "Compreignac - Montimbert", "wheelchair_boarding": 2, "platform_code": null, "location_type": 0}, "geometry": {"type": "Point", "coordinates": [1.278324, 46.01977]}}, {"type": "Feature", "properties": {"stop_timezone": null, "stop_url": null, "vehicle_type": null, "stop_code": null, "stop_desc": null, "parent_station": "NAQ:StopPlace:31174", "stop_id": "NAQ:Quay:44950", "zone_id": null, "stop_name": "St Pardoux - Bourg", "wheelchair_boarding": 2, "platform_code": null, "location_type": 0}, "geometry": {"type": "Point", "coordinates": [1.279933, 46.058346]}}]}