{"type": "FeatureCollection", "features": [{"type": "Feature", "properties": {"route_id": "3_2", "service_id": "1_1_V", "trip_id": "1824{3_2}-1_1_V", "trip_headsign": null, "trip_short_name": null, "direction_id": 0, "block_id": null, "shape_id": "shape_25", "wheelchair_accessible": 0}, "geometry": {"type": "LineString", "coordinates": [[5.5822212, 46.68102], [5.5790658, 46.6832163], [5.5762748, 46.6831915], [5.5664357, 46.6835638], [5.5648968, 46.680154], [5.5648798, 46.6776345], [5.5639976, 46.6767692], [5.5608249, 46.6764184], [5.5595671, 46.6740706], [5.55767, 46.67308], [5.55409, 46.67337], [5.5465549, 46.6750847], [5.53851, 46.6751968], [5.5340934, 46.6750779], [5.5302526, 46.6751357], [5.52605, 46.67044]]}}, {"type": "Feature", "properties": {"parent_station": "ARCOM@LONAFPA", "stop_code": "LONAFPA1", "location_type": null, "stop_desc": null, "stop_id": "LONAFPA1", "zone_id": null, "stop_name": "Restaurant Municipal", "stop_url": null, "stop_timezone": null, "wheelchair_boarding": 0}, "geometry": {"type": "Point", "coordinates": [5.5790658, 46.6832163]}}, {"type": "Feature", "properties": {"parent_station": "ARCOM@LONAQUA", "stop_code": "LONAQUA1", "location_type": null, "stop_desc": null, "stop_id": "LONAQUA1", "zone_id": null, "stop_name": "Aqua'ReL - Camping", "stop_url": null, "stop_timezone": null, "wheelchair_boarding": 0}, "geometry": {"type": "Point", "coordinates": [5.5664357, 46.6835638]}}, {"type": "Feature", "properties": {"parent_station": "ARCOM@LONCAMU", "stop_code": "LONCAMU1", "location_type": null, "stop_desc": null, "stop_id": "LONCAMU1", "zone_id": null, "stop_name": "Camuset", "stop_url": null, "stop_timezone": null, "wheelchair_boarding": 0}, "geometry": {"type": "Point", "coordinates": [5.5762748, 46.6831915]}}, {"type": "Feature", "properties": {"parent_station": "ARCOM@LONCINE", "stop_code": "LONCINE1", "location_type": null, "stop_desc": null, "stop_id": "LONCINE1", "zone_id": null, "stop_name": "Cin\u00e9mas M\u00e9diath\u00e8que", "stop_url": null, "stop_timezone": null, "wheelchair_boarding": 0}, "geometry": {"type": "Point", "coordinates": [5.55767, 46.67308]}}, {"type": "Feature", "properties": {"parent_station": "ARCOM@LONCOLB", "stop_code": "LONCOLB1", "location_type": null, "stop_desc": null, "stop_id": "LONCOLB1", "zone_id": null, "stop_name": "Colbert", "stop_url": null, "stop_timezone": null, "wheelchair_boarding": 0}, "geometry": {"type": "Point", "coordinates": [5.5465549, 46.6750847]}}, {"type": "Feature", "properties": {"parent_station": "ARCOM@LONDUNA", "stop_code": "LONDUNA1", "location_type": null, "stop_desc": null, "stop_id": "LONDUNA1", "zone_id": null, "stop_name": "Dunant", "stop_url": null, "stop_timezone": null, "wheelchair_boarding": 0}, "geometry": {"type": "Point", "coordinates": [5.5648798, 46.6776345]}}, {"type": "Feature", "properties": {"parent_station": "ARCOM@LONJUPA", "stop_code": "LONJUPA1", "location_type": null, "stop_desc": null, "stop_id": "LONJUPA1", "zone_id": null, "stop_name": "Juraparc", "stop_url": null, "stop_timezone": null, "wheelchair_boarding": 0}, "geometry": {"type": "Point", "coordinates": [5.53851, 46.6751968]}}, {"type": "Feature", "properties": {"parent_station": "ARCOM@LONMEND", "stop_code": "LONMEND1", "location_type": null, "stop_desc": null, "stop_id": "LONMEND1", "zone_id": null, "stop_name": "Mend\u00e8s France", "stop_url": null, "stop_timezone": null, "wheelchair_boarding": 0}, "geometry": {"type": "Point", "coordinates": [5.5639976, 46.6767692]}}, {"type": "Feature", "properties": {"parent_station": "ARCOM@LONPLDP", "stop_code": "LONPLDP1", "location_type": null, "stop_desc": null, "stop_id": "LONPLDP1", "zone_id": null, "stop_name": "Place des d\u00e9port\u00e9s", "stop_url": null, "stop_timezone": null, "wheelchair_boarding": 0}, "geometry": {"type": "Point", "coordinates": [5.5608249, 46.6764184]}}, {"type": "Feature", "properties": {"parent_station": "ARCOM@LONPLMA", "stop_code": "LONPLMA1", "location_type": null, "stop_desc": null, "stop_id": "LONPLMA1", "zone_id": null, "stop_name": "Place du march\u00e9", "stop_url": null, "stop_timezone": null, "wheelchair_boarding": 0}, "geometry": {"type": "Point", "coordinates": [5.5595671, 46.6740706]}}, {"type": "Feature", "properties": {"parent_station": "ARCOM@LONSTEX", "stop_code": "LONSTEX1", "location_type": null, "stop_desc": null, "stop_id": "LONSTEX1", "zone_id": null, "stop_name": "St Exup\u00e9ry", "stop_url": null, "stop_timezone": null, "wheelchair_boarding": 0}, "geometry": {"type": "Point", "coordinates": [5.5648968, 46.680154]}}, {"type": "Feature", "properties": {"parent_station": "ARCOM@LONTHEA", "stop_code": "LONTHEA1", "location_type": null, "stop_desc": null, "stop_id": "LONTHEA1", "zone_id": null, "stop_name": "Th\u00e9\u00e2tre", "stop_url": null, "stop_timezone": null, "wheelchair_boarding": 0}, "geometry": {"type": "Point", "coordinates": [5.55409, 46.67337]}}, {"type": "Feature", "properties": {"parent_station": "ARCOM@MONCHSO", "stop_code": "MONCHSO1", "location_type": null, "stop_desc": null, "stop_id": "MONCHSO1", "zone_id": null, "stop_name": "Chemin des Sondes", "stop_url": null, "stop_timezone": null, "wheelchair_boarding": 0}, "geometry": {"type": "Point", "coordinates": [5.5340934, 46.6750779]}}, {"type": "Feature", "properties": {"parent_station": "ARCOM@MONESCH", "stop_code": "MONESCH2", "location_type": null, "stop_desc": null, "stop_id": "MONESCH2", "zone_id": null, "stop_name": "Espace Chantrans", "stop_url": null, "stop_timezone": null, "wheelchair_boarding": 0}, "geometry": {"type": "Point", "coordinates": [5.52605, 46.67044]}}, {"type": "Feature", "properties": {"parent_station": "ARCOM@MONSQJO", "stop_code": "MONSQJO1", "location_type": null, "stop_desc": null, "stop_id": "MONSQJO1", "zone_id": null, "stop_name": "Square Journet", "stop_url": null, "stop_timezone": null, "wheelchair_boarding": 0}, "geometry": {"type": "Point", "coordinates": [5.5302526, 46.6751357]}}, {"type": "Feature", "properties": {"parent_station": "ARCOM@PERZI", "stop_code": "PERZI1", "location_type": null, "stop_desc": null, "stop_id": "PERZI1", "zone_id": null, "stop_name": "Z.I. Perrigny", "stop_url": null, "stop_timezone": null, "wheelchair_boarding": 0}, "geometry": {"type": "Point", "coordinates": [5.5822212, 46.68102]}}]}