{"type": "FeatureCollection", "features": [{"type": "Feature", "properties": {"route_id": "5_1", "service_id": "1_1_W", "trip_id": "1937{5_1}-1_1_W", "trip_headsign": null, "trip_short_name": null, "direction_id": 1, "block_id": null, "shape_id": "shape_00", "wheelchair_accessible": 0}, "geometry": {"type": "LineString", "coordinates": [[5.5450142, 46.6682845], [5.5447915, 46.6665863], [5.5421522, 46.6643915], [5.54145, 46.66547], [5.54317, 46.6662], [5.5483607, 46.6680006], [5.5506997, 46.6675158], [5.554039, 46.66846], [5.5593493, 46.6691258], [5.5595829, 46.6676515], [5.5589293, 46.6664747], [5.5639766, 46.6672355], [5.5684209, 46.6647205], [5.56945, 46.6659713], [5.574755, 46.6690449]]}}, {"type": "Feature", "properties": {"parent_station": "ARCOM@LONCLAV", "stop_code": "LONCLAV2", "location_type": null, "stop_desc": null, "stop_id": "LONCLAV2", "zone_id": null, "stop_name": "Clavel", "stop_url": null, "stop_timezone": null, "wheelchair_boarding": 0}, "geometry": {"type": "Point", "coordinates": [5.5450142, 46.6682845]}}, {"type": "Feature", "properties": {"parent_station": "ARCOM@LONDESV", "stop_code": "LONDESV1", "location_type": null, "stop_desc": null, "stop_id": "LONDESV1", "zone_id": null, "stop_name": "Desvernois", "stop_url": null, "stop_timezone": null, "wheelchair_boarding": 0}, "geometry": {"type": "Point", "coordinates": [5.5595829, 46.6676515]}}, {"type": "Feature", "properties": {"parent_station": "ARCOM@LONECHE", "stop_code": "LONECHE2", "location_type": null, "stop_desc": null, "stop_id": "LONECHE2", "zone_id": null, "stop_name": "Echenaud", "stop_url": null, "stop_timezone": null, "wheelchair_boarding": 0}, "geometry": {"type": "Point", "coordinates": [5.56945, 46.6659713]}}, {"type": "Feature", "properties": {"parent_station": "ARCOM@LONGAUT", "stop_code": "LONGAUT2", "location_type": null, "stop_desc": null, "stop_id": "LONGAUT2", "zone_id": null, "stop_name": "Gauthier Villars", "stop_url": null, "stop_timezone": null, "wheelchair_boarding": 0}, "geometry": {"type": "Point", "coordinates": [5.5483607, 46.6680006]}}, {"type": "Feature", "properties": {"parent_station": "ARCOM@LONLACU", "stop_code": "LONLACU1", "location_type": null, "stop_desc": null, "stop_id": "LONLACU1", "zone_id": null, "stop_name": "Lacuzon", "stop_url": null, "stop_timezone": null, "wheelchair_boarding": 0}, "geometry": {"type": "Point", "coordinates": [5.5589293, 46.6664747]}}, {"type": "Feature", "properties": {"parent_station": "ARCOM@LONLAVO", "stop_code": "LONLAVO1", "location_type": null, "stop_desc": null, "stop_id": "LONLAVO1", "zone_id": null, "stop_name": "Lavoisier", "stop_url": null, "stop_timezone": null, "wheelchair_boarding": 0}, "geometry": {"type": "Point", "coordinates": [5.54145, 46.66547]}}, {"type": "Feature", "properties": {"parent_station": "ARCOM@LONMACO", "stop_code": "LONMACO1", "location_type": null, "stop_desc": null, "stop_id": "LONMACO1", "zone_id": null, "stop_name": "Route de Macornay", "stop_url": null, "stop_timezone": null, "wheelchair_boarding": 0}, "geometry": {"type": "Point", "coordinates": [5.5447915, 46.6665863]}}, {"type": "Feature", "properties": {"parent_station": "ARCOM@LONMIDI", "stop_code": "LONMIDI1", "location_type": null, "stop_desc": null, "stop_id": "LONMIDI1", "zone_id": null, "stop_name": "Rue du Midi", "stop_url": null, "stop_timezone": null, "wheelchair_boarding": 0}, "geometry": {"type": "Point", "coordinates": [5.54317, 46.6662]}}, {"type": "Feature", "properties": {"parent_station": "ARCOM@LONMOBA", "stop_code": "LONMOBA2", "location_type": null, "stop_desc": null, "stop_id": "LONMOBA2", "zone_id": null, "stop_name": "Montaigu Bas", "stop_url": null, "stop_timezone": null, "wheelchair_boarding": 0}, "geometry": {"type": "Point", "coordinates": [5.554039, 46.66846]}}, {"type": "Feature", "properties": {"parent_station": "ARCOM@LONPERO", "stop_code": "LONPERO2", "location_type": null, "stop_desc": null, "stop_id": "LONPERO2", "zone_id": null, "stop_name": "Perosey", "stop_url": null, "stop_timezone": null, "wheelchair_boarding": 0}, "geometry": {"type": "Point", "coordinates": [5.5684209, 46.6647205]}}, {"type": "Feature", "properties": {"parent_station": "ARCOM@LONPETI", "stop_code": "LONPETI2", "location_type": null, "stop_desc": null, "stop_id": "LONPETI2", "zone_id": null, "stop_name": "Petits Quarts", "stop_url": null, "stop_timezone": null, "wheelchair_boarding": 0}, "geometry": {"type": "Point", "coordinates": [5.5506997, 46.6675158]}}, {"type": "Feature", "properties": {"parent_station": "ARCOM@LONPOSP", "stop_code": "LONPOSP2", "location_type": null, "stop_desc": null, "stop_id": "LONPOSP2", "zone_id": null, "stop_name": "P\u00f4le sportif", "stop_url": null, "stop_timezone": null, "wheelchair_boarding": 0}, "geometry": {"type": "Point", "coordinates": [5.5639766, 46.6672355]}}, {"type": "Feature", "properties": {"parent_station": "ARCOM@LONROCH", "stop_code": "LONROCH2", "location_type": null, "stop_desc": null, "stop_id": "LONROCH2", "zone_id": null, "stop_name": "Rochettes", "stop_url": null, "stop_timezone": null, "wheelchair_boarding": 0}, "geometry": {"type": "Point", "coordinates": [5.5593493, 46.6691258]}}, {"type": "Feature", "properties": {"parent_station": "ARCOM@LONTOUP", "stop_code": "LONTOUP1", "location_type": null, "stop_desc": null, "stop_id": "LONTOUP1", "zone_id": null, "stop_name": "Toupes", "stop_url": null, "stop_timezone": null, "wheelchair_boarding": 0}, "geometry": {"type": "Point", "coordinates": [5.5421522, 46.6643915]}}, {"type": "Feature", "properties": {"parent_station": "ARCOM@PERPONT", "stop_code": "PERPONT2", "location_type": null, "stop_desc": null, "stop_id": "PERPONT2", "zone_id": null, "stop_name": "Pont Perrigny", "stop_url": null, "stop_timezone": null, "wheelchair_boarding": 0}, "geometry": {"type": "Point", "coordinates": [5.574755, 46.6690449]}}]}