{"type": "FeatureCollection", "features": [{"type": "Feature", "geometry": {"type": "Point", "coordinates": [5.5539987, 46.6797948]}, "properties": {"stop_id": "LONANNE1", "stop_code": "LONANNE1", "stop_name": "Anne Franck", "stop_desc": "n/a", "stop_lat": 46.6797948, "stop_lon": 5.5539987, "zone_id": "n/a", "stop_url": "n/a", "location_type": "n/a", "parent_station": "ARCOM@LONANNE", "stop_timezone": "n/a", "wheelchair_boarding": 0}}, {"type": "Feature", "geometry": {"type": "Point", "coordinates": [5.553913, 46.6798684]}, "properties": {"stop_id": "LONANNE2", "stop_code": "LONANNE2", "stop_name": "Anne Franck", "stop_desc": "n/a", "stop_lat": 46.6798684, "stop_lon": 5.553913, "zone_id": "n/a", "stop_url": "n/a", "location_type": "n/a", "parent_station": "ARCOM@LONANNE", "stop_timezone": "n/a", "wheelchair_boarding": 0}}, {"type": "Feature", "geometry": {"type": "Point", "coordinates": [5.544671, 46.6763036]}, "properties": {"stop_id": "LONCHAM1", "stop_code": "LONCHAM1", "stop_name": "Chambre de M\u00e9tiers", "stop_desc": "n/a", "stop_lat": 46.6763036, "stop_lon": 5.544671, "zone_id": "n/a", "stop_url": "n/a", "location_type": "n/a", "parent_station": "ARCOM@LONCHAM", "stop_timezone": "n/a", "wheelchair_boarding": 0}}, {"type": "Feature", "geometry": {"type": "Point", "coordinates": [5.5449124, 46.6761012]}, "properties": {"stop_id": "LONCHAM2", "stop_code": "LONCHAM2", "stop_name": "Chambre de M\u00e9tiers", "stop_desc": "n/a", "stop_lat": 46.6761012, "stop_lon": 5.5449124, "zone_id": "n/a", "stop_url": "n/a", "location_type": "n/a", "parent_station": "ARCOM@LONCHAM", "stop_timezone": "n/a", "wheelchair_boarding": 0}}, {"type": "Feature", "geometry": {"type": "Point", "coordinates": [5.55689, 46.67399]}, "properties": {"stop_id": "LONCHEV1", "stop_code": "LONCHEV1", "stop_name": "Chevalerie", "stop_desc": "n/a", "stop_lat": 46.67399, "stop_lon": 5.55689, "zone_id": "n/a", "stop_url": "n/a", "location_type": "n/a", "parent_station": "ARCOM@LONCHEV", "stop_timezone": "n/a", "wheelchair_boarding": 0}}, {"type": "Feature", "geometry": {"type": "Point", "coordinates": [5.5569776, 46.6739579]}, "properties": {"stop_id": "LONCHEV2", "stop_code": "LONCHEV2", "stop_name": "Chevalerie", "stop_desc": "n/a", "stop_lat": 46.6739579, "stop_lon": 5.5569776, "zone_id": "n/a", "stop_url": "n/a", "location_type": "n/a", "parent_station": "ARCOM@LONCHEV", "stop_timezone": "n/a", "wheelchair_boarding": 0}}, {"type": "Feature", "geometry": {"type": "Point", "coordinates": [5.55767, 46.67308]}, "properties": {"stop_id": "LONCINE1", "stop_code": "LONCINE1", "stop_name": "Cin\u00e9mas M\u00e9diath\u00e8que", "stop_desc": "n/a", "stop_lat": 46.67308, "stop_lon": 5.55767, "zone_id": "n/a", "stop_url": "n/a", "location_type": "n/a", "parent_station": "ARCOM@LONCINE", "stop_timezone": "n/a", "wheelchair_boarding": 0}}, {"type": "Feature", "geometry": {"type": "Point", "coordinates": [5.5525218, 46.6767172]}, "properties": {"stop_id": "LONHOPI1", "stop_code": "LONHOPI1", "stop_name": "H\u00f4pital", "stop_desc": "n/a", "stop_lat": 46.6767172, "stop_lon": 5.5525218, "zone_id": "n/a", "stop_url": "n/a", "location_type": "n/a", "parent_station": "ARCOM@LONHOPI", "stop_timezone": "n/a", "wheelchair_boarding": 0}}, {"type": "Feature", "geometry": {"type": "Point", "coordinates": [5.5525218, 46.6767172]}, "properties": {"stop_id": "LONHOPI2", "stop_code": "LONHOPI2", "stop_name": "H\u00f4pital", "stop_desc": "n/a", "stop_lat": 46.6767172, "stop_lon": 5.5525218, "zone_id": "n/a", "stop_url": "n/a", "location_type": "n/a", "parent_station": "ARCOM@LONHOPI", "stop_timezone": "n/a", "wheelchair_boarding": 0}}, {"type": "Feature", "geometry": {"type": "Point", "coordinates": [5.5512512, 46.6795208]}, "properties": {"stop_id": "LONJEAN1", "stop_code": "LONJEAN1", "stop_name": "Jean Michel", "stop_desc": "n/a", "stop_lat": 46.6795208, "stop_lon": 5.5512512, "zone_id": "n/a", "stop_url": "n/a", "location_type": "n/a", "parent_station": "ARCOM@LONJEAN", "stop_timezone": "n/a", "wheelchair_boarding": 0}}, {"type": "Feature", "geometry": {"type": "Point", "coordinates": [5.5511815, 46.6794582]}, "properties": {"stop_id": "LONJEAN2", "stop_code": "LONJEAN2", "stop_name": "Jean Michel", "stop_desc": "n/a", "stop_lat": 46.6794582, "stop_lon": 5.5511815, "zone_id": "n/a", "stop_url": "n/a", "location_type": "n/a", "parent_station": "ARCOM@LONJEAN", "stop_timezone": "n/a", "wheelchair_boarding": 0}}, {"type": "Feature", "geometry": {"type": "Point", "coordinates": [5.55063, 46.6734]}, "properties": {"stop_id": "LONMARR1", "stop_code": "LONMARR1", "stop_name": "Marronniers", "stop_desc": "n/a", "stop_lat": 46.6734, "stop_lon": 5.55063, "zone_id": "n/a", "stop_url": "n/a", "location_type": "n/a", "parent_station": "ARCOM@LONMARR", "stop_timezone": "n/a", "wheelchair_boarding": 0}}, {"type": "Feature", "geometry": {"type": "Point", "coordinates": [5.5556124, 46.6786915]}, "properties": {"stop_id": "LONPALA1", "stop_code": "LONPALA1", "stop_name": "Palais de Justice", "stop_desc": "n/a", "stop_lat": 46.6786915, "stop_lon": 5.5556124, "zone_id": "n/a", "stop_url": "n/a", "location_type": "n/a", "parent_station": "ARCOM@LONPALA", "stop_timezone": "n/a", "wheelchair_boarding": 0}}, {"type": "Feature", "geometry": {"type": "Point", "coordinates": [5.55573, 46.67872]}, "properties": {"stop_id": "LONPALA2", "stop_code": "LONPALA2", "stop_name": "Palais de Justice", "stop_desc": "n/a", "stop_lat": 46.67872, "stop_lon": 5.55573, "zone_id": "n/a", "stop_url": "n/a", "location_type": "n/a", "parent_station": "ARCOM@LONPALA", "stop_timezone": "n/a", "wheelchair_boarding": 0}}, {"type": "Feature", "geometry": {"type": "Point", "coordinates": [5.55143, 46.67302]}, "properties": {"stop_id": "LONPOST1", "stop_code": "LONPOST1", "stop_name": "Poste", "stop_desc": "n/a", "stop_lat": 46.67302, "stop_lon": 5.55143, "zone_id": "n/a", "stop_url": "n/a", "location_type": "n/a", "parent_station": "ARCOM@LONPOST", "stop_timezone": "n/a", "wheelchair_boarding": 0}}, {"type": "Feature", "geometry": {"type": "Point", "coordinates": [5.5475056, 46.6727445]}, "properties": {"stop_id": "LONRODL2", "stop_code": "LONRODL2", "stop_name": "Rouget de Lisle", "stop_desc": "n/a", "stop_lat": 46.6727445, "stop_lon": 5.5475056, "zone_id": "n/a", "stop_url": "n/a", "location_type": "n/a", "parent_station": "ARCOM@LONRODL", "stop_timezone": "n/a", "wheelchair_boarding": 0}}, {"type": "Feature", "geometry": {"type": "Point", "coordinates": [5.55409, 46.67337]}, "properties": {"stop_id": "LONTHEA1", "stop_code": "LONTHEA1", "stop_name": "Th\u00e9\u00e2tre", "stop_desc": "n/a", "stop_lat": 46.67337, "stop_lon": 5.55409, "zone_id": "n/a", "stop_url": "n/a", "location_type": "n/a", "parent_station": "ARCOM@LONTHEA", "stop_timezone": "n/a", "wheelchair_boarding": 0}}, {"type": "Feature", "geometry": {"type": "Point", "coordinates": [5.5531055, 46.672764]}, "properties": {"stop_id": "LONTHUR1", "stop_code": "LONTHUR1", "stop_name": "Thurel", "stop_desc": "n/a", "stop_lat": 46.672764, "stop_lon": 5.5531055, "zone_id": "n/a", "stop_url": "n/a", "location_type": "n/a", "parent_station": "ARCOM@LONTHUR", "stop_timezone": "n/a", "wheelchair_boarding": 0}}, {"type": "Feature", "geometry": {"type": "Point", "coordinates": [5.5563476, 46.6775047]}, "properties": {"stop_id": "LONVACH1", "stop_code": "LONVACH1", "stop_name": "Maison Vache qui rit", "stop_desc": "n/a", "stop_lat": 46.6775047, "stop_lon": 5.5563476, "zone_id": "n/a", "stop_url": "n/a", "location_type": "n/a", "parent_station": "ARCOM@LONVACH", "stop_timezone": "n/a", "wheelchair_boarding": 0}}, {"type": "Feature", "geometry": {"type": "Point", "coordinates": [5.5565097, 46.6775621]}, "properties": {"stop_id": "LONVACH2", "stop_code": "LONVACH2", "stop_name": "Maison Vache qui rit", "stop_desc": "n/a", "stop_lat": 46.6775621, "stop_lon": 5.5565097, "zone_id": "n/a", "stop_url": "n/a", "location_type": "n/a", "parent_station": "ARCOM@LONVACH", "stop_timezone": "n/a", "wheelchair_boarding": 0}}, {"type": "Feature", "geometry": {"type": "Point", "coordinates": [5.5350087, 46.6811518]}, "properties": {"stop_id": "MONCHAR1", "stop_code": "MONCHAR1", "stop_name": "Chardonnerets", "stop_desc": "n/a", "stop_lat": 46.6811518, "stop_lon": 5.5350087, "zone_id": "n/a", "stop_url": "n/a", "location_type": "n/a", "parent_station": "ARCOM@MONCHAR", "stop_timezone": "n/a", "wheelchair_boarding": 0}}, {"type": "Feature", "geometry": {"type": "Point", "coordinates": [5.5349349, 46.6808445]}, "properties": {"stop_id": "MONCHAR2", "stop_code": "MONCHAR2", "stop_name": "Chardonnerets", "stop_desc": "n/a", "stop_lat": 46.6808445, "stop_lon": 5.5349349, "zone_id": "n/a", "stop_url": "n/a", "location_type": "n/a", "parent_station": "ARCOM@MONCHAR", "stop_timezone": "n/a", "wheelchair_boarding": 0}}, {"type": "Feature", "geometry": {"type": "Point", "coordinates": [5.52614, 46.67404]}, "properties": {"stop_id": "MONCLUS1", "stop_code": "MONCLUS1", "stop_name": "Les Clusiaux", "stop_desc": "n/a", "stop_lat": 46.67404, "stop_lon": 5.52614, "zone_id": "n/a", "stop_url": "n/a", "location_type": "n/a", "parent_station": "ARCOM@MONCLUS", "stop_timezone": "n/a", "wheelchair_boarding": 0}}, {"type": "Feature", "geometry": {"type": "Point", "coordinates": [5.5262482, 46.6739869]}, "properties": {"stop_id": "MONCLUS2", "stop_code": "MONCLUS2", "stop_name": "Les Clusiaux", "stop_desc": "n/a", "stop_lat": 46.6739869, "stop_lon": 5.5262482, "zone_id": "n/a", "stop_url": "n/a", "location_type": "n/a", "parent_station": "ARCOM@MONCLUS", "stop_timezone": "n/a", "wheelchair_boarding": 0}}, {"type": "Feature", "geometry": {"type": "Point", "coordinates": [5.53995, 46.67927]}, "properties": {"stop_id": "MONENBO1", "stop_code": "MONENBO1", "stop_name": "En Bouland", "stop_desc": "n/a", "stop_lat": 46.67927, "stop_lon": 5.53995, "zone_id": "n/a", "stop_url": "n/a", "location_type": "n/a", "parent_station": "ARCOM@MONENBO", "stop_timezone": "n/a", "wheelchair_boarding": 0}}, {"type": "Feature", "geometry": {"type": "Point", "coordinates": [5.5400251, 46.6791964]}, "properties": {"stop_id": "MONENBO2", "stop_code": "MONENBO2", "stop_name": "En Bouland", "stop_desc": "n/a", "stop_lat": 46.6791964, "stop_lon": 5.5400251, "zone_id": "n/a", "stop_url": "n/a", "location_type": "n/a", "parent_station": "ARCOM@MONENBO", "stop_timezone": "n/a", "wheelchair_boarding": 0}}, {"type": "Feature", "geometry": {"type": "Point", "coordinates": [5.52442, 46.6753853]}, "properties": {"stop_id": "MONMATH1", "stop_code": "MONMATH1", "stop_name": "Mathy", "stop_desc": "n/a", "stop_lat": 46.6753853, "stop_lon": 5.52442, "zone_id": "n/a", "stop_url": "n/a", "location_type": "n/a", "parent_station": "ARCOM@MONMATH", "stop_timezone": "n/a", "wheelchair_boarding": 0}}, {"type": "Feature", "geometry": {"type": "Point", "coordinates": [5.5243917, 46.6752885]}, "properties": {"stop_id": "MONMATH2", "stop_code": "MONMATH2", "stop_name": "Mathy", "stop_desc": "n/a", "stop_lat": 46.6752885, "stop_lon": 5.5243917, "zone_id": "n/a", "stop_url": "n/a", "location_type": "n/a", "parent_station": "ARCOM@MONMATH", "stop_timezone": "n/a", "wheelchair_boarding": 0}}, {"type": "Feature", "geometry": {"type": "Point", "coordinates": [5.53033, 46.6770595]}, "properties": {"stop_id": "MONMONT1", "stop_code": "MONMONT1", "stop_name": "Mairie Montmorot", "stop_desc": "n/a", "stop_lat": 46.6770595, "stop_lon": 5.53033, "zone_id": "n/a", "stop_url": "n/a", "location_type": "n/a", "parent_station": "ARCOM@MONMONT", "stop_timezone": "n/a", "wheelchair_boarding": 0}}, {"type": "Feature", "geometry": {"type": "Point", "coordinates": [5.53033, 46.6771]}, "properties": {"stop_id": "MONMONT2", "stop_code": "MONMONT2", "stop_name": "Mairie Montmorot", "stop_desc": "n/a", "stop_lat": 46.6771, "stop_lon": 5.53033, "zone_id": "n/a", "stop_url": "n/a", "location_type": "n/a", "parent_station": "ARCOM@MONMONT", "stop_timezone": "n/a", "wheelchair_boarding": 0}}, {"type": "Feature", "geometry": {"type": "Point", "coordinates": [5.53229, 46.67922]}, "properties": {"stop_id": "MONPASS1", "stop_code": "MONPASS1", "stop_name": "Passaquay", "stop_desc": "n/a", "stop_lat": 46.67922, "stop_lon": 5.53229, "zone_id": "n/a", "stop_url": "n/a", "location_type": "n/a", "parent_station": "ARCOM@MONPASS", "stop_timezone": "n/a", "wheelchair_boarding": 0}}, {"type": "Feature", "geometry": {"type": "Point", "coordinates": [5.53229, 46.67922]}, "properties": {"stop_id": "MONPASS2", "stop_code": "MONPASS2", "stop_name": "Passaquay", "stop_desc": "n/a", "stop_lat": 46.67922, "stop_lon": 5.53229, "zone_id": "n/a", "stop_url": "n/a", "location_type": "n/a", "parent_station": "ARCOM@MONPASS", "stop_timezone": "n/a", "wheelchair_boarding": 0}}, {"type": "Feature", "geometry": {"type": "Point", "coordinates": [5.5368966, 46.6835921]}, "properties": {"stop_id": "MONSAVA1", "stop_code": "MONSAVA1", "stop_name": "Savagna", "stop_desc": "n/a", "stop_lat": 46.6835921, "stop_lon": 5.5368966, "zone_id": "n/a", "stop_url": "n/a", "location_type": "n/a", "parent_station": "ARCOM@MONSAVA", "stop_timezone": "n/a", "wheelchair_boarding": 0}}, {"type": "Feature", "geometry": {"type": "Point", "coordinates": [5.5367571, 46.6836068]}, "properties": {"stop_id": "MONSAVA2", "stop_code": "MONSAVA2", "stop_name": "Savagna", "stop_desc": "n/a", "stop_lat": 46.6836068, "stop_lon": 5.5367571, "zone_id": "n/a", "stop_url": "n/a", "location_type": "n/a", "parent_station": "ARCOM@MONSAVA", "stop_timezone": "n/a", "wheelchair_boarding": 0}}, {"type": "Feature", "geometry": {"type": "Point", "coordinates": [5.5302526, 46.6751357]}, "properties": {"stop_id": "MONSQJO1", "stop_code": "MONSQJO1", "stop_name": "Square Journet", "stop_desc": "n/a", "stop_lat": 46.6751357, "stop_lon": 5.5302526, "zone_id": "n/a", "stop_url": "n/a", "location_type": "n/a", "parent_station": "ARCOM@MONSQJO", "stop_timezone": "n/a", "wheelchair_boarding": 0}}, {"type": "Feature", "geometry": {"type": "Point", "coordinates": [5.53037, 46.67529]}, "properties": {"stop_id": "MONSQJO2", "stop_code": "MONSQJO2", "stop_name": "Square Journet", "stop_desc": "n/a", "stop_lat": 46.67529, "stop_lon": 5.53037, "zone_id": "n/a", "stop_url": "n/a", "location_type": "n/a", "parent_station": "ARCOM@MONSQJO", "stop_timezone": "n/a", "wheelchair_boarding": 0}}]}