{"type": "FeatureCollection", "features": [{"type": "Feature", "geometry": {"type": "Point", "coordinates": [5.5790658, 46.6832163]}, "properties": {"stop_id": "LONAFPA1", "stop_code": "LONAFPA1", "stop_name": "Restaurant Municipal", "stop_desc": "n/a", "stop_lat": 46.6832163, "stop_lon": 5.5790658, "zone_id": "n/a", "stop_url": "n/a", "location_type": "n/a", "parent_station": "ARCOM@LONAFPA", "stop_timezone": "n/a", "wheelchair_boarding": 0}}, {"type": "Feature", "geometry": {"type": "Point", "coordinates": [5.5785888, 46.6831766]}, "properties": {"stop_id": "LONAFPA2", "stop_code": "LONAFPA2", "stop_name": "Restaurant Municipal", "stop_desc": "n/a", "stop_lat": 46.6831766, "stop_lon": 5.5785888, "zone_id": "n/a", "stop_url": "n/a", "location_type": "n/a", "parent_station": "ARCOM@LONAFPA", "stop_timezone": "n/a", "wheelchair_boarding": 0}}, {"type": "Feature", "geometry": {"type": "Point", "coordinates": [5.5664357, 46.6835638]}, "properties": {"stop_id": "LONAQUA1", "stop_code": "LONAQUA1", "stop_name": "Aqua'ReL - Camping", "stop_desc": "n/a", "stop_lat": 46.6835638, "stop_lon": 5.5664357, "zone_id": "n/a", "stop_url": "n/a", "location_type": "n/a", "parent_station": "ARCOM@LONAQUA", "stop_timezone": "n/a", "wheelchair_boarding": 0}}, {"type": "Feature", "geometry": {"type": "Point", "coordinates": [5.5664606, 46.6833714]}, "properties": {"stop_id": "LONAQUA2", "stop_code": "LONAQUA2", "stop_name": "Aqua'ReL - Camping", "stop_desc": "n/a", "stop_lat": 46.6833714, "stop_lon": 5.5664606, "zone_id": "n/a", "stop_url": "n/a", "location_type": "n/a", "parent_station": "ARCOM@LONAQUA", "stop_timezone": "n/a", "wheelchair_boarding": 0}}, {"type": "Feature", "geometry": {"type": "Point", "coordinates": [5.5608615, 46.6706868]}, "properties": {"stop_id": "LONAVST1", "stop_code": "LONAVST1", "stop_name": "Av. du stade", "stop_desc": "n/a", "stop_lat": 46.6706868, "stop_lon": 5.5608615, "zone_id": "n/a", "stop_url": "n/a", "location_type": "n/a", "parent_station": "ARCOM@LONAVST", "stop_timezone": "n/a", "wheelchair_boarding": 0}}, {"type": "Feature", "geometry": {"type": "Point", "coordinates": [5.5608668, 46.6706206]}, "properties": {"stop_id": "LONAVST2", "stop_code": "LONAVST2", "stop_name": "Av. du stade", "stop_desc": "n/a", "stop_lat": 46.6706206, "stop_lon": 5.5608668, "zone_id": "n/a", "stop_url": "n/a", "location_type": "n/a", "parent_station": "ARCOM@LONAVST", "stop_timezone": "n/a", "wheelchair_boarding": 0}}, {"type": "Feature", "geometry": {"type": "Point", "coordinates": [5.5762748, 46.6831915]}, "properties": {"stop_id": "LONCAMU1", "stop_code": "LONCAMU1", "stop_name": "Camuset", "stop_desc": "n/a", "stop_lat": 46.6831915, "stop_lon": 5.5762748, "zone_id": "n/a", "stop_url": "n/a", "location_type": "n/a", "parent_station": "ARCOM@LONCAMU", "stop_timezone": "n/a", "wheelchair_boarding": 0}}, {"type": "Feature", "geometry": {"type": "Point", "coordinates": [5.5762962, 46.6829007]}, "properties": {"stop_id": "LONCAMU2", "stop_code": "LONCAMU2", "stop_name": "Camuset", "stop_desc": "n/a", "stop_lat": 46.6829007, "stop_lon": 5.5762962, "zone_id": "n/a", "stop_url": "n/a", "location_type": "n/a", "parent_station": "ARCOM@LONCAMU", "stop_timezone": "n/a", "wheelchair_boarding": 0}}, {"type": "Feature", "geometry": {"type": "Point", "coordinates": [5.55767, 46.67308]}, "properties": {"stop_id": "LONCINE1", "stop_code": "LONCINE1", "stop_name": "Cin\u00e9mas M\u00e9diath\u00e8que", "stop_desc": "n/a", "stop_lat": 46.67308, "stop_lon": 5.55767, "zone_id": "n/a", "stop_url": "n/a", "location_type": "n/a", "parent_station": "ARCOM@LONCINE", "stop_timezone": "n/a", "wheelchair_boarding": 0}}, {"type": "Feature", "geometry": {"type": "Point", "coordinates": [5.5465549, 46.6750847]}, "properties": {"stop_id": "LONCOLB1", "stop_code": "LONCOLB1", "stop_name": "Colbert", "stop_desc": "n/a", "stop_lat": 46.6750847, "stop_lon": 5.5465549, "zone_id": "n/a", "stop_url": "n/a", "location_type": "n/a", "parent_station": "ARCOM@LONCOLB", "stop_timezone": "n/a", "wheelchair_boarding": 0}}, {"type": "Feature", "geometry": {"type": "Point", "coordinates": [5.5465655, 46.6749598]}, "properties": {"stop_id": "LONCOLB2", "stop_code": "LONCOLB2", "stop_name": "Colbert", "stop_desc": "n/a", "stop_lat": 46.6749598, "stop_lon": 5.5465655, "zone_id": "n/a", "stop_url": "n/a", "location_type": "n/a", "parent_station": "ARCOM@LONCOLB", "stop_timezone": "n/a", "wheelchair_boarding": 0}}, {"type": "Feature", "geometry": {"type": "Point", "coordinates": [5.5648798, 46.6776345]}, "properties": {"stop_id": "LONDUNA1", "stop_code": "LONDUNA1", "stop_name": "Dunant", "stop_desc": "n/a", "stop_lat": 46.6776345, "stop_lon": 5.5648798, "zone_id": "n/a", "stop_url": "n/a", "location_type": "n/a", "parent_station": "ARCOM@LONDUNA", "stop_timezone": "n/a", "wheelchair_boarding": 0}}, {"type": "Feature", "geometry": {"type": "Point", "coordinates": [5.5649576, 46.6776437]}, "properties": {"stop_id": "LONDUNA2", "stop_code": "LONDUNA2", "stop_name": "Dunant", "stop_desc": "n/a", "stop_lat": 46.6776437, "stop_lon": 5.5649576, "zone_id": "n/a", "stop_url": "n/a", "location_type": "n/a", "parent_station": "ARCOM@LONDUNA", "stop_timezone": "n/a", "wheelchair_boarding": 0}}, {"type": "Feature", "geometry": {"type": "Point", "coordinates": [5.57026, 46.66758]}, "properties": {"stop_id": "LONECHE1", "stop_code": "LONECHE1", "stop_name": "Echenaud", "stop_desc": "n/a", "stop_lat": 46.66758, "stop_lon": 5.57026, "zone_id": "n/a", "stop_url": "n/a", "location_type": "n/a", "parent_station": "ARCOM@LONECHE", "stop_timezone": "n/a", "wheelchair_boarding": 0}}, {"type": "Feature", "geometry": {"type": "Point", "coordinates": [5.56945, 46.6659713]}, "properties": {"stop_id": "LONECHE2", "stop_code": "LONECHE2", "stop_name": "Echenaud", "stop_desc": "n/a", "stop_lat": 46.6659713, "stop_lon": 5.56945, "zone_id": "n/a", "stop_url": "n/a", "location_type": "n/a", "parent_station": "ARCOM@LONECHE", "stop_timezone": "n/a", "wheelchair_boarding": 0}}, {"type": "Feature", "geometry": {"type": "Point", "coordinates": [5.53851, 46.6751968]}, "properties": {"stop_id": "LONJUPA1", "stop_code": "LONJUPA1", "stop_name": "Juraparc", "stop_desc": "n/a", "stop_lat": 46.6751968, "stop_lon": 5.53851, "zone_id": "n/a", "stop_url": "n/a", "location_type": "n/a", "parent_station": "ARCOM@LONJUPA", "stop_timezone": "n/a", "wheelchair_boarding": 0}}, {"type": "Feature", "geometry": {"type": "Point", "coordinates": [5.538569, 46.675149]}, "properties": {"stop_id": "LONJUPA2", "stop_code": "LONJUPA2", "stop_name": "Juraparc", "stop_desc": "n/a", "stop_lat": 46.675149, "stop_lon": 5.538569, "zone_id": "n/a", "stop_url": "n/a", "location_type": "n/a", "parent_station": "ARCOM@LONJUPA", "stop_timezone": "n/a", "wheelchair_boarding": 0}}, {"type": "Feature", "geometry": {"type": "Point", "coordinates": [5.5590636, 46.6718042]}, "properties": {"stop_id": "LONMAIR1", "stop_code": "LONMAIR1", "stop_name": "Mairie - ECLA", "stop_desc": "n/a", "stop_lat": 46.6718042, "stop_lon": 5.5590636, "zone_id": "n/a", "stop_url": "n/a", "location_type": "n/a", "parent_station": "ARCOM@LONMAIR", "stop_timezone": "n/a", "wheelchair_boarding": 0}}, {"type": "Feature", "geometry": {"type": "Point", "coordinates": [5.5588813, 46.6717453]}, "properties": {"stop_id": "LONMAIR2", "stop_code": "LONMAIR2", "stop_name": "Mairie - ECLA", "stop_desc": "n/a", "stop_lat": 46.6717453, "stop_lon": 5.5588813, "zone_id": "n/a", "stop_url": "n/a", "location_type": "n/a", "parent_station": "ARCOM@LONMAIR", "stop_timezone": "n/a", "wheelchair_boarding": 0}}, {"type": "Feature", "geometry": {"type": "Point", "coordinates": [5.55063, 46.6734]}, "properties": {"stop_id": "LONMARR1", "stop_code": "LONMARR1", "stop_name": "Marronniers", "stop_desc": "n/a", "stop_lat": 46.6734, "stop_lon": 5.55063, "zone_id": "n/a", "stop_url": "n/a", "location_type": "n/a", "parent_station": "ARCOM@LONMARR", "stop_timezone": "n/a", "wheelchair_boarding": 0}}, {"type": "Feature", "geometry": {"type": "Point", "coordinates": [5.55746, 46.67275]}, "properties": {"stop_id": "LONMARS2", "stop_code": "LONMARS2", "stop_name": "Marseillaise", "stop_desc": "n/a", "stop_lat": 46.67275, "stop_lon": 5.55746, "zone_id": "n/a", "stop_url": "n/a", "location_type": "n/a", "parent_station": "ARCOM@LONMARS", "stop_timezone": "n/a", "wheelchair_boarding": 0}}, {"type": "Feature", "geometry": {"type": "Point", "coordinates": [5.5639976, 46.6767692]}, "properties": {"stop_id": "LONMEND1", "stop_code": "LONMEND1", "stop_name": "Mend\u00e8s France", "stop_desc": "n/a", "stop_lat": 46.6767692, "stop_lon": 5.5639976, "zone_id": "n/a", "stop_url": "n/a", "location_type": "n/a", "parent_station": "ARCOM@LONMEND", "stop_timezone": "n/a", "wheelchair_boarding": 0}}, {"type": "Feature", "geometry": {"type": "Point", "coordinates": [5.5640432, 46.6767177]}, "properties": {"stop_id": "LONMEND2", "stop_code": "LONMEND2", "stop_name": "Mend\u00e8s France", "stop_desc": "n/a", "stop_lat": 46.6767177, "stop_lon": 5.5640432, "zone_id": "n/a", "stop_url": "n/a", "location_type": "n/a", "parent_station": "ARCOM@LONMEND", "stop_timezone": "n/a", "wheelchair_boarding": 0}}, {"type": "Feature", "geometry": {"type": "Point", "coordinates": [5.56826, 46.6647868]}, "properties": {"stop_id": "LONPERO1", "stop_code": "LONPERO1", "stop_name": "Perosey", "stop_desc": "n/a", "stop_lat": 46.6647868, "stop_lon": 5.56826, "zone_id": "n/a", "stop_url": "n/a", "location_type": "n/a", "parent_station": "ARCOM@LONPERO", "stop_timezone": "n/a", "wheelchair_boarding": 0}}, {"type": "Feature", "geometry": {"type": "Point", "coordinates": [5.5684209, 46.6647205]}, "properties": {"stop_id": "LONPERO2", "stop_code": "LONPERO2", "stop_name": "Perosey", "stop_desc": "n/a", "stop_lat": 46.6647205, "stop_lon": 5.5684209, "zone_id": "n/a", "stop_url": "n/a", "location_type": "n/a", "parent_station": "ARCOM@LONPERO", "stop_timezone": "n/a", "wheelchair_boarding": 0}}, {"type": "Feature", "geometry": {"type": "Point", "coordinates": [5.5608249, 46.6764184]}, "properties": {"stop_id": "LONPLDP1", "stop_code": "LONPLDP1", "stop_name": "Place des d\u00e9port\u00e9s", "stop_desc": "n/a", "stop_lat": 46.6764184, "stop_lon": 5.5608249, "zone_id": "n/a", "stop_url": "n/a", "location_type": "n/a", "parent_station": "ARCOM@LONPLDP", "stop_timezone": "n/a", "wheelchair_boarding": 0}}, {"type": "Feature", "geometry": {"type": "Point", "coordinates": [5.5609912, 46.6763687]}, "properties": {"stop_id": "LONPLDP2", "stop_code": "LONPLDP2", "stop_name": "Place des d\u00e9port\u00e9s", "stop_desc": "n/a", "stop_lat": 46.6763687, "stop_lon": 5.5609912, "zone_id": "n/a", "stop_url": "n/a", "location_type": "n/a", "parent_station": "ARCOM@LONPLDP", "stop_timezone": "n/a", "wheelchair_boarding": 0}}, {"type": "Feature", "geometry": {"type": "Point", "coordinates": [5.5595671, 46.6740706]}, "properties": {"stop_id": "LONPLMA1", "stop_code": "LONPLMA1", "stop_name": "Place du march\u00e9", "stop_desc": "n/a", "stop_lat": 46.6740706, "stop_lon": 5.5595671, "zone_id": "n/a", "stop_url": "n/a", "location_type": "n/a", "parent_station": "ARCOM@LONPLMA", "stop_timezone": "n/a", "wheelchair_boarding": 0}}, {"type": "Feature", "geometry": {"type": "Point", "coordinates": [5.5596899, 46.6736651]}, "properties": {"stop_id": "LONPLMA2", "stop_code": "LONPLMA2", "stop_name": "Place du march\u00e9", "stop_desc": "n/a", "stop_lat": 46.6736651, "stop_lon": 5.5596899, "zone_id": "n/a", "stop_url": "n/a", "location_type": "n/a", "parent_station": "ARCOM@LONPLMA", "stop_timezone": "n/a", "wheelchair_boarding": 0}}, {"type": "Feature", "geometry": {"type": "Point", "coordinates": [5.5631907, 46.6682607]}, "properties": {"stop_id": "LONPOSP1", "stop_code": "LONPOSP1", "stop_name": "P\u00f4le sportif", "stop_desc": "n/a", "stop_lat": 46.6682607, "stop_lon": 5.5631907, "zone_id": "n/a", "stop_url": "n/a", "location_type": "n/a", "parent_station": "ARCOM@LONPOSP", "stop_timezone": "n/a", "wheelchair_boarding": 0}}, {"type": "Feature", "geometry": {"type": "Point", "coordinates": [5.5639766, 46.6672355]}, "properties": {"stop_id": "LONPOSP2", "stop_code": "LONPOSP2", "stop_name": "P\u00f4le sportif", "stop_desc": "n/a", "stop_lat": 46.6672355, "stop_lon": 5.5639766, "zone_id": "n/a", "stop_url": "n/a", "location_type": "n/a", "parent_station": "ARCOM@LONPOSP", "stop_timezone": "n/a", "wheelchair_boarding": 0}}, {"type": "Feature", "geometry": {"type": "Point", "coordinates": [5.5480366, 46.6727089]}, "properties": {"stop_id": "LONRODL1", "stop_code": "LONRODL1", "stop_name": "Rouget de Lisle", "stop_desc": "n/a", "stop_lat": 46.6727089, "stop_lon": 5.5480366, "zone_id": "n/a", "stop_url": "n/a", "location_type": "n/a", "parent_station": "ARCOM@LONRODL", "stop_timezone": "n/a", "wheelchair_boarding": 0}}, {"type": "Feature", "geometry": {"type": "Point", "coordinates": [5.5475056, 46.6727445]}, "properties": {"stop_id": "LONRODL2", "stop_code": "LONRODL2", "stop_name": "Rouget de Lisle", "stop_desc": "n/a", "stop_lat": 46.6727445, "stop_lon": 5.5475056, "zone_id": "n/a", "stop_url": "n/a", "location_type": "n/a", "parent_station": "ARCOM@LONRODL", "stop_timezone": "n/a", "wheelchair_boarding": 0}}, {"type": "Feature", "geometry": {"type": "Point", "coordinates": [5.5648968, 46.680154]}, "properties": {"stop_id": "LONSTEX1", "stop_code": "LONSTEX1", "stop_name": "St Exup\u00e9ry", "stop_desc": "n/a", "stop_lat": 46.680154, "stop_lon": 5.5648968, "zone_id": "n/a", "stop_url": "n/a", "location_type": "n/a", "parent_station": "ARCOM@LONSTEX", "stop_timezone": "n/a", "wheelchair_boarding": 0}}, {"type": "Feature", "geometry": {"type": "Point", "coordinates": [5.5648968, 46.680154]}, "properties": {"stop_id": "LONSTEX2", "stop_code": "LONSTEX2", "stop_name": "St Exup\u00e9ry", "stop_desc": "n/a", "stop_lat": 46.680154, "stop_lon": 5.5648968, "zone_id": "n/a", "stop_url": "n/a", "location_type": "n/a", "parent_station": "ARCOM@LONSTEX", "stop_timezone": "n/a", "wheelchair_boarding": 0}}, {"type": "Feature", "geometry": {"type": "Point", "coordinates": [5.5458489, 46.6740053]}, "properties": {"stop_id": "LONSULL1", "stop_code": "LONSULL1", "stop_name": "Sully", "stop_desc": "n/a", "stop_lat": 46.6740053, "stop_lon": 5.5458489, "zone_id": "n/a", "stop_url": "n/a", "location_type": "n/a", "parent_station": "ARCOM@LONSULL", "stop_timezone": "n/a", "wheelchair_boarding": 0}}, {"type": "Feature", "geometry": {"type": "Point", "coordinates": [5.5458006, 46.6737035]}, "properties": {"stop_id": "LONSULL2", "stop_code": "LONSULL2", "stop_name": "Sully", "stop_desc": "n/a", "stop_lat": 46.6737035, "stop_lon": 5.5458006, "zone_id": "n/a", "stop_url": "n/a", "location_type": "n/a", "parent_station": "ARCOM@LONSULL", "stop_timezone": "n/a", "wheelchair_boarding": 0}}, {"type": "Feature", "geometry": {"type": "Point", "coordinates": [5.55409, 46.67337]}, "properties": {"stop_id": "LONTHEA1", "stop_code": "LONTHEA1", "stop_name": "Th\u00e9\u00e2tre", "stop_desc": "n/a", "stop_lat": 46.67337, "stop_lon": 5.55409, "zone_id": "n/a", "stop_url": "n/a", "location_type": "n/a", "parent_station": "ARCOM@LONTHEA", "stop_timezone": "n/a", "wheelchair_boarding": 0}}, {"type": "Feature", "geometry": {"type": "Point", "coordinates": [5.5531055, 46.672764]}, "properties": {"stop_id": "LONTHUR1", "stop_code": "LONTHUR1", "stop_name": "Thurel", "stop_desc": "n/a", "stop_lat": 46.672764, "stop_lon": 5.5531055, "zone_id": "n/a", "stop_url": "n/a", "location_type": "n/a", "parent_station": "ARCOM@LONTHUR", "stop_timezone": "n/a", "wheelchair_boarding": 0}}, {"type": "Feature", "geometry": {"type": "Point", "coordinates": [5.5340934, 46.6750779]}, "properties": {"stop_id": "MONCHSO1", "stop_code": "MONCHSO1", "stop_name": "Chemin des Sondes", "stop_desc": "n/a", "stop_lat": 46.6750779, "stop_lon": 5.5340934, "zone_id": "n/a", "stop_url": "n/a", "location_type": "n/a", "parent_station": "ARCOM@MONCHSO", "stop_timezone": "n/a", "wheelchair_boarding": 0}}, {"type": "Feature", "geometry": {"type": "Point", "coordinates": [5.5341793, 46.6750522]}, "properties": {"stop_id": "MONCHSO2", "stop_code": "MONCHSO2", "stop_name": "Chemin des Sondes", "stop_desc": "n/a", "stop_lat": 46.6750522, "stop_lon": 5.5341793, "zone_id": "n/a", "stop_url": "n/a", "location_type": "n/a", "parent_station": "ARCOM@MONCHSO", "stop_timezone": "n/a", "wheelchair_boarding": 0}}, {"type": "Feature", "geometry": {"type": "Point", "coordinates": [5.52605, 46.67044]}, "properties": {"stop_id": "MONESCH1", "stop_code": "MONESCH1", "stop_name": "Espace Chantrans", "stop_desc": "n/a", "stop_lat": 46.67044, "stop_lon": 5.52605, "zone_id": "n/a", "stop_url": "n/a", "location_type": "n/a", "parent_station": "ARCOM@MONESCH", "stop_timezone": "n/a", "wheelchair_boarding": 0}}, {"type": "Feature", "geometry": {"type": "Point", "coordinates": [5.52605, 46.67044]}, "properties": {"stop_id": "MONESCH2", "stop_code": "MONESCH2", "stop_name": "Espace Chantrans", "stop_desc": "n/a", "stop_lat": 46.67044, "stop_lon": 5.52605, "zone_id": "n/a", "stop_url": "n/a", "location_type": "n/a", "parent_station": "ARCOM@MONESCH", "stop_timezone": "n/a", "wheelchair_boarding": 0}}, {"type": "Feature", "geometry": {"type": "Point", "coordinates": [5.52488, 46.66696]}, "properties": {"stop_id": "MONHACH1", "stop_code": "MONHACH1", "stop_name": "Hameau de Chantrans", "stop_desc": "n/a", "stop_lat": 46.66696, "stop_lon": 5.52488, "zone_id": "n/a", "stop_url": "n/a", "location_type": "n/a", "parent_station": "ARCOM@MONHACH", "stop_timezone": "n/a", "wheelchair_boarding": 0}}, {"type": "Feature", "geometry": {"type": "Point", "coordinates": [5.5302526, 46.6751357]}, "properties": {"stop_id": "MONSQJO1", "stop_code": "MONSQJO1", "stop_name": "Square Journet", "stop_desc": "n/a", "stop_lat": 46.6751357, "stop_lon": 5.5302526, "zone_id": "n/a", "stop_url": "n/a", "location_type": "n/a", "parent_station": "ARCOM@MONSQJO", "stop_timezone": "n/a", "wheelchair_boarding": 0}}, {"type": "Feature", "geometry": {"type": "Point", "coordinates": [5.53037, 46.67529]}, "properties": {"stop_id": "MONSQJO2", "stop_code": "MONSQJO2", "stop_name": "Square Journet", "stop_desc": "n/a", "stop_lat": 46.67529, "stop_lon": 5.53037, "zone_id": "n/a", "stop_url": "n/a", "location_type": "n/a", "parent_station": "ARCOM@MONSQJO", "stop_timezone": "n/a", "wheelchair_boarding": 0}}, {"type": "Feature", "geometry": {"type": "Point", "coordinates": [5.574755, 46.6690449]}, "properties": {"stop_id": "PERPONT1", "stop_code": "PERPONT1", "stop_name": "Pont Perrigny", "stop_desc": "n/a", "stop_lat": 46.6690449, "stop_lon": 5.574755, "zone_id": "n/a", "stop_url": "n/a", "location_type": "n/a", "parent_station": "ARCOM@PERPONT", "stop_timezone": "n/a", "wheelchair_boarding": 0}}, {"type": "Feature", "geometry": {"type": "Point", "coordinates": [5.574755, 46.6690449]}, "properties": {"stop_id": "PERPONT2", "stop_code": "PERPONT2", "stop_name": "Pont Perrigny", "stop_desc": "n/a", "stop_lat": 46.6690449, "stop_lon": 5.574755, "zone_id": "n/a", "stop_url": "n/a", "location_type": "n/a", "parent_station": "ARCOM@PERPONT", "stop_timezone": "n/a", "wheelchair_boarding": 0}}, {"type": "Feature", "geometry": {"type": "Point", "coordinates": [5.5822212, 46.68102]}, "properties": {"stop_id": "PERZI1", "stop_code": "PERZI1", "stop_name": "Z.I. Perrigny", "stop_desc": "n/a", "stop_lat": 46.68102, "stop_lon": 5.5822212, "zone_id": "n/a", "stop_url": "n/a", "location_type": "n/a", "parent_station": "ARCOM@PERZI", "stop_timezone": "n/a", "wheelchair_boarding": 0}}, {"type": "Feature", "geometry": {"type": "Point", "coordinates": [5.5822212, 46.68102]}, "properties": {"stop_id": "PERZI2", "stop_code": "PERZI2", "stop_name": "Z.I. Perrigny", "stop_desc": "n/a", "stop_lat": 46.68102, "stop_lon": 5.5822212, "zone_id": "n/a", "stop_url": "n/a", "location_type": "n/a", "parent_station": "ARCOM@PERZI", "stop_timezone": "n/a", "wheelchair_boarding": 0}}]}