{"type": "FeatureCollection", "features": [{"type": "Feature", "properties": {"route_id": "CHA:Line:LIGNE_11_20140314", "service_id": "CHA:Timetable:18", "trip_id": "CHA:VehicleJourney:LR11-03-A_20140314_1", "trip_headsign": "ANGOULEME Gare SNCF / ANGOULEME-GARE SNCF", "trip_short_name": null, "direction_id": 0, "wheelchair_accessible": 0, "shape_id": "shape_100"}, "geometry": {"type": "LineString", "coordinates": [[0.0267, 45.473656], [0.036493, 45.50845], [0.043616, 45.555256], [0.046796, 45.58338], [0.139485, 45.645965999999994], [0.14946199999999998, 45.64922], [0.15540199999999998, 45.648315000000004], [0.159494, 45.64953], [0.165175, 45.653057000000004]]}}, {"type": "Feature", "properties": {"wheelchair_boarding": 2, "platform_code": null, "vehicle_type": null, "location_type": 0, "stop_desc": "PMR,Abri DEC,Poteau,Banc", "stop_code": null, "zone_id": null, "stop_name": "ANGOULEME-CATHEDRALE", "stop_id": "NAQ:Quay:10183", "parent_station": "NAQ:StopPlace:5768", "stop_timezone": null, "stop_url": null}, "geometry": {"type": "Point", "coordinates": [0.14946199999999998, 45.64922]}}, {"type": "Feature", "properties": {"wheelchair_boarding": 2, "platform_code": null, "vehicle_type": null, "location_type": 0, "stop_desc": "Abri DEC,Poteau,Banc,Borne", "stop_code": null, "zone_id": null, "stop_name": "ANGOULEME Sillac", "stop_id": "NAQ:Quay:10090", "parent_station": "NAQ:StopPlace:5722", "stop_timezone": null, "stop_url": null}, "geometry": {"type": "Point", "coordinates": [0.139485, 45.645965999999994]}}, {"type": "Feature", "properties": {"wheelchair_boarding": 2, "platform_code": null, "vehicle_type": null, "location_type": 0, "stop_desc": null, "stop_code": null, "zone_id": null, "stop_name": "CLAIX Mairie", "stop_id": "NAQ:Quay:10288", "parent_station": "NAQ:StopPlace:5820", "stop_timezone": null, "stop_url": null}, "geometry": {"type": "Point", "coordinates": [0.043616, 45.555256]}}, {"type": "Feature", "properties": {"wheelchair_boarding": 2, "platform_code": null, "vehicle_type": null, "location_type": 0, "stop_desc": null, "stop_code": null, "zone_id": null, "stop_name": "ANGOULEME-GARE SNCF", "stop_id": "NAQ:Quay:21692", "parent_station": "NAQ:StopPlace:5750", "stop_timezone": null, "stop_url": null}, "geometry": {"type": "Point", "coordinates": [0.165175, 45.653057000000004]}}, {"type": "Feature", "properties": {"wheelchair_boarding": 2, "platform_code": null, "vehicle_type": null, "location_type": 0, "stop_desc": null, "stop_code": null, "zone_id": null, "stop_name": "ANGOULEME-Franquin", "stop_id": "NAQ:Quay:18251", "parent_station": "NAQ:StopPlace:6090", "stop_timezone": null, "stop_url": null}, "geometry": {"type": "Point", "coordinates": [0.159494, 45.64953]}}, {"type": "Feature", "properties": {"wheelchair_boarding": 2, "platform_code": null, "vehicle_type": null, "location_type": 0, "stop_desc": null, "stop_code": null, "zone_id": null, "stop_name": "ROULLET-EGLISE RD210", "stop_id": "NAQ:Quay:21819", "parent_station": "NAQ:StopPlace:14272", "stop_timezone": null, "stop_url": null}, "geometry": {"type": "Point", "coordinates": [0.046796, 45.58338]}}, {"type": "Feature", "properties": {"wheelchair_boarding": 2, "platform_code": null, "vehicle_type": 700.0, "location_type": 0, "stop_desc": null, "stop_code": null, "zone_id": null, "stop_name": "ANGOULEME-H\u00f4tel de Ville", "stop_id": "NAQ:Quay:27685", "parent_station": "NAQ:StopPlace:20010", "stop_timezone": null, "stop_url": null}, "geometry": {"type": "Point", "coordinates": [0.15540199999999998, 45.648315000000004]}}, {"type": "Feature", "properties": {"wheelchair_boarding": 2, "platform_code": null, "vehicle_type": null, "location_type": 0, "stop_desc": null, "stop_code": null, "zone_id": null, "stop_name": "CHAMPAGNE-VIGNY-MAIRIE RD7 A.Bus", "stop_id": "NAQ:Quay:21846", "parent_station": "NAQ:StopPlace:14299", "stop_timezone": null, "stop_url": null}, "geometry": {"type": "Point", "coordinates": [0.036493, 45.50845]}}, {"type": "Feature", "properties": {"wheelchair_boarding": 2, "platform_code": null, "vehicle_type": null, "location_type": 0, "stop_desc": null, "stop_code": null, "zone_id": null, "stop_name": "PEREUIL-PLACE des VIEUX  CHAIS", "stop_id": "NAQ:Quay:21836", "parent_station": "NAQ:StopPlace:14289", "stop_timezone": null, "stop_url": null}, "geometry": {"type": "Point", "coordinates": [0.0267, 45.473656]}}]}