{"type": "FeatureCollection", "features": [{"type": "Feature", "properties": {"route_id": "CHA:Line:LIGNE_06_20140305", "service_id": "CHA:Timetable:20", "trip_id": "CHA:VehicleJourney:LR06-03-A_20140305_2", "trip_headsign": "ANGOULEME Cath\u00e9drale / ANGOULEME-CATHEDRALE", "trip_short_name": null, "direction_id": 0, "wheelchair_accessible": 0, "shape_id": "shape_076"}, "geometry": {"type": "LineString", "coordinates": [[0.13755499999999998, 45.800926000000004], [0.135409, 45.797497], [0.133675, 45.793396], [0.127539, 45.786167], [0.123401, 45.783229999999996], [0.101379, 45.776783], [0.109893, 45.76536], [0.12396300000000002, 45.762253], [0.127641, 45.760876], [0.140433, 45.75888], [0.16614, 45.734753000000005], [0.170916, 45.731159999999996], [0.16925, 45.729442999999996], [0.163141, 45.72225], [0.143832, 45.713905], [0.13747, 45.711582], [0.13885799999999998, 45.707993], [0.144456, 45.705677], [0.140577, 45.700759999999995], [0.14946800000000002, 45.698826000000004], [0.155678, 45.69107], [0.171854, 45.658584999999995], [0.165175, 45.653057000000004], [0.159494, 45.64953], [0.15540199999999998, 45.648315000000004], [0.14946199999999998, 45.64922]]}}, {"type": "Feature", "properties": {"wheelchair_boarding": 2, "platform_code": null, "vehicle_type": null, "location_type": 0, "stop_desc": null, "stop_code": null, "zone_id": null, "stop_name": "Champ du ch\u00eane", "stop_id": "NAQ:Quay:10298", "parent_station": "NAQ:StopPlace:5825", "stop_timezone": null, "stop_url": null}, "geometry": {"type": "Point", "coordinates": [0.14946800000000002, 45.698826000000004]}}, {"type": "Feature", "properties": {"wheelchair_boarding": 2, "platform_code": null, "vehicle_type": null, "location_type": 0, "stop_desc": "PMR,Abri DEC,Poteau,Banc", "stop_code": null, "zone_id": null, "stop_name": "ANGOULEME-CATHEDRALE", "stop_id": "NAQ:Quay:10183", "parent_station": "NAQ:StopPlace:5768", "stop_timezone": null, "stop_url": null}, "geometry": {"type": "Point", "coordinates": [0.14946199999999998, 45.64922]}}, {"type": "Feature", "properties": {"wheelchair_boarding": 2, "platform_code": null, "vehicle_type": null, "location_type": 0, "stop_desc": null, "stop_code": null, "zone_id": null, "stop_name": "CHAMPNIERS-VOUILLAC RD105 D\u00e9g.", "stop_id": "NAQ:Quay:21767", "parent_station": "NAQ:StopPlace:14221", "stop_timezone": null, "stop_url": null}, "geometry": {"type": "Point", "coordinates": [0.163141, 45.72225]}}, {"type": "Feature", "properties": {"wheelchair_boarding": 2, "platform_code": null, "vehicle_type": null, "location_type": 0, "stop_desc": null, "stop_code": null, "zone_id": null, "stop_name": "VARS-LE PORTAL carf VC/RD11 A.Bus", "stop_id": "NAQ:Quay:21768", "parent_station": "NAQ:StopPlace:14222", "stop_timezone": null, "stop_url": null}, "geometry": {"type": "Point", "coordinates": [0.109893, 45.76536]}}, {"type": "Feature", "properties": {"wheelchair_boarding": 2, "platform_code": null, "vehicle_type": null, "location_type": 0, "stop_desc": null, "stop_code": null, "zone_id": null, "stop_name": "CHAMPNIERS-MOULIN MASSET VC A.Bus", "stop_id": "NAQ:Quay:21765", "parent_station": "NAQ:StopPlace:14219", "stop_timezone": null, "stop_url": null}, "geometry": {"type": "Point", "coordinates": [0.16925, 45.729442999999996]}}, {"type": "Feature", "properties": {"wheelchair_boarding": 2, "platform_code": null, "vehicle_type": null, "location_type": 0, "stop_desc": null, "stop_code": null, "zone_id": null, "stop_name": "CHAMPNIERS-LES NAUDINS RD37 A.Bus", "stop_id": "NAQ:Quay:21766", "parent_station": "NAQ:StopPlace:14220", "stop_timezone": null, "stop_url": null}, "geometry": {"type": "Point", "coordinates": [0.16614, 45.734753000000005]}}, {"type": "Feature", "properties": {"wheelchair_boarding": 2, "platform_code": null, "vehicle_type": null, "location_type": 0, "stop_desc": null, "stop_code": null, "zone_id": null, "stop_name": "MONTIGNAC-CHEBRAC A.Bus n\u00b073", "stop_id": "NAQ:Quay:21764", "parent_station": "NAQ:StopPlace:14218", "stop_timezone": null, "stop_url": null}, "geometry": {"type": "Point", "coordinates": [0.101379, 45.776783]}}, {"type": "Feature", "properties": {"wheelchair_boarding": 2, "platform_code": null, "vehicle_type": null, "location_type": 0, "stop_desc": null, "stop_code": null, "zone_id": null, "stop_name": "BALZAC-LES TEXIERS RD406 maison 3", "stop_id": "NAQ:Quay:21745", "parent_station": "NAQ:StopPlace:14199", "stop_timezone": null, "stop_url": null}, "geometry": {"type": "Point", "coordinates": [0.143832, 45.713905]}}, {"type": "Feature", "properties": {"wheelchair_boarding": 2, "platform_code": null, "vehicle_type": null, "location_type": 0, "stop_desc": null, "stop_code": null, "zone_id": null, "stop_name": "ST-AMANT-DE-BXE-LES METAIRIES AB", "stop_id": "NAQ:Quay:21742", "parent_station": "NAQ:StopPlace:33700", "stop_timezone": null, "stop_url": null}, "geometry": {"type": "Point", "coordinates": [0.13755499999999998, 45.800926000000004]}}, {"type": "Feature", "properties": {"wheelchair_boarding": 2, "platform_code": null, "vehicle_type": null, "location_type": 0, "stop_desc": null, "stop_code": null, "zone_id": null, "stop_name": "VARS-PLACE Mairie RD11 A.Bus", "stop_id": "NAQ:Quay:21740", "parent_station": "NAQ:StopPlace:14195", "stop_timezone": null, "stop_url": null}, "geometry": {"type": "Point", "coordinates": [0.12396300000000002, 45.762253]}}, {"type": "Feature", "properties": {"wheelchair_boarding": 2, "platform_code": null, "vehicle_type": null, "location_type": 0, "stop_desc": null, "stop_code": null, "zone_id": null, "stop_name": "Balzac bourg", "stop_id": "NAQ:Quay:10433", "parent_station": "NAQ:StopPlace:5890", "stop_timezone": null, "stop_url": null}, "geometry": {"type": "Point", "coordinates": [0.144456, 45.705677]}}, {"type": "Feature", "properties": {"wheelchair_boarding": 2, "platform_code": null, "vehicle_type": null, "location_type": 0, "stop_desc": null, "stop_code": null, "zone_id": null, "stop_name": "Chalonne", "stop_id": "NAQ:Quay:10312", "parent_station": "NAQ:StopPlace:5833", "stop_timezone": null, "stop_url": null}, "geometry": {"type": "Point", "coordinates": [0.155678, 45.69107]}}, {"type": "Feature", "properties": {"wheelchair_boarding": 2, "platform_code": "75902", "vehicle_type": null, "location_type": 0, "stop_desc": null, "stop_code": null, "zone_id": null, "stop_name": "Les Chabots", "stop_id": "NAQ:Quay:19134", "parent_station": "NAQ:StopPlace:11870", "stop_timezone": null, "stop_url": null}, "geometry": {"type": "Point", "coordinates": [0.140577, 45.700759999999995]}}, {"type": "Feature", "properties": {"wheelchair_boarding": 2, "platform_code": null, "vehicle_type": null, "location_type": 0, "stop_desc": null, "stop_code": null, "zone_id": null, "stop_name": "ANGOULEME-GARE SNCF", "stop_id": "NAQ:Quay:21692", "parent_station": "NAQ:StopPlace:5750", "stop_timezone": null, "stop_url": null}, "geometry": {"type": "Point", "coordinates": [0.165175, 45.653057000000004]}}, {"type": "Feature", "properties": {"wheelchair_boarding": 2, "platform_code": null, "vehicle_type": null, "location_type": 0, "stop_desc": null, "stop_code": null, "zone_id": null, "stop_name": "ANGOULEME-Franquin", "stop_id": "NAQ:Quay:18251", "parent_station": "NAQ:StopPlace:6090", "stop_timezone": null, "stop_url": null}, "geometry": {"type": "Point", "coordinates": [0.159494, 45.64953]}}, {"type": "Feature", "properties": {"wheelchair_boarding": 2, "platform_code": null, "vehicle_type": 700.0, "location_type": 0, "stop_desc": null, "stop_code": null, "zone_id": null, "stop_name": "ANGOULEME-H\u00f4tel de Ville", "stop_id": "NAQ:Quay:27685", "parent_station": "NAQ:StopPlace:20010", "stop_timezone": null, "stop_url": null}, "geometry": {"type": "Point", "coordinates": [0.15540199999999998, 45.648315000000004]}}, {"type": "Feature", "properties": {"wheelchair_boarding": 2, "platform_code": null, "vehicle_type": null, "location_type": 0, "stop_desc": null, "stop_code": null, "zone_id": null, "stop_name": "ST-AMANT-DE-BXE-LOTISSEMENT RD18", "stop_id": "NAQ:Quay:21724", "parent_station": "NAQ:StopPlace:14180", "stop_timezone": null, "stop_url": null}, "geometry": {"type": "Point", "coordinates": [0.133675, 45.793396]}}, {"type": "Feature", "properties": {"wheelchair_boarding": 2, "platform_code": null, "vehicle_type": null, "location_type": 0, "stop_desc": null, "stop_code": null, "zone_id": null, "stop_name": "VARS-BASCULE", "stop_id": "NAQ:Quay:21720", "parent_station": "NAQ:StopPlace:14176", "stop_timezone": null, "stop_url": null}, "geometry": {"type": "Point", "coordinates": [0.127641, 45.760876]}}, {"type": "Feature", "properties": {"wheelchair_boarding": 2, "platform_code": null, "vehicle_type": null, "location_type": 0, "stop_desc": null, "stop_code": null, "zone_id": null, "stop_name": "MONTIGNAC-PLACE Dr FEUILLET carf", "stop_id": "NAQ:Quay:21739", "parent_station": "NAQ:StopPlace:14194", "stop_timezone": null, "stop_url": null}, "geometry": {"type": "Point", "coordinates": [0.123401, 45.783229999999996]}}, {"type": "Feature", "properties": {"wheelchair_boarding": 2, "platform_code": null, "vehicle_type": null, "location_type": 0, "stop_desc": null, "stop_code": null, "zone_id": null, "stop_name": "ANGOULEME-MADELEINE (la)", "stop_id": "NAQ:Quay:21701", "parent_station": "NAQ:StopPlace:14158", "stop_timezone": null, "stop_url": null}, "geometry": {"type": "Point", "coordinates": [0.171854, 45.658584999999995]}}, {"type": "Feature", "properties": {"wheelchair_boarding": 2, "platform_code": null, "vehicle_type": null, "location_type": 0, "stop_desc": null, "stop_code": null, "zone_id": null, "stop_name": "MONTIGNAC-LE PLANTIER", "stop_id": "NAQ:Quay:21702", "parent_station": "NAQ:StopPlace:14159", "stop_timezone": null, "stop_url": null}, "geometry": {"type": "Point", "coordinates": [0.127539, 45.786167]}}, {"type": "Feature", "properties": {"wheelchair_boarding": 2, "platform_code": null, "vehicle_type": null, "location_type": 0, "stop_desc": null, "stop_code": null, "zone_id": null, "stop_name": "VARS- COOPERATIVE AB RD11", "stop_id": "NAQ:Quay:21708", "parent_station": "NAQ:StopPlace:14164", "stop_timezone": null, "stop_url": null}, "geometry": {"type": "Point", "coordinates": [0.140433, 45.75888]}}, {"type": "Feature", "properties": {"wheelchair_boarding": 2, "platform_code": null, "vehicle_type": null, "location_type": 0, "stop_desc": null, "stop_code": null, "zone_id": null, "stop_name": "BALZAC-LES GENINS VC AB maison 49", "stop_id": "NAQ:Quay:21714", "parent_station": "NAQ:StopPlace:14170", "stop_timezone": null, "stop_url": null}, "geometry": {"type": "Point", "coordinates": [0.13885799999999998, 45.707993]}}, {"type": "Feature", "properties": {"wheelchair_boarding": 2, "platform_code": null, "vehicle_type": null, "location_type": 0, "stop_desc": null, "stop_code": null, "zone_id": null, "stop_name": "ST-AMANT-DE-BXE-BOURG", "stop_id": "NAQ:Quay:21715", "parent_station": "NAQ:StopPlace:33701", "stop_timezone": null, "stop_url": null}, "geometry": {"type": "Point", "coordinates": [0.135409, 45.797497]}}, {"type": "Feature", "properties": {"wheelchair_boarding": 2, "platform_code": null, "vehicle_type": null, "location_type": 0, "stop_desc": null, "stop_code": null, "zone_id": null, "stop_name": "BALZAC-MAIRIE RD406 Place", "stop_id": "NAQ:Quay:21713", "parent_station": "NAQ:StopPlace:14169", "stop_timezone": null, "stop_url": null}, "geometry": {"type": "Point", "coordinates": [0.13747, 45.711582]}}, {"type": "Feature", "properties": {"wheelchair_boarding": 2, "platform_code": null, "vehicle_type": null, "location_type": 0, "stop_desc": null, "stop_code": null, "zone_id": null, "stop_name": "CHAMPNIERS-ARGENCE Place VC 1/2t", "stop_id": "NAQ:Quay:21710", "parent_station": "NAQ:StopPlace:14166", "stop_timezone": null, "stop_url": null}, "geometry": {"type": "Point", "coordinates": [0.170916, 45.731159999999996]}}]}