{"type": "FeatureCollection", "features": [{"type": "Feature", "properties": {"route_id": "CHA:Line:LIGNE_14_20140311", "service_id": "CHA:Timetable:10", "trip_id": "CHA:VehicleJourney:LR14-04-R_20140311_1", "trip_headsign": "MONTMOREAU-COLLEGE A. DELAFONT", "trip_short_name": null, "direction_id": 1, "wheelchair_accessible": 0, "shape_id": "shape_002"}, "geometry": {"type": "LineString", "coordinates": [[0.14946199999999998, 45.64922], [0.15540199999999998, 45.648315000000004], [0.160575, 45.64907], [0.15396300000000002, 45.63257], [0.151698, 45.608925], [0.153325, 45.6045], [0.15499100000000002, 45.60071], [0.154946, 45.600304], [0.153996, 45.58504], [0.179805, 45.53476], [0.162671, 45.500202], [0.148801, 45.47867], [0.142084, 45.450424], [0.148463, 45.424053], [0.126159, 45.42388], [0.139388, 45.422256], [0.112572, 45.417336], [0.127252, 45.399776], [0.12999000000000002, 45.397415]]}}, {"type": "Feature", "properties": {"wheelchair_boarding": 2, "platform_code": null, "vehicle_type": null, "location_type": 0, "stop_desc": "PMR,Abri DEC,Poteau,Banc", "stop_code": null, "zone_id": null, "stop_name": "ANGOULEME-CATHEDRALE", "stop_id": "NAQ:Quay:10183", "parent_station": "NAQ:StopPlace:5768", "stop_timezone": null, "stop_url": null}, "geometry": {"type": "Point", "coordinates": [0.14946199999999998, 45.64922]}}, {"type": "Feature", "properties": {"wheelchair_boarding": 2, "platform_code": null, "vehicle_type": null, "location_type": 0, "stop_desc": null, "stop_code": null, "zone_id": null, "stop_name": "Petit Giget", "stop_id": "NAQ:Quay:10124", "parent_station": "NAQ:StopPlace:5739", "stop_timezone": null, "stop_url": null}, "geometry": {"type": "Point", "coordinates": [0.153325, 45.6045]}}, {"type": "Feature", "properties": {"wheelchair_boarding": 2, "platform_code": null, "vehicle_type": null, "location_type": 0, "stop_desc": null, "stop_code": null, "zone_id": null, "stop_name": "VOEUIL Eglise", "stop_id": "NAQ:Quay:10104", "parent_station": "NAQ:StopPlace:5728", "stop_timezone": null, "stop_url": null}, "geometry": {"type": "Point", "coordinates": [0.153996, 45.58504]}}, {"type": "Feature", "properties": {"wheelchair_boarding": 2, "platform_code": null, "vehicle_type": null, "location_type": 0, "stop_desc": null, "stop_code": null, "zone_id": null, "stop_name": "MONTMOREAU-ST-CYBARD RD74 A.Bus", "stop_id": "NAQ:Quay:21885", "parent_station": "NAQ:StopPlace:14337", "stop_timezone": null, "stop_url": null}, "geometry": {"type": "Point", "coordinates": [0.139388, 45.422256]}}, {"type": "Feature", "properties": {"wheelchair_boarding": 2, "platform_code": null, "vehicle_type": null, "location_type": 0, "stop_desc": null, "stop_code": null, "zone_id": null, "stop_name": "ST-EUTROPE-LE MAINE PEZET", "stop_id": "NAQ:Quay:21883", "parent_station": "NAQ:StopPlace:14335", "stop_timezone": null, "stop_url": null}, "geometry": {"type": "Point", "coordinates": [0.126159, 45.42388]}}, {"type": "Feature", "properties": {"wheelchair_boarding": 2, "platform_code": null, "vehicle_type": null, "location_type": 0, "stop_desc": null, "stop_code": null, "zone_id": null, "stop_name": "MONTMOREAU-MAISON DE RETRAITE D10", "stop_id": "NAQ:Quay:21880", "parent_station": "NAQ:StopPlace:14332", "stop_timezone": null, "stop_url": null}, "geometry": {"type": "Point", "coordinates": [0.127252, 45.399776]}}, {"type": "Feature", "properties": {"wheelchair_boarding": 2, "platform_code": null, "vehicle_type": null, "location_type": 0, "stop_desc": null, "stop_code": null, "zone_id": null, "stop_name": "FOUQUEBRUNE-L'ETANG GENEVREAU", "stop_id": "NAQ:Quay:21881", "parent_station": "NAQ:StopPlace:14333", "stop_timezone": null, "stop_url": null}, "geometry": {"type": "Point", "coordinates": [0.179805, 45.53476]}}, {"type": "Feature", "properties": {"wheelchair_boarding": 2, "platform_code": null, "vehicle_type": null, "location_type": 0, "stop_desc": null, "stop_code": null, "zone_id": null, "stop_name": "MONTMOREAU-COLLEGE A. DELAFONT", "stop_id": "NAQ:Quay:21899", "parent_station": "NAQ:StopPlace:14351", "stop_timezone": null, "stop_url": null}, "geometry": {"type": "Point", "coordinates": [0.12999000000000002, 45.397415]}}, {"type": "Feature", "properties": {"wheelchair_boarding": 2, "platform_code": null, "vehicle_type": null, "location_type": 0, "stop_desc": null, "stop_code": null, "zone_id": null, "stop_name": "CHADURIE-BOIS ROND RD674 D\u00e9g.grav", "stop_id": "NAQ:Quay:21897", "parent_station": "NAQ:StopPlace:14349", "stop_timezone": null, "stop_url": null}, "geometry": {"type": "Point", "coordinates": [0.148801, 45.47867]}}, {"type": "Feature", "properties": {"wheelchair_boarding": 2, "platform_code": null, "vehicle_type": null, "location_type": 0, "stop_desc": null, "stop_code": null, "zone_id": null, "stop_name": "ST-EUTROPE-MAIRIE RD10 AB n\u00b0114", "stop_id": "NAQ:Quay:21896", "parent_station": "NAQ:StopPlace:14348", "stop_timezone": null, "stop_url": null}, "geometry": {"type": "Point", "coordinates": [0.112572, 45.417336]}}, {"type": "Feature", "properties": {"wheelchair_boarding": 2, "platform_code": null, "vehicle_type": null, "location_type": 0, "stop_desc": null, "stop_code": null, "zone_id": null, "stop_name": "CHARMANT-GARE carf RD5/VC A.Bus", "stop_id": "NAQ:Quay:21891", "parent_station": "NAQ:StopPlace:14343", "stop_timezone": null, "stop_url": null}, "geometry": {"type": "Point", "coordinates": [0.162671, 45.500202]}}, {"type": "Feature", "properties": {"wheelchair_boarding": 2, "platform_code": null, "vehicle_type": null, "location_type": 0, "stop_desc": null, "stop_code": null, "zone_id": null, "stop_name": "AIGNES-AIGNES CIMETIERE cf VC AB", "stop_id": "NAQ:Quay:21892", "parent_station": "NAQ:StopPlace:14344", "stop_timezone": null, "stop_url": null}, "geometry": {"type": "Point", "coordinates": [0.142084, 45.450424]}}, {"type": "Feature", "properties": {"wheelchair_boarding": 2, "platform_code": null, "vehicle_type": null, "location_type": 0, "stop_desc": null, "stop_code": null, "zone_id": null, "stop_name": "MONTMOREAU-POTEAU ST-CYBARD carf", "stop_id": "NAQ:Quay:21890", "parent_station": "NAQ:StopPlace:14342", "stop_timezone": null, "stop_url": null}, "geometry": {"type": "Point", "coordinates": [0.148463, 45.424053]}}, {"type": "Feature", "properties": {"wheelchair_boarding": 2, "platform_code": null, "vehicle_type": null, "location_type": 0, "stop_desc": "Abri DEC,Poteau,Banc", "stop_code": null, "zone_id": null, "stop_name": "ANGOULEME-Berthelot", "stop_id": "NAQ:Quay:10548", "parent_station": "NAQ:StopPlace:5950", "stop_timezone": null, "stop_url": null}, "geometry": {"type": "Point", "coordinates": [0.160575, 45.64907]}}, {"type": "Feature", "properties": {"wheelchair_boarding": 2, "platform_code": null, "vehicle_type": 700.0, "location_type": 0, "stop_desc": null, "stop_code": null, "zone_id": null, "stop_name": "ANGOULEME-H\u00f4tel de Ville", "stop_id": "NAQ:Quay:27685", "parent_station": "NAQ:StopPlace:20010", "stop_timezone": null, "stop_url": null}, "geometry": {"type": "Point", "coordinates": [0.15540199999999998, 45.648315000000004]}}, {"type": "Feature", "properties": {"wheelchair_boarding": 2, "platform_code": null, "vehicle_type": null, "location_type": 0, "stop_desc": null, "stop_code": null, "zone_id": null, "stop_name": "ANGOULEME-Ma  Campagne", "stop_id": "NAQ:Quay:21844", "parent_station": "NAQ:StopPlace:14297", "stop_timezone": null, "stop_url": null}, "geometry": {"type": "Point", "coordinates": [0.15396300000000002, 45.63257]}}, {"type": "Feature", "properties": {"wheelchair_boarding": 2, "platform_code": null, "vehicle_type": null, "location_type": 0, "stop_desc": null, "stop_code": null, "zone_id": null, "stop_name": "VOEUIL-LES PETITS CHAMPS RD674 AB", "stop_id": "NAQ:Quay:21859", "parent_station": "NAQ:StopPlace:14311", "stop_timezone": null, "stop_url": null}, "geometry": {"type": "Point", "coordinates": [0.151698, 45.608925]}}, {"type": "Feature", "properties": {"wheelchair_boarding": 2, "platform_code": null, "vehicle_type": null, "location_type": 0, "stop_desc": null, "stop_code": null, "zone_id": null, "stop_name": "VOEUIL-LA GINOTTE carf RD674/VC", "stop_id": "NAQ:Quay:21857", "parent_station": "NAQ:StopPlace:14309", "stop_timezone": null, "stop_url": null}, "geometry": {"type": "Point", "coordinates": [0.154946, 45.600304]}}, {"type": "Feature", "properties": {"wheelchair_boarding": 2, "platform_code": null, "vehicle_type": null, "location_type": 0, "stop_desc": null, "stop_code": null, "zone_id": null, "stop_name": "VOEUIL-LA LIMOUSINE RD674 Encoche", "stop_id": "NAQ:Quay:21853", "parent_station": "NAQ:StopPlace:14305", "stop_timezone": null, "stop_url": null}, "geometry": {"type": "Point", "coordinates": [0.15499100000000002, 45.60071]}}]}