{"type": "FeatureCollection", "features": [{"type": "Feature", "properties": {"route_id": "CHA:Line:LIGNE_11_20140314", "service_id": "CHA:Timetable:13", "trip_id": "CHA:VehicleJourney:LR11-14-R_20140314_1", "trip_headsign": "PEREUIL-PLACE des VIEUX  CHAIS", "trip_short_name": null, "direction_id": 1, "wheelchair_accessible": 0, "shape_id": "shape_040"}, "geometry": {"type": "LineString", "coordinates": [[0.165175, 45.653057000000004], [0.159494, 45.64953], [0.15540199999999998, 45.648315000000004], [0.14946199999999998, 45.64922], [0.139485, 45.645965999999994], [0.110464, 45.623363], [0.091158, 45.608543], [0.080739, 45.60468], [0.075192, 45.601364000000004], [0.061904999999999995, 45.588737], [0.050608999999999994, 45.58675], [0.046796, 45.58338], [0.04799, 45.572109999999995], [0.043191, 45.567066], [0.042706, 45.55989], [0.043616, 45.555256], [0.041806, 45.5487], [0.038736, 45.539898], [0.036493, 45.50845], [0.0267, 45.473656]]}}, {"type": "Feature", "properties": {"wheelchair_boarding": 2, "platform_code": null, "vehicle_type": null, "location_type": 0, "stop_desc": null, "stop_code": null, "zone_id": null, "stop_name": "Le Moulin \u00e0 vent", "stop_id": "NAQ:Quay:10173", "parent_station": "NAQ:StopPlace:5763", "stop_timezone": null, "stop_url": null}, "geometry": {"type": "Point", "coordinates": [0.042706, 45.55989]}}, {"type": "Feature", "properties": {"wheelchair_boarding": 2, "platform_code": null, "vehicle_type": null, "location_type": 0, "stop_desc": "PMR,Abri DEC,Poteau,Banc", "stop_code": null, "zone_id": null, "stop_name": "ANGOULEME-CATHEDRALE", "stop_id": "NAQ:Quay:10183", "parent_station": "NAQ:StopPlace:5768", "stop_timezone": null, "stop_url": null}, "geometry": {"type": "Point", "coordinates": [0.14946199999999998, 45.64922]}}, {"type": "Feature", "properties": {"wheelchair_boarding": 2, "platform_code": null, "vehicle_type": null, "location_type": 0, "stop_desc": "Abri DEC,Poteau,Banc,Borne", "stop_code": null, "zone_id": null, "stop_name": "ANGOULEME Sillac", "stop_id": "NAQ:Quay:10090", "parent_station": "NAQ:StopPlace:5722", "stop_timezone": null, "stop_url": null}, "geometry": {"type": "Point", "coordinates": [0.139485, 45.645965999999994]}}, {"type": "Feature", "properties": {"wheelchair_boarding": 2, "platform_code": null, "vehicle_type": null, "location_type": 0, "stop_desc": null, "stop_code": null, "zone_id": null, "stop_name": "CLAIX Mairie", "stop_id": "NAQ:Quay:10288", "parent_station": "NAQ:StopPlace:5820", "stop_timezone": null, "stop_url": null}, "geometry": {"type": "Point", "coordinates": [0.043616, 45.555256]}}, {"type": "Feature", "properties": {"wheelchair_boarding": 2, "platform_code": null, "vehicle_type": null, "location_type": 0, "stop_desc": null, "stop_code": null, "zone_id": null, "stop_name": "ANGOULEME-GARE SNCF", "stop_id": "NAQ:Quay:21692", "parent_station": "NAQ:StopPlace:5750", "stop_timezone": null, "stop_url": null}, "geometry": {"type": "Point", "coordinates": [0.165175, 45.653057000000004]}}, {"type": "Feature", "properties": {"wheelchair_boarding": 2, "platform_code": null, "vehicle_type": null, "location_type": 0, "stop_desc": null, "stop_code": null, "zone_id": null, "stop_name": "ANGOULEME-Franquin", "stop_id": "NAQ:Quay:18251", "parent_station": "NAQ:StopPlace:6090", "stop_timezone": null, "stop_url": null}, "geometry": {"type": "Point", "coordinates": [0.159494, 45.64953]}}, {"type": "Feature", "properties": {"wheelchair_boarding": 2, "platform_code": null, "vehicle_type": null, "location_type": 0, "stop_desc": null, "stop_code": null, "zone_id": null, "stop_name": "ROULLET-LE FOUR A CHAUX RD910 AB", "stop_id": "NAQ:Quay:21806", "parent_station": "NAQ:StopPlace:14259", "stop_timezone": null, "stop_url": null}, "geometry": {"type": "Point", "coordinates": [0.075192, 45.601364000000004]}}, {"type": "Feature", "properties": {"wheelchair_boarding": 2, "platform_code": null, "vehicle_type": null, "location_type": 0, "stop_desc": null, "stop_code": null, "zone_id": null, "stop_name": "ROULLET-LA CHAUME RD910 Encoche", "stop_id": "NAQ:Quay:21812", "parent_station": "NAQ:StopPlace:14265", "stop_timezone": null, "stop_url": null}, "geometry": {"type": "Point", "coordinates": [0.061904999999999995, 45.588737]}}, {"type": "Feature", "properties": {"wheelchair_boarding": 2, "platform_code": null, "vehicle_type": null, "location_type": 0, "stop_desc": null, "stop_code": null, "zone_id": null, "stop_name": "ROULLET-EGLISE RD210", "stop_id": "NAQ:Quay:21819", "parent_station": "NAQ:StopPlace:14272", "stop_timezone": null, "stop_url": null}, "geometry": {"type": "Point", "coordinates": [0.046796, 45.58338]}}, {"type": "Feature", "properties": {"wheelchair_boarding": 2, "platform_code": null, "vehicle_type": null, "location_type": 0, "stop_desc": null, "stop_code": null, "zone_id": null, "stop_name": "ROULLET-ECOLE AB N\u00b099", "stop_id": "NAQ:Quay:21818", "parent_station": "NAQ:StopPlace:14271", "stop_timezone": null, "stop_url": null}, "geometry": {"type": "Point", "coordinates": [0.050608999999999994, 45.58675]}}, {"type": "Feature", "properties": {"wheelchair_boarding": 2, "platform_code": null, "vehicle_type": 700.0, "location_type": 0, "stop_desc": null, "stop_code": null, "zone_id": null, "stop_name": "ANGOULEME-H\u00f4tel de Ville", "stop_id": "NAQ:Quay:27685", "parent_station": "NAQ:StopPlace:20010", "stop_timezone": null, "stop_url": null}, "geometry": {"type": "Point", "coordinates": [0.15540199999999998, 45.648315000000004]}}, {"type": "Feature", "properties": {"wheelchair_boarding": 2, "platform_code": null, "vehicle_type": null, "location_type": 0, "stop_desc": null, "stop_code": null, "zone_id": null, "stop_name": "CHAMPAGNE-VIGNY-MAIRIE RD7 A.Bus", "stop_id": "NAQ:Quay:21846", "parent_station": "NAQ:StopPlace:14299", "stop_timezone": null, "stop_url": null}, "geometry": {"type": "Point", "coordinates": [0.036493, 45.50845]}}, {"type": "Feature", "properties": {"wheelchair_boarding": 2, "platform_code": null, "vehicle_type": null, "location_type": 0, "stop_desc": "STGA", "stop_code": null, "zone_id": null, "stop_name": "LA COURONNE-Coq Gaulois 1", "stop_id": "NAQ:Quay:21847", "parent_station": "NAQ:StopPlace:14300", "stop_timezone": null, "stop_url": null}, "geometry": {"type": "Point", "coordinates": [0.091158, 45.608543]}}, {"type": "Feature", "properties": {"wheelchair_boarding": 2, "platform_code": null, "vehicle_type": null, "location_type": 0, "stop_desc": null, "stop_code": null, "zone_id": null, "stop_name": "ROULLET-LES GUESDONS carf VC AB", "stop_id": "NAQ:Quay:21845", "parent_station": "NAQ:StopPlace:14298", "stop_timezone": null, "stop_url": null}, "geometry": {"type": "Point", "coordinates": [0.04799, 45.572109999999995]}}, {"type": "Feature", "properties": {"wheelchair_boarding": 2, "platform_code": null, "vehicle_type": null, "location_type": 0, "stop_desc": null, "stop_code": null, "zone_id": null, "stop_name": "CLAIX-FOUR GATINE AB sur RD7", "stop_id": "NAQ:Quay:21824", "parent_station": "NAQ:StopPlace:14277", "stop_timezone": null, "stop_url": null}, "geometry": {"type": "Point", "coordinates": [0.041806, 45.5487]}}, {"type": "Feature", "properties": {"wheelchair_boarding": 2, "platform_code": null, "vehicle_type": null, "location_type": 0, "stop_desc": null, "stop_code": null, "zone_id": null, "stop_name": "ROULLET-LES AUBREAUX RD910 A.Bus", "stop_id": "NAQ:Quay:21821", "parent_station": "NAQ:StopPlace:14274", "stop_timezone": null, "stop_url": null}, "geometry": {"type": "Point", "coordinates": [0.080739, 45.60468]}}, {"type": "Feature", "properties": {"wheelchair_boarding": 2, "platform_code": null, "vehicle_type": null, "location_type": 0, "stop_desc": null, "stop_code": null, "zone_id": null, "stop_name": "CLAIX-LES GROIES DE CHARDY RD7 AB", "stop_id": "NAQ:Quay:21835", "parent_station": "NAQ:StopPlace:14288", "stop_timezone": null, "stop_url": null}, "geometry": {"type": "Point", "coordinates": [0.038736, 45.539898]}}, {"type": "Feature", "properties": {"wheelchair_boarding": 2, "platform_code": null, "vehicle_type": null, "location_type": 0, "stop_desc": null, "stop_code": null, "zone_id": null, "stop_name": "PEREUIL-PLACE des VIEUX  CHAIS", "stop_id": "NAQ:Quay:21836", "parent_station": "NAQ:StopPlace:14289", "stop_timezone": null, "stop_url": null}, "geometry": {"type": "Point", "coordinates": [0.0267, 45.473656]}}, {"type": "Feature", "properties": {"wheelchair_boarding": 2, "platform_code": null, "vehicle_type": null, "location_type": 0, "stop_desc": null, "stop_code": null, "zone_id": null, "stop_name": "CLAIX-CHEZ PROMPT VC Sortie", "stop_id": "NAQ:Quay:21831", "parent_station": "NAQ:StopPlace:14284", "stop_timezone": null, "stop_url": null}, "geometry": {"type": "Point", "coordinates": [0.043191, 45.567066]}}, {"type": "Feature", "properties": {"wheelchair_boarding": 2, "platform_code": null, "vehicle_type": null, "location_type": 0, "stop_desc": "STGA", "stop_code": null, "zone_id": null, "stop_name": "LA COURONNE-L'OISELLERIE", "stop_id": "NAQ:Quay:21832", "parent_station": "NAQ:StopPlace:14285", "stop_timezone": null, "stop_url": null}, "geometry": {"type": "Point", "coordinates": [0.110464, 45.623363]}}]}