{"type": "FeatureCollection", "features": [{"type": "Feature", "properties": {"route_id": "CHA:Line:LIGNE_13_20140310", "service_id": "CHA:Timetable:24", "trip_id": "CHA:VehicleJourney:LR13-02-A_20150708_2", "trip_headsign": "ANGOULEME Gare SNCF / ANGOULEME-GARE SNCF", "trip_short_name": null, "direction_id": 0, "wheelchair_accessible": 0, "shape_id": "shape_105"}, "geometry": {"type": "LineString", "coordinates": [[-0.171506, 45.68545], [-0.089255, 45.689533000000004], [-0.080573, 45.699042999999996], [-0.040221, 45.723312], [-0.023548, 45.71266], [0.001448, 45.172592], [0.027924, 45.716136999999996], [0.028368, 45.70512], [0.006998999999999999, 45.678222999999996], [0.0038619999999999995, 45.668490000000006], [0.007194, 45.66936], [0.011874, 45.66964], [0.022415, 45.670315], [0.14946199999999998, 45.64922], [0.159494, 45.64953], [0.15540199999999998, 45.648315000000004], [0.165175, 45.653057000000004]]}}, {"type": "Feature", "properties": {"wheelchair_boarding": 2, "platform_code": null, "vehicle_type": null, "location_type": 0, "stop_desc": "PMR,Abri DEC,Poteau,Banc", "stop_code": null, "zone_id": null, "stop_name": "ANGOULEME-CATHEDRALE", "stop_id": "NAQ:Quay:10183", "parent_station": "NAQ:StopPlace:5768", "stop_timezone": null, "stop_url": null}, "geometry": {"type": "Point", "coordinates": [0.14946199999999998, 45.64922]}}, {"type": "Feature", "properties": {"wheelchair_boarding": 2, "platform_code": null, "vehicle_type": null, "location_type": 0, "stop_desc": null, "stop_code": null, "zone_id": null, "stop_name": "DOUZAT-POSTE carf RD119/VC", "stop_id": "NAQ:Quay:21868", "parent_station": "NAQ:StopPlace:14320", "stop_timezone": null, "stop_url": null}, "geometry": {"type": "Point", "coordinates": [0.001448, 45.172592]}}, {"type": "Feature", "properties": {"wheelchair_boarding": 2, "platform_code": null, "vehicle_type": null, "location_type": 0, "stop_desc": null, "stop_code": null, "zone_id": null, "stop_name": "ASNIERES/NOUERE-NOUERE RD53 A.Bus", "stop_id": "NAQ:Quay:21869", "parent_station": "NAQ:StopPlace:14321", "stop_timezone": null, "stop_url": null}, "geometry": {"type": "Point", "coordinates": [0.028368, 45.70512]}}, {"type": "Feature", "properties": {"wheelchair_boarding": 2, "platform_code": null, "vehicle_type": null, "location_type": 0, "stop_desc": null, "stop_code": null, "zone_id": null, "stop_name": "HIERSAC-MAIRIE VC A.Bus", "stop_id": "NAQ:Quay:21879", "parent_station": "NAQ:StopPlace:14331", "stop_timezone": null, "stop_url": null}, "geometry": {"type": "Point", "coordinates": [0.0038619999999999995, 45.668490000000006]}}, {"type": "Feature", "properties": {"wheelchair_boarding": 2, "platform_code": null, "vehicle_type": null, "location_type": 0, "stop_desc": null, "stop_code": null, "zone_id": null, "stop_name": "HIERSAC-BASCULE RD41", "stop_id": "NAQ:Quay:21877", "parent_station": "NAQ:StopPlace:14329", "stop_timezone": null, "stop_url": null}, "geometry": {"type": "Point", "coordinates": [0.007194, 45.66936]}}, {"type": "Feature", "properties": {"wheelchair_boarding": 2, "platform_code": null, "vehicle_type": null, "location_type": 0, "stop_desc": null, "stop_code": null, "zone_id": null, "stop_name": "HIERSAC-POINTE AVOCAT carf RD14", "stop_id": "NAQ:Quay:21878", "parent_station": "NAQ:StopPlace:14330", "stop_timezone": null, "stop_url": null}, "geometry": {"type": "Point", "coordinates": [0.006998999999999999, 45.678222999999996]}}, {"type": "Feature", "properties": {"wheelchair_boarding": 2, "platform_code": null, "vehicle_type": null, "location_type": 0, "stop_desc": null, "stop_code": null, "zone_id": null, "stop_name": "MERIGNAC-BOURRAS carf RD944/RD18", "stop_id": "NAQ:Quay:21875", "parent_station": "NAQ:StopPlace:14327", "stop_timezone": null, "stop_url": null}, "geometry": {"type": "Point", "coordinates": [-0.089255, 45.689533000000004]}}, {"type": "Feature", "properties": {"wheelchair_boarding": 2, "platform_code": null, "vehicle_type": null, "location_type": 0, "stop_desc": null, "stop_code": null, "zone_id": null, "stop_name": "JARNAC-Lot.Croix-St-Gilles", "stop_id": "NAQ:Quay:21876", "parent_station": "NAQ:StopPlace:14328", "stop_timezone": null, "stop_url": null}, "geometry": {"type": "Point", "coordinates": [-0.171506, 45.68545]}}, {"type": "Feature", "properties": {"wheelchair_boarding": 2, "platform_code": null, "vehicle_type": null, "location_type": 0, "stop_desc": null, "stop_code": null, "zone_id": null, "stop_name": "HIERSAC-LA CROIX DU FILS RD41 AB", "stop_id": "NAQ:Quay:21873", "parent_station": "NAQ:StopPlace:14325", "stop_timezone": null, "stop_url": null}, "geometry": {"type": "Point", "coordinates": [0.022415, 45.670315]}}, {"type": "Feature", "properties": {"wheelchair_boarding": 2, "platform_code": null, "vehicle_type": null, "location_type": 0, "stop_desc": null, "stop_code": null, "zone_id": null, "stop_name": "ECHALLAT-PLACE DU LAVOIR VC", "stop_id": "NAQ:Quay:21874", "parent_station": "NAQ:StopPlace:14326", "stop_timezone": null, "stop_url": null}, "geometry": {"type": "Point", "coordinates": [-0.040221, 45.723312]}}, {"type": "Feature", "properties": {"wheelchair_boarding": 2, "platform_code": null, "vehicle_type": null, "location_type": 0, "stop_desc": null, "stop_code": null, "zone_id": null, "stop_name": "MERIGNAC-PLACE Marronniers VC AB", "stop_id": "NAQ:Quay:21871", "parent_station": "NAQ:StopPlace:14323", "stop_timezone": null, "stop_url": null}, "geometry": {"type": "Point", "coordinates": [-0.080573, 45.699042999999996]}}, {"type": "Feature", "properties": {"wheelchair_boarding": 2, "platform_code": null, "vehicle_type": null, "location_type": 0, "stop_desc": null, "stop_code": null, "zone_id": null, "stop_name": "HIERSAC-Lot.de LESSONNE RD41 AB", "stop_id": "NAQ:Quay:21872", "parent_station": "NAQ:StopPlace:14324", "stop_timezone": null, "stop_url": null}, "geometry": {"type": "Point", "coordinates": [0.011874, 45.66964]}}, {"type": "Feature", "properties": {"wheelchair_boarding": 2, "platform_code": null, "vehicle_type": null, "location_type": 0, "stop_desc": null, "stop_code": null, "zone_id": null, "stop_name": "ECHALLAT-L'HABIT carf RD14/VC", "stop_id": "NAQ:Quay:21870", "parent_station": "NAQ:StopPlace:14322", "stop_timezone": null, "stop_url": null}, "geometry": {"type": "Point", "coordinates": [-0.023548, 45.71266]}}, {"type": "Feature", "properties": {"wheelchair_boarding": 2, "platform_code": null, "vehicle_type": null, "location_type": 0, "stop_desc": null, "stop_code": null, "zone_id": null, "stop_name": "ANGOULEME-GARE SNCF", "stop_id": "NAQ:Quay:21692", "parent_station": "NAQ:StopPlace:5750", "stop_timezone": null, "stop_url": null}, "geometry": {"type": "Point", "coordinates": [0.165175, 45.653057000000004]}}, {"type": "Feature", "properties": {"wheelchair_boarding": 2, "platform_code": null, "vehicle_type": null, "location_type": 0, "stop_desc": null, "stop_code": null, "zone_id": null, "stop_name": "ANGOULEME-Franquin", "stop_id": "NAQ:Quay:18251", "parent_station": "NAQ:StopPlace:6090", "stop_timezone": null, "stop_url": null}, "geometry": {"type": "Point", "coordinates": [0.159494, 45.64953]}}, {"type": "Feature", "properties": {"wheelchair_boarding": 2, "platform_code": null, "vehicle_type": 700.0, "location_type": 0, "stop_desc": null, "stop_code": null, "zone_id": null, "stop_name": "ANGOULEME-H\u00f4tel de Ville", "stop_id": "NAQ:Quay:27685", "parent_station": "NAQ:StopPlace:20010", "stop_timezone": null, "stop_url": null}, "geometry": {"type": "Point", "coordinates": [0.15540199999999998, 45.648315000000004]}}, {"type": "Feature", "properties": {"wheelchair_boarding": 2, "platform_code": null, "vehicle_type": null, "location_type": 0, "stop_desc": null, "stop_code": null, "zone_id": null, "stop_name": "ASNIERES Neuillac", "stop_id": "NAQ:Quay:9995", "parent_station": "NAQ:StopPlace:5673", "stop_timezone": null, "stop_url": null}, "geometry": {"type": "Point", "coordinates": [0.027924, 45.716136999999996]}}]}