{"type": "FeatureCollection", "features": [{"type": "Feature", "properties": {"route_id": "CHA:Line:LIGNE_05_20140305", "service_id": "CHA:Timetable:6", "trip_id": "CHA:VehicleJourney:LR05-01-A_20140305_1", "trip_headsign": "ANGOULEME Gare SNCF / ANGOULEME-GARE SNCF", "trip_short_name": null, "direction_id": 0, "wheelchair_accessible": 0, "shape_id": "shape_077"}, "geometry": {"type": "LineString", "coordinates": [[-0.015857, 45.8275], [0.02563, 45.798716999999996], [0.03665, 45.799209999999995], [0.046763, 45.800616999999995], [0.061214, 45.796402], [0.059008000000000005, 45.784218], [0.065497, 45.77112], [0.069935, 45.764920000000004], [0.083326, 45.75646], [0.076401, 45.743559999999995], [0.098103, 45.730927], [0.107401, 45.73186], [0.11314300000000001, 45.727092999999996], [0.122077, 45.722763], [0.120805, 45.719809999999995], [0.103832, 45.716293], [0.09807, 45.708775], [0.09417, 45.701813], [0.14946199999999998, 45.64922], [0.15540199999999998, 45.648315000000004], [0.159494, 45.64953], [0.165175, 45.653057000000004]]}}, {"type": "Feature", "properties": {"wheelchair_boarding": 2, "platform_code": null, "vehicle_type": null, "location_type": 0, "stop_desc": "PMR,Abri DEC,Poteau,Banc", "stop_code": null, "zone_id": null, "stop_name": "ANGOULEME-CATHEDRALE", "stop_id": "NAQ:Quay:10183", "parent_station": "NAQ:StopPlace:5768", "stop_timezone": null, "stop_url": null}, "geometry": {"type": "Point", "coordinates": [0.14946199999999998, 45.64922]}}, {"type": "Feature", "properties": {"wheelchair_boarding": 2, "platform_code": null, "vehicle_type": null, "location_type": 0, "stop_desc": null, "stop_code": null, "zone_id": null, "stop_name": "Le Figuier", "stop_id": "NAQ:Quay:10353", "parent_station": "NAQ:StopPlace:5853", "stop_timezone": null, "stop_url": null}, "geometry": {"type": "Point", "coordinates": [0.11314300000000001, 45.727092999999996]}}, {"type": "Feature", "properties": {"wheelchair_boarding": 2, "platform_code": null, "vehicle_type": null, "location_type": 0, "stop_desc": null, "stop_code": null, "zone_id": null, "stop_name": "Guissalle", "stop_id": "NAQ:Quay:10345", "parent_station": "NAQ:StopPlace:5848", "stop_timezone": null, "stop_url": null}, "geometry": {"type": "Point", "coordinates": [0.107401, 45.73186]}}, {"type": "Feature", "properties": {"wheelchair_boarding": 2, "platform_code": null, "vehicle_type": null, "location_type": 0, "stop_desc": null, "stop_code": null, "zone_id": null, "stop_name": "VINDELLE-COMBE THOMAS VC A.Bus", "stop_id": "NAQ:Quay:21763", "parent_station": "NAQ:StopPlace:14217", "stop_timezone": null, "stop_url": null}, "geometry": {"type": "Point", "coordinates": [0.098103, 45.730927]}}, {"type": "Feature", "properties": {"wheelchair_boarding": 2, "platform_code": null, "vehicle_type": null, "location_type": 0, "stop_desc": null, "stop_code": null, "zone_id": null, "stop_name": "GOURVILLE-ECOLE VC A.Bus n\u00b056", "stop_id": "NAQ:Quay:21761", "parent_station": "NAQ:StopPlace:14215", "stop_timezone": null, "stop_url": null}, "geometry": {"type": "Point", "coordinates": [-0.015857, 45.8275]}}, {"type": "Feature", "properties": {"wheelchair_boarding": 2, "platform_code": null, "vehicle_type": null, "location_type": 0, "stop_desc": null, "stop_code": null, "zone_id": null, "stop_name": "VINDELLE-LA MOTTE carf RD37 A.Bus", "stop_id": "NAQ:Quay:21762", "parent_station": "NAQ:StopPlace:14216", "stop_timezone": null, "stop_url": null}, "geometry": {"type": "Point", "coordinates": [0.103832, 45.716293]}}, {"type": "Feature", "properties": {"wheelchair_boarding": 2, "platform_code": null, "vehicle_type": null, "location_type": 0, "stop_desc": null, "stop_code": null, "zone_id": null, "stop_name": "VINDELLE-MAIRIE carf RD37/406", "stop_id": "NAQ:Quay:21760", "parent_station": "NAQ:StopPlace:14214", "stop_timezone": null, "stop_url": null}, "geometry": {"type": "Point", "coordinates": [0.120805, 45.719809999999995]}}, {"type": "Feature", "properties": {"wheelchair_boarding": 2, "platform_code": null, "vehicle_type": null, "location_type": 0, "stop_desc": null, "stop_code": null, "zone_id": null, "stop_name": "ST-GENIS-BASSE RD11 Encoche 1/2t", "stop_id": "NAQ:Quay:21749", "parent_station": "NAQ:StopPlace:14203", "stop_timezone": null, "stop_url": null}, "geometry": {"type": "Point", "coordinates": [0.065497, 45.77112]}}, {"type": "Feature", "properties": {"wheelchair_boarding": 2, "platform_code": null, "vehicle_type": null, "location_type": 0, "stop_desc": null, "stop_code": null, "zone_id": null, "stop_name": "GENAC-L'OUMADE carf RD117/VC", "stop_id": "NAQ:Quay:21747", "parent_station": "NAQ:StopPlace:14201", "stop_timezone": null, "stop_url": null}, "geometry": {"type": "Point", "coordinates": [0.046763, 45.800616999999995]}}, {"type": "Feature", "properties": {"wheelchair_boarding": 2, "platform_code": null, "vehicle_type": null, "location_type": 0, "stop_desc": null, "stop_code": null, "zone_id": null, "stop_name": "BIGNAC-MAIRIE RD117 D\u00e9g.gravier", "stop_id": "NAQ:Quay:21748", "parent_station": "NAQ:StopPlace:14202", "stop_timezone": null, "stop_url": null}, "geometry": {"type": "Point", "coordinates": [0.059008000000000005, 45.784218]}}, {"type": "Feature", "properties": {"wheelchair_boarding": 2, "platform_code": null, "vehicle_type": null, "location_type": 0, "stop_desc": null, "stop_code": null, "zone_id": null, "stop_name": "MARSAC-ECOLE RD96 A.Bus", "stop_id": "NAQ:Quay:21758", "parent_station": "NAQ:StopPlace:14212", "stop_timezone": null, "stop_url": null}, "geometry": {"type": "Point", "coordinates": [0.076401, 45.743559999999995]}}, {"type": "Feature", "properties": {"wheelchair_boarding": 2, "platform_code": null, "vehicle_type": null, "location_type": 0, "stop_desc": null, "stop_code": null, "zone_id": null, "stop_name": "VINDELLE-JARDINS PUBLICS VC A.Bus", "stop_id": "NAQ:Quay:21759", "parent_station": "NAQ:StopPlace:14213", "stop_timezone": null, "stop_url": null}, "geometry": {"type": "Point", "coordinates": [0.122077, 45.722763]}}, {"type": "Feature", "properties": {"wheelchair_boarding": 2, "platform_code": null, "vehicle_type": null, "location_type": 0, "stop_desc": null, "stop_code": null, "zone_id": null, "stop_name": "MARSAC-LAGROUX Borne Incendie", "stop_id": "NAQ:Quay:21756", "parent_station": "NAQ:StopPlace:14210", "stop_timezone": null, "stop_url": null}, "geometry": {"type": "Point", "coordinates": [0.083326, 45.75646]}}, {"type": "Feature", "properties": {"wheelchair_boarding": 2, "platform_code": null, "vehicle_type": null, "location_type": 0, "stop_desc": null, "stop_code": null, "zone_id": null, "stop_name": "ST-YRIEIX-L'EBEAUPIN D939 Encoche", "stop_id": "NAQ:Quay:21754", "parent_station": "NAQ:StopPlace:14208", "stop_timezone": null, "stop_url": null}, "geometry": {"type": "Point", "coordinates": [0.09417, 45.701813]}}, {"type": "Feature", "properties": {"wheelchair_boarding": 2, "platform_code": null, "vehicle_type": null, "location_type": 0, "stop_desc": null, "stop_code": null, "zone_id": null, "stop_name": "GENAC-ECQUECHAVE carf RD117/VC AB", "stop_id": "NAQ:Quay:21755", "parent_station": "NAQ:StopPlace:14209", "stop_timezone": null, "stop_url": null}, "geometry": {"type": "Point", "coordinates": [0.03665, 45.799209999999995]}}, {"type": "Feature", "properties": {"wheelchair_boarding": 2, "platform_code": null, "vehicle_type": null, "location_type": 0, "stop_desc": null, "stop_code": null, "zone_id": null, "stop_name": "VINDELLE-LE CLUZEAU carf RD37/VC", "stop_id": "NAQ:Quay:21752", "parent_station": "NAQ:StopPlace:14206", "stop_timezone": null, "stop_url": null}, "geometry": {"type": "Point", "coordinates": [0.09807, 45.708775]}}, {"type": "Feature", "properties": {"wheelchair_boarding": 2, "platform_code": null, "vehicle_type": null, "location_type": 0, "stop_desc": null, "stop_code": null, "zone_id": null, "stop_name": "BIGNAC-LAVOIR carf RD117/358", "stop_id": "NAQ:Quay:21753", "parent_station": "NAQ:StopPlace:14207", "stop_timezone": null, "stop_url": null}, "geometry": {"type": "Point", "coordinates": [0.061214, 45.796402]}}, {"type": "Feature", "properties": {"wheelchair_boarding": 2, "platform_code": null, "vehicle_type": null, "location_type": 0, "stop_desc": null, "stop_code": null, "zone_id": null, "stop_name": "ST-GENIS-BOISROUFFIER carf RD387", "stop_id": "NAQ:Quay:21750", "parent_station": "NAQ:StopPlace:14204", "stop_timezone": null, "stop_url": null}, "geometry": {"type": "Point", "coordinates": [0.069935, 45.764920000000004]}}, {"type": "Feature", "properties": {"wheelchair_boarding": 2, "platform_code": null, "vehicle_type": null, "location_type": 0, "stop_desc": null, "stop_code": null, "zone_id": null, "stop_name": "GENAC-EGLISE RD19 D\u00e9g.goudron", "stop_id": "NAQ:Quay:21751", "parent_station": "NAQ:StopPlace:14205", "stop_timezone": null, "stop_url": null}, "geometry": {"type": "Point", "coordinates": [0.02563, 45.798716999999996]}}, {"type": "Feature", "properties": {"wheelchair_boarding": 2, "platform_code": null, "vehicle_type": null, "location_type": 0, "stop_desc": null, "stop_code": null, "zone_id": null, "stop_name": "ANGOULEME-GARE SNCF", "stop_id": "NAQ:Quay:21692", "parent_station": "NAQ:StopPlace:5750", "stop_timezone": null, "stop_url": null}, "geometry": {"type": "Point", "coordinates": [0.165175, 45.653057000000004]}}, {"type": "Feature", "properties": {"wheelchair_boarding": 2, "platform_code": null, "vehicle_type": null, "location_type": 0, "stop_desc": null, "stop_code": null, "zone_id": null, "stop_name": "ANGOULEME-Franquin", "stop_id": "NAQ:Quay:18251", "parent_station": "NAQ:StopPlace:6090", "stop_timezone": null, "stop_url": null}, "geometry": {"type": "Point", "coordinates": [0.159494, 45.64953]}}, {"type": "Feature", "properties": {"wheelchair_boarding": 2, "platform_code": null, "vehicle_type": 700.0, "location_type": 0, "stop_desc": null, "stop_code": null, "zone_id": null, "stop_name": "ANGOULEME-H\u00f4tel de Ville", "stop_id": "NAQ:Quay:27685", "parent_station": "NAQ:StopPlace:20010", "stop_timezone": null, "stop_url": null}, "geometry": {"type": "Point", "coordinates": [0.15540199999999998, 45.648315000000004]}}]}