{"type": "FeatureCollection", "features": [{"type": "Feature", "properties": {"route_id": "CHA:Line:LIGNE_04_20140305", "service_id": "CHA:Timetable:10", "trip_id": "CHA:VehicleJourney:LR04-03-A_20140305_1", "trip_headsign": "TUSSON-PLACE Poste RD736 A.Bus", "trip_short_name": null, "direction_id": 0, "wheelchair_accessible": 0, "shape_id": "shape_067"}, "geometry": {"type": "LineString", "coordinates": [[0.18900999999999998, 46.02576], [0.20460599999999998, 46.031918], [0.133664, 45.98742], [0.116369, 45.951225], [0.067328, 45.935134999999995], [0.016108, 45.897858], [0.009131, 45.89398], [0.015161, 45.853962], [0.019771, 45.846226], [0.025619, 45.843464000000004], [0.038758, 45.837894], [0.074697, 45.814728], [0.123401, 45.783229999999996], [0.12579400000000002, 45.77564], [0.12396300000000002, 45.762253], [0.127641, 45.760876], [0.140433, 45.75888], [0.14535499999999998, 45.717453000000006], [0.145405, 45.71165], [0.146458, 45.708527000000004], [0.14946800000000002, 45.698826000000004], [0.155678, 45.69107], [0.171854, 45.658584999999995], [0.165175, 45.653057000000004], [0.159494, 45.64953], [0.15540199999999998, 45.648315000000004], [0.14946199999999998, 45.64922], [0.067328, 45.935134999999995]]}}, {"type": "Feature", "properties": {"wheelchair_boarding": 2, "platform_code": null, "vehicle_type": null, "location_type": 0, "stop_desc": null, "stop_code": null, "zone_id": null, "stop_name": "Champ du ch\u00eane", "stop_id": "NAQ:Quay:10298", "parent_station": "NAQ:StopPlace:5825", "stop_timezone": null, "stop_url": null}, "geometry": {"type": "Point", "coordinates": [0.14946800000000002, 45.698826000000004]}}, {"type": "Feature", "properties": {"wheelchair_boarding": 2, "platform_code": null, "vehicle_type": null, "location_type": 0, "stop_desc": "PMR,Abri DEC,Poteau,Banc", "stop_code": null, "zone_id": null, "stop_name": "ANGOULEME-CATHEDRALE", "stop_id": "NAQ:Quay:10183", "parent_station": "NAQ:StopPlace:5768", "stop_timezone": null, "stop_url": null}, "geometry": {"type": "Point", "coordinates": [0.14946199999999998, 45.64922]}}, {"type": "Feature", "properties": {"wheelchair_boarding": 2, "platform_code": null, "vehicle_type": null, "location_type": 0, "stop_desc": null, "stop_code": null, "zone_id": null, "stop_name": "TUSSON-PLACE Poste RD736 A.Bus", "stop_id": "NAQ:Quay:21741", "parent_station": "NAQ:StopPlace:14196", "stop_timezone": null, "stop_url": null}, "geometry": {"type": "Point", "coordinates": [0.067328, 45.935134999999995]}}, {"type": "Feature", "properties": {"wheelchair_boarding": 2, "platform_code": null, "vehicle_type": null, "location_type": 0, "stop_desc": null, "stop_code": null, "zone_id": null, "stop_name": "VARS-PLACE Mairie RD11 A.Bus", "stop_id": "NAQ:Quay:21740", "parent_station": "NAQ:StopPlace:14195", "stop_timezone": null, "stop_url": null}, "geometry": {"type": "Point", "coordinates": [0.12396300000000002, 45.762253]}}, {"type": "Feature", "properties": {"wheelchair_boarding": 2, "platform_code": null, "vehicle_type": null, "location_type": 0, "stop_desc": null, "stop_code": null, "zone_id": null, "stop_name": "Chalonne", "stop_id": "NAQ:Quay:10312", "parent_station": "NAQ:StopPlace:5833", "stop_timezone": null, "stop_url": null}, "geometry": {"type": "Point", "coordinates": [0.155678, 45.69107]}}, {"type": "Feature", "properties": {"wheelchair_boarding": 2, "platform_code": null, "vehicle_type": null, "location_type": 0, "stop_desc": null, "stop_code": null, "zone_id": null, "stop_name": "ANGOULEME-GARE SNCF", "stop_id": "NAQ:Quay:21692", "parent_station": "NAQ:StopPlace:5750", "stop_timezone": null, "stop_url": null}, "geometry": {"type": "Point", "coordinates": [0.165175, 45.653057000000004]}}, {"type": "Feature", "properties": {"wheelchair_boarding": 2, "platform_code": null, "vehicle_type": null, "location_type": 0, "stop_desc": null, "stop_code": null, "zone_id": null, "stop_name": "ANGOULEME-Franquin", "stop_id": "NAQ:Quay:18251", "parent_station": "NAQ:StopPlace:6090", "stop_timezone": null, "stop_url": null}, "geometry": {"type": "Point", "coordinates": [0.159494, 45.64953]}}, {"type": "Feature", "properties": {"wheelchair_boarding": 2, "platform_code": null, "vehicle_type": null, "location_type": 0, "stop_desc": null, "stop_code": null, "zone_id": null, "stop_name": "Place de la libert\u00e9", "stop_id": "NAQ:Quay:10421", "parent_station": "NAQ:StopPlace:5885", "stop_timezone": null, "stop_url": null}, "geometry": {"type": "Point", "coordinates": [0.145405, 45.71165]}}, {"type": "Feature", "properties": {"wheelchair_boarding": 2, "platform_code": null, "vehicle_type": 700.0, "location_type": 0, "stop_desc": null, "stop_code": null, "zone_id": null, "stop_name": "ANGOULEME-H\u00f4tel de Ville", "stop_id": "NAQ:Quay:27685", "parent_station": "NAQ:StopPlace:20010", "stop_timezone": null, "stop_url": null}, "geometry": {"type": "Point", "coordinates": [0.15540199999999998, 45.648315000000004]}}, {"type": "Feature", "properties": {"wheelchair_boarding": 2, "platform_code": null, "vehicle_type": null, "location_type": 0, "stop_desc": null, "stop_code": null, "zone_id": null, "stop_name": "VOUHARTE-PLACE 1/2t RD737 A.Bus", "stop_id": "NAQ:Quay:21725", "parent_station": "NAQ:StopPlace:14181", "stop_timezone": null, "stop_url": null}, "geometry": {"type": "Point", "coordinates": [0.074697, 45.814728]}}, {"type": "Feature", "properties": {"wheelchair_boarding": 2, "platform_code": null, "vehicle_type": null, "location_type": 0, "stop_desc": null, "stop_code": null, "zone_id": null, "stop_name": "LA CHAPELLE-MAIRIE carf RD737/VC", "stop_id": "NAQ:Quay:21723", "parent_station": "NAQ:StopPlace:14179", "stop_timezone": null, "stop_url": null}, "geometry": {"type": "Point", "coordinates": [0.038758, 45.837894]}}, {"type": "Feature", "properties": {"wheelchair_boarding": 2, "platform_code": null, "vehicle_type": null, "location_type": 0, "stop_desc": null, "stop_code": null, "zone_id": null, "stop_name": "MARCILLAC-MAIRIE RD737 A.Bus n\u00b070", "stop_id": "NAQ:Quay:21721", "parent_station": "NAQ:StopPlace:14177", "stop_timezone": null, "stop_url": null}, "geometry": {"type": "Point", "coordinates": [0.019771, 45.846226]}}, {"type": "Feature", "properties": {"wheelchair_boarding": 2, "platform_code": null, "vehicle_type": null, "location_type": 0, "stop_desc": null, "stop_code": null, "zone_id": null, "stop_name": "VARS-BASCULE", "stop_id": "NAQ:Quay:21720", "parent_station": "NAQ:StopPlace:14176", "stop_timezone": null, "stop_url": null}, "geometry": {"type": "Point", "coordinates": [0.127641, 45.760876]}}, {"type": "Feature", "properties": {"wheelchair_boarding": 2, "platform_code": null, "vehicle_type": null, "location_type": 0, "stop_desc": null, "stop_code": null, "zone_id": null, "stop_name": "RUFFEC-SALLE DES GRANDS ROCS", "stop_id": "NAQ:Quay:21738", "parent_station": "NAQ:StopPlace:14193", "stop_timezone": null, "stop_url": null}, "geometry": {"type": "Point", "coordinates": [0.20460599999999998, 46.031918]}}, {"type": "Feature", "properties": {"wheelchair_boarding": 2, "platform_code": null, "vehicle_type": null, "location_type": 0, "stop_desc": null, "stop_code": null, "zone_id": null, "stop_name": "MONTIGNAC-PLACE Dr FEUILLET carf", "stop_id": "NAQ:Quay:21739", "parent_station": "NAQ:StopPlace:14194", "stop_timezone": null, "stop_url": null}, "geometry": {"type": "Point", "coordinates": [0.123401, 45.783229999999996]}}, {"type": "Feature", "properties": {"wheelchair_boarding": 2, "platform_code": null, "vehicle_type": null, "location_type": 0, "stop_desc": null, "stop_code": null, "zone_id": null, "stop_name": "RUFFEC-LEP LOUISE MICHEL", "stop_id": "NAQ:Quay:21732", "parent_station": "NAQ:StopPlace:14187", "stop_timezone": null, "stop_url": null}, "geometry": {"type": "Point", "coordinates": [0.18900999999999998, 46.02576]}}, {"type": "Feature", "properties": {"wheelchair_boarding": 2, "platform_code": null, "vehicle_type": null, "location_type": 0, "stop_desc": null, "stop_code": null, "zone_id": null, "stop_name": "COURCOME-PLACE RD736 D\u00e9g.goudron", "stop_id": "NAQ:Quay:21733", "parent_station": "NAQ:StopPlace:14188", "stop_timezone": null, "stop_url": null}, "geometry": {"type": "Point", "coordinates": [0.133664, 45.98742]}}, {"type": "Feature", "properties": {"wheelchair_boarding": 2, "platform_code": null, "vehicle_type": null, "location_type": 0, "stop_desc": null, "stop_code": null, "zone_id": null, "stop_name": "MARCILLAC-LANVILLE RD737 AB n\u00b069", "stop_id": "NAQ:Quay:21731", "parent_station": "NAQ:StopPlace:14186", "stop_timezone": null, "stop_url": null}, "geometry": {"type": "Point", "coordinates": [0.015161, 45.853962]}}, {"type": "Feature", "properties": {"wheelchair_boarding": 2, "platform_code": null, "vehicle_type": null, "location_type": 0, "stop_desc": null, "stop_code": null, "zone_id": null, "stop_name": "VILLEJESUS-LA CHAUSSEE RD736", "stop_id": "NAQ:Quay:21706", "parent_station": "NAQ:StopPlace:14162", "stop_timezone": null, "stop_url": null}, "geometry": {"type": "Point", "coordinates": [0.016108, 45.897858]}}, {"type": "Feature", "properties": {"wheelchair_boarding": 2, "platform_code": null, "vehicle_type": null, "location_type": 0, "stop_desc": null, "stop_code": null, "zone_id": null, "stop_name": "ANGOULEME-MADELEINE (la)", "stop_id": "NAQ:Quay:21701", "parent_station": "NAQ:StopPlace:14158", "stop_timezone": null, "stop_url": null}, "geometry": {"type": "Point", "coordinates": [0.171854, 45.658584999999995]}}, {"type": "Feature", "properties": {"wheelchair_boarding": 2, "platform_code": null, "vehicle_type": null, "location_type": 0, "stop_desc": null, "stop_code": null, "zone_id": null, "stop_name": "BALZAC-LES LABBES RD737 ABus n\u00b022", "stop_id": "NAQ:Quay:21707", "parent_station": "NAQ:StopPlace:14163", "stop_timezone": null, "stop_url": null}, "geometry": {"type": "Point", "coordinates": [0.146458, 45.708527000000004]}}, {"type": "Feature", "properties": {"wheelchair_boarding": 2, "platform_code": null, "vehicle_type": null, "location_type": 0, "stop_desc": null, "stop_code": null, "zone_id": null, "stop_name": "VARS- COOPERATIVE AB RD11", "stop_id": "NAQ:Quay:21708", "parent_station": "NAQ:StopPlace:14164", "stop_timezone": null, "stop_url": null}, "geometry": {"type": "Point", "coordinates": [0.140433, 45.75888]}}, {"type": "Feature", "properties": {"wheelchair_boarding": 2, "platform_code": null, "vehicle_type": null, "location_type": 0, "stop_desc": null, "stop_code": null, "zone_id": null, "stop_name": "MONTIGNAC-Av.Marg.Valois RD737", "stop_id": "NAQ:Quay:21717", "parent_station": "NAQ:StopPlace:14173", "stop_timezone": null, "stop_url": null}, "geometry": {"type": "Point", "coordinates": [0.12579400000000002, 45.77564]}}, {"type": "Feature", "properties": {"wheelchair_boarding": 2, "platform_code": null, "vehicle_type": null, "location_type": 0, "stop_desc": null, "stop_code": null, "zone_id": null, "stop_name": "BALZAC-LE RENFERME RD737 AB n\u00b023", "stop_id": "NAQ:Quay:21712", "parent_station": "NAQ:StopPlace:14168", "stop_timezone": null, "stop_url": null}, "geometry": {"type": "Point", "coordinates": [0.14535499999999998, 45.717453000000006]}}, {"type": "Feature", "properties": {"wheelchair_boarding": 2, "platform_code": null, "vehicle_type": null, "location_type": 0, "stop_desc": null, "stop_code": null, "zone_id": null, "stop_name": "AIGRE-PLACE DE LA POSTE", "stop_id": "NAQ:Quay:21711", "parent_station": "NAQ:StopPlace:14167", "stop_timezone": null, "stop_url": null}, "geometry": {"type": "Point", "coordinates": [0.009131, 45.89398]}}, {"type": "Feature", "properties": {"wheelchair_boarding": 2, "platform_code": null, "vehicle_type": null, "location_type": 0, "stop_desc": null, "stop_code": null, "zone_id": null, "stop_name": "MARCILLAC-PONT ROUX RD737", "stop_id": "NAQ:Quay:21718", "parent_station": "NAQ:StopPlace:14174", "stop_timezone": null, "stop_url": null}, "geometry": {"type": "Point", "coordinates": [0.025619, 45.843464000000004]}}, {"type": "Feature", "properties": {"wheelchair_boarding": 2, "platform_code": null, "vehicle_type": null, "location_type": 0, "stop_desc": null, "stop_code": null, "zone_id": null, "stop_name": "CHARME-POSTE RD736", "stop_id": "NAQ:Quay:21719", "parent_station": "NAQ:StopPlace:14175", "stop_timezone": null, "stop_url": null}, "geometry": {"type": "Point", "coordinates": [0.116369, 45.951225]}}]}