{"type": "FeatureCollection", "features": [{"type": "Feature", "properties": {"route_id": "ter.OCE125", "service_id": "ter.14779", "trip_id": "ter.OCESN861433F0100263893", "trip_headsign": "861433", "trip_short_name": "861433", "direction_id": 1, "wheelchair_accessible": 0, "shape_id": "shape_204"}, "geometry": {"type": "LineString", "coordinates": [[1.9047528999999999, 47.908153999999996], [1.9475692999999998, 47.819195], [1.9323366999999998, 47.72097], [2.022591, 47.59397], [2.033265, 47.534058], [2.0477369999999997, 47.42514], [2.0444746, 47.314353999999994], [2.0598240000000003, 47.226517], [2.0471817999999997, 47.086014], [1.9849212, 46.94785], [1.8628082, 46.882687], [1.6994567999999999, 46.809822], [1.5896213, 46.73505], [1.5628369, 46.694717], [1.5078528999999998, 46.62644], [1.5182306, 46.592224], [1.5523652000000001, 46.440490000000004], [1.5465200000000001, 46.386036], [1.4922343, 46.23975], [1.4762826, 46.046867], [1.4065024, 45.9529], [1.2674521, 45.836209999999994]]}}, {"type": "Feature", "properties": {"stop_name": "Gare de Vierzon", "stop_code": null, "stop_url": null, "stop_desc": null, "location_type": 0, "parent_station": "ter.StopArea_OCE87576009", "stop_id": "ter.StopPoint_OCETrain_TER-87576009", "stop_timezone": null, "zone_id": null, "wheelchair_boarding": 2}, "geometry": {"type": "Point", "coordinates": [2.0598240000000003, 47.226517]}}, {"type": "Feature", "properties": {"stop_name": "Gare de Eguzon", "stop_code": null, "stop_url": null, "stop_desc": null, "location_type": 0, "parent_station": "ter.StopArea_OCE87597153", "stop_id": "ter.StopPoint_OCETrain_TER-87597153", "stop_timezone": null, "zone_id": null, "wheelchair_boarding": 2}, "geometry": {"type": "Point", "coordinates": [1.5523652000000001, 46.440490000000004]}}, {"type": "Feature", "properties": {"stop_name": "Gare de St-Cyr-en-Val-La-Source", "stop_code": null, "stop_url": null, "stop_desc": null, "location_type": 0, "parent_station": "ter.StopArea_OCE87543116", "stop_id": "ter.StopPoint_OCETrain_TER-87543116", "stop_timezone": null, "zone_id": null, "wheelchair_boarding": 2}, "geometry": {"type": "Point", "coordinates": [1.9475692999999998, 47.819195]}}, {"type": "Feature", "properties": {"stop_name": "Gare de La Fert\u00e9-St-Aubin", "stop_code": null, "stop_url": null, "stop_desc": null, "location_type": 0, "parent_station": "ter.StopArea_OCE87543124", "stop_id": "ter.StopPoint_OCETrain_TER-87543124", "stop_timezone": null, "zone_id": null, "wheelchair_boarding": 2}, "geometry": {"type": "Point", "coordinates": [1.9323366999999998, 47.72097]}}, {"type": "Feature", "properties": {"stop_name": "Gare de Nouan-le-Fuzelier", "stop_code": null, "stop_url": null, "stop_desc": null, "location_type": 0, "parent_station": "ter.StopArea_OCE87543157", "stop_id": "ter.StopPoint_OCETrain_TER-87543157", "stop_timezone": null, "zone_id": null, "wheelchair_boarding": 2}, "geometry": {"type": "Point", "coordinates": [2.033265, 47.534058]}}, {"type": "Feature", "properties": {"stop_name": "Gare de Ambazac", "stop_code": null, "stop_url": null, "stop_desc": null, "location_type": 0, "parent_station": "ter.StopArea_OCE87592311", "stop_id": "ter.StopPoint_OCETrain_TER-87592311", "stop_timezone": null, "zone_id": null, "wheelchair_boarding": 2}, "geometry": {"type": "Point", "coordinates": [1.4065024, 45.9529]}}, {"type": "Feature", "properties": {"stop_name": "Gare de Lamotte-Beuvron", "stop_code": null, "stop_url": null, "stop_desc": null, "location_type": 0, "parent_station": "ter.StopArea_OCE87543140", "stop_id": "ter.StopPoint_OCETrain_TER-87543140", "stop_timezone": null, "zone_id": null, "wheelchair_boarding": 2}, "geometry": {"type": "Point", "coordinates": [2.022591, 47.59397]}}, {"type": "Feature", "properties": {"stop_name": "Gare de Salbris", "stop_code": null, "stop_url": null, "stop_desc": null, "location_type": 0, "parent_station": "ter.StopArea_OCE87543165", "stop_id": "ter.StopPoint_OCETrain_TER-87543165", "stop_timezone": null, "zone_id": null, "wheelchair_boarding": 2}, "geometry": {"type": "Point", "coordinates": [2.0477369999999997, 47.42514]}}, {"type": "Feature", "properties": {"stop_name": "Gare de Theillay", "stop_code": null, "stop_url": null, "stop_desc": null, "location_type": 0, "parent_station": "ter.StopArea_OCE87543199", "stop_id": "ter.StopPoint_OCETrain_TER-87543199", "stop_timezone": null, "zone_id": null, "wheelchair_boarding": 2}, "geometry": {"type": "Point", "coordinates": [2.0444746, 47.314353999999994]}}, {"type": "Feature", "properties": {"stop_name": "Gare de St-Sulpice-Lauri\u00e8re", "stop_code": null, "stop_url": null, "stop_desc": null, "location_type": 0, "parent_station": "ter.StopArea_OCE87592345", "stop_id": "ter.StopPoint_OCETrain_TER-87592345", "stop_timezone": null, "zone_id": null, "wheelchair_boarding": 2}, "geometry": {"type": "Point", "coordinates": [1.4762826, 46.046867]}}, {"type": "Feature", "properties": {"stop_name": "Gare de La Souterraine", "stop_code": null, "stop_url": null, "stop_desc": null, "location_type": 0, "parent_station": "ter.StopArea_OCE87592378", "stop_id": "ter.StopPoint_OCETrain_TER-87592378", "stop_timezone": null, "zone_id": null, "wheelchair_boarding": 2}, "geometry": {"type": "Point", "coordinates": [1.4922343, 46.23975]}}, {"type": "Feature", "properties": {"stop_name": "Gare de Ch\u00e2teauroux", "stop_code": null, "stop_url": null, "stop_desc": null, "location_type": 0, "parent_station": "ter.StopArea_OCE87597005", "stop_id": "ter.StopPoint_OCETrain_TER-87597005", "stop_timezone": null, "zone_id": null, "wheelchair_boarding": 2}, "geometry": {"type": "Point", "coordinates": [1.6994567999999999, 46.809822]}}, {"type": "Feature", "properties": {"stop_name": "Gare de Reuilly (Indre)", "stop_code": null, "stop_url": null, "stop_desc": null, "location_type": 0, "parent_station": "ter.StopArea_OCE87597039", "stop_id": "ter.StopPoint_OCETrain_TER-87597039", "stop_timezone": null, "zone_id": null, "wheelchair_boarding": 2}, "geometry": {"type": "Point", "coordinates": [2.0471817999999997, 47.086014]}}, {"type": "Feature", "properties": {"stop_name": "Gare de Luant", "stop_code": null, "stop_url": null, "stop_desc": null, "location_type": 0, "parent_station": "ter.StopArea_OCE87597096", "stop_id": "ter.StopPoint_OCETrain_TER-87597096", "stop_timezone": null, "zone_id": null, "wheelchair_boarding": 2}, "geometry": {"type": "Point", "coordinates": [1.5896213, 46.73505]}}, {"type": "Feature", "properties": {"stop_name": "Gare de Neuvy-Pailloux", "stop_code": null, "stop_url": null, "stop_desc": null, "location_type": 0, "parent_station": "ter.StopArea_OCE87597070", "stop_id": "ter.StopPoint_OCETrain_TER-87597070", "stop_timezone": null, "zone_id": null, "wheelchair_boarding": 2}, "geometry": {"type": "Point", "coordinates": [1.8628082, 46.882687]}}, {"type": "Feature", "properties": {"stop_name": "Gare de Orl\u00e9ans", "stop_code": null, "stop_url": null, "stop_desc": null, "location_type": 0, "parent_station": "ter.StopArea_OCE87543009", "stop_id": "ter.StopPoint_OCETrain_TER-87543009", "stop_timezone": null, "zone_id": null, "wheelchair_boarding": 2}, "geometry": {"type": "Point", "coordinates": [1.9047528999999999, 47.908153999999996]}}, {"type": "Feature", "properties": {"stop_name": "Gare de Issoudun", "stop_code": null, "stop_url": null, "stop_desc": null, "location_type": 0, "parent_station": "ter.StopArea_OCE87597062", "stop_id": "ter.StopPoint_OCETrain_TER-87597062", "stop_timezone": null, "zone_id": null, "wheelchair_boarding": 2}, "geometry": {"type": "Point", "coordinates": [1.9849212, 46.94785]}}, {"type": "Feature", "properties": {"stop_name": "Gare de Limoges-B\u00e9n\u00e9dictins", "stop_code": null, "stop_url": null, "stop_desc": null, "location_type": 0, "parent_station": "ter.StopArea_OCE87592006", "stop_id": "ter.StopPoint_OCETrain_TER-87592006", "stop_timezone": null, "zone_id": null, "wheelchair_boarding": 2}, "geometry": {"type": "Point", "coordinates": [1.2674521, 45.836209999999994]}}, {"type": "Feature", "properties": {"stop_name": "Gare de St-S\u00e9bastien", "stop_code": null, "stop_url": null, "stop_desc": null, "location_type": 0, "parent_station": "ter.StopArea_OCE87592493", "stop_id": "ter.StopPoint_OCETrain_TER-87592493", "stop_timezone": null, "zone_id": null, "wheelchair_boarding": 2}, "geometry": {"type": "Point", "coordinates": [1.5465200000000001, 46.386036]}}, {"type": "Feature", "properties": {"stop_name": "Gare de Argenton-sur-Creuse", "stop_code": null, "stop_url": null, "stop_desc": null, "location_type": 0, "parent_station": "ter.StopArea_OCE87597120", "stop_id": "ter.StopPoint_OCETrain_TER-87597120", "stop_timezone": null, "zone_id": null, "wheelchair_boarding": 2}, "geometry": {"type": "Point", "coordinates": [1.5182306, 46.592224]}}, {"type": "Feature", "properties": {"stop_name": "Gare de Chabenet", "stop_code": null, "stop_url": null, "stop_desc": null, "location_type": 0, "parent_station": "ter.StopArea_OCE87597112", "stop_id": "ter.StopPoint_OCETrain_TER-87597112", "stop_timezone": null, "zone_id": null, "wheelchair_boarding": 2}, "geometry": {"type": "Point", "coordinates": [1.5078528999999998, 46.62644]}}, {"type": "Feature", "properties": {"stop_name": "Gare de Lothiers", "stop_code": null, "stop_url": null, "stop_desc": null, "location_type": 0, "parent_station": "ter.StopArea_OCE87597104", "stop_id": "ter.StopPoint_OCETrain_TER-87597104", "stop_timezone": null, "zone_id": null, "wheelchair_boarding": 2}, "geometry": {"type": "Point", "coordinates": [1.5628369, 46.694717]}}]}