{"type": "FeatureCollection", "features": [{"type": "Feature", "properties": {"route_id": "ter.OCE4627", "service_id": "ter.15420", "trip_id": "ter.OCESN876205F0200466616", "trip_headsign": "876205", "trip_short_name": "876205", "direction_id": 0, "wheelchair_accessible": 0, "shape_id": "shape_632"}, "geometry": {"type": "LineString", "coordinates": [[4.365835700000001, 43.832294], [4.130807, 43.679516], [3.8823602, 43.605835], [3.849706, 43.543453], [3.7995845999999998, 43.50097], [3.7590148, 43.444588], [3.696396, 43.41281], [3.5356367, 43.318275], [3.46602, 43.317574], [3.4255923999999998, 43.315815], [3.219218, 43.336224], [3.0508661, 43.233709999999995], [3.0059563999999996, 43.191032], [2.7698567, 43.19997], [2.3518832, 43.217715999999996], [2.1195557000000003, 43.243706], [1.9509894, 43.312645], [1.7144996, 43.398453], [1.6206871, 43.453552], [1.5424316, 43.51704], [1.5129578000000001, 43.547462], [1.4802389999999999, 43.573692], [1.4535576000000001, 43.611465]]}}, {"type": "Feature", "properties": {"stop_name": "Gare de Marseillan-Plage", "stop_code": null, "stop_url": null, "stop_desc": null, "location_type": 0, "parent_station": "ter.StopArea_OCE87781294", "stop_id": "ter.StopPoint_OCETrain_TER-87781294", "stop_timezone": null, "zone_id": null, "wheelchair_boarding": 2}, "geometry": {"type": "Point", "coordinates": [3.5356367, 43.318275]}}, {"type": "Feature", "properties": {"stop_name": "Gare de Lunel", "stop_code": null, "stop_url": null, "stop_desc": null, "location_type": 0, "parent_station": "ter.StopArea_OCE87773408", "stop_id": "ter.StopPoint_OCETrain_TER-87773408", "stop_timezone": null, "zone_id": null, "wheelchair_boarding": 2}, "geometry": {"type": "Point", "coordinates": [4.130807, 43.679516]}}, {"type": "Feature", "properties": {"stop_name": "Gare de Vias", "stop_code": null, "stop_url": null, "stop_desc": null, "location_type": 0, "parent_station": "ter.StopArea_OCE87781260", "stop_id": "ter.StopPoint_OCETrain_TER-87781260", "stop_timezone": null, "zone_id": null, "wheelchair_boarding": 2}, "geometry": {"type": "Point", "coordinates": [3.4255923999999998, 43.315815]}}, {"type": "Feature", "properties": {"stop_name": "Gare de Agde", "stop_code": null, "stop_url": null, "stop_desc": null, "location_type": 0, "parent_station": "ter.StopArea_OCE87781278", "stop_id": "ter.StopPoint_OCETrain_TER-87781278", "stop_timezone": null, "zone_id": null, "wheelchair_boarding": 2}, "geometry": {"type": "Point", "coordinates": [3.46602, 43.317574]}}, {"type": "Feature", "properties": {"stop_name": "Gare de B\u00e9ziers", "stop_code": null, "stop_url": null, "stop_desc": null, "location_type": 0, "parent_station": "ter.StopArea_OCE87781005", "stop_id": "ter.StopPoint_OCETrain_TER-87781005", "stop_timezone": null, "zone_id": null, "wheelchair_boarding": 2}, "geometry": {"type": "Point", "coordinates": [3.219218, 43.336224]}}, {"type": "Feature", "properties": {"stop_name": "Gare de Bazi\u00e8ge", "stop_code": null, "stop_url": null, "stop_desc": null, "location_type": 0, "parent_station": "ter.StopArea_OCE87611723", "stop_id": "ter.StopPoint_OCETrain_TER-87611723", "stop_timezone": null, "zone_id": null, "wheelchair_boarding": 2}, "geometry": {"type": "Point", "coordinates": [1.6206871, 43.453552]}}, {"type": "Feature", "properties": {"stop_name": "Gare de Carcassonne", "stop_code": null, "stop_url": null, "stop_desc": null, "location_type": 0, "parent_station": "ter.StopArea_OCE87615286", "stop_id": "ter.StopPoint_OCETrain_TER-87615286", "stop_timezone": null, "zone_id": null, "wheelchair_boarding": 2}, "geometry": {"type": "Point", "coordinates": [2.3518832, 43.217715999999996]}}, {"type": "Feature", "properties": {"stop_name": "Gare de Castelnaudary", "stop_code": null, "stop_url": null, "stop_desc": null, "location_type": 0, "parent_station": "ter.StopArea_OCE87615039", "stop_id": "ter.StopPoint_OCETrain_TER-87615039", "stop_timezone": null, "zone_id": null, "wheelchair_boarding": 2}, "geometry": {"type": "Point", "coordinates": [1.9509894, 43.312645]}}, {"type": "Feature", "properties": {"stop_name": "Gare de Escalquens", "stop_code": null, "stop_url": null, "stop_desc": null, "location_type": 0, "parent_station": "ter.StopArea_OCE87611707", "stop_id": "ter.StopPoint_OCETrain_TER-87611707", "stop_timezone": null, "zone_id": null, "wheelchair_boarding": 2}, "geometry": {"type": "Point", "coordinates": [1.5424316, 43.51704]}}, {"type": "Feature", "properties": {"stop_name": "Gare de Bram", "stop_code": null, "stop_url": null, "stop_desc": null, "location_type": 0, "parent_station": "ter.StopArea_OCE87615054", "stop_id": "ter.StopPoint_OCETrain_TER-87615054", "stop_timezone": null, "zone_id": null, "wheelchair_boarding": 2}, "geometry": {"type": "Point", "coordinates": [2.1195557000000003, 43.243706]}}, {"type": "Feature", "properties": {"stop_name": "Gare de L\u00e9zignan-Corbi\u00e8res", "stop_code": null, "stop_url": null, "stop_desc": null, "location_type": 0, "parent_station": "ter.StopArea_OCE87615112", "stop_id": "ter.StopPoint_OCETrain_TER-87615112", "stop_timezone": null, "zone_id": null, "wheelchair_boarding": 2}, "geometry": {"type": "Point", "coordinates": [2.7698567, 43.19997]}}, {"type": "Feature", "properties": {"stop_name": "Gare de Montaudran", "stop_code": null, "stop_url": null, "stop_desc": null, "location_type": 0, "parent_station": "ter.StopArea_OCE87612010", "stop_id": "ter.StopPoint_OCETrain_TER-87612010", "stop_timezone": null, "zone_id": null, "wheelchair_boarding": 2}, "geometry": {"type": "Point", "coordinates": [1.4802389999999999, 43.573692]}}, {"type": "Feature", "properties": {"stop_name": "Gare de Lab\u00e8ge-Innopole", "stop_code": null, "stop_url": null, "stop_desc": null, "location_type": 0, "parent_station": "ter.StopArea_OCE87612002", "stop_id": "ter.StopPoint_OCETrain_TER-87612002", "stop_timezone": null, "zone_id": null, "wheelchair_boarding": 2}, "geometry": {"type": "Point", "coordinates": [1.5129578000000001, 43.547462]}}, {"type": "Feature", "properties": {"stop_name": "Gare de Coursan", "stop_code": null, "stop_url": null, "stop_desc": null, "location_type": 0, "parent_station": "ter.StopArea_OCE87781161", "stop_id": "ter.StopPoint_OCETrain_TER-87781161", "stop_timezone": null, "zone_id": null, "wheelchair_boarding": 2}, "geometry": {"type": "Point", "coordinates": [3.0508661, 43.233709999999995]}}, {"type": "Feature", "properties": {"stop_name": "Gare de Frontignan", "stop_code": null, "stop_url": null, "stop_desc": null, "location_type": 0, "parent_station": "ter.StopArea_OCE87773556", "stop_id": "ter.StopPoint_OCETrain_TER-87773556", "stop_timezone": null, "zone_id": null, "wheelchair_boarding": 2}, "geometry": {"type": "Point", "coordinates": [3.7590148, 43.444588]}}, {"type": "Feature", "properties": {"stop_name": "Gare de Vic-Mireval", "stop_code": null, "stop_url": null, "stop_desc": null, "location_type": 0, "parent_station": "ter.StopArea_OCE87773531", "stop_id": "ter.StopPoint_OCETrain_TER-87773531", "stop_timezone": null, "zone_id": null, "wheelchair_boarding": 2}, "geometry": {"type": "Point", "coordinates": [3.7995845999999998, 43.50097]}}, {"type": "Feature", "properties": {"stop_name": "Gare de Villeneuve-les-Maguel.", "stop_code": null, "stop_url": null, "stop_desc": null, "location_type": 0, "parent_station": "ter.StopArea_OCE87773515", "stop_id": "ter.StopPoint_OCETrain_TER-87773515", "stop_timezone": null, "zone_id": null, "wheelchair_boarding": 2}, "geometry": {"type": "Point", "coordinates": [3.849706, 43.543453]}}, {"type": "Feature", "properties": {"stop_name": "Gare de Narbonne", "stop_code": null, "stop_url": null, "stop_desc": null, "location_type": 0, "parent_station": "ter.StopArea_OCE87781104", "stop_id": "ter.StopPoint_OCETrain_TER-87781104", "stop_timezone": null, "zone_id": null, "wheelchair_boarding": 2}, "geometry": {"type": "Point", "coordinates": [3.0059563999999996, 43.191032]}}, {"type": "Feature", "properties": {"stop_name": "Gare de Villefranche-Lauragais", "stop_code": null, "stop_url": null, "stop_desc": null, "location_type": 0, "parent_station": "ter.StopArea_OCE87615013", "stop_id": "ter.StopPoint_OCETrain_TER-87615013", "stop_timezone": null, "zone_id": null, "wheelchair_boarding": 2}, "geometry": {"type": "Point", "coordinates": [1.7144996, 43.398453]}}, {"type": "Feature", "properties": {"stop_name": "Gare de N\u00eemes", "stop_code": null, "stop_url": null, "stop_desc": null, "location_type": 0, "parent_station": "ter.StopArea_OCE87775007", "stop_id": "ter.StopPoint_OCETrain_TER-87775007", "stop_timezone": null, "zone_id": null, "wheelchair_boarding": 2}, "geometry": {"type": "Point", "coordinates": [4.365835700000001, 43.832294]}}, {"type": "Feature", "properties": {"stop_name": "Gare de Montpellier-Saint-Roch", "stop_code": null, "stop_url": null, "stop_desc": null, "location_type": 0, "parent_station": "ter.StopArea_OCE87773002", "stop_id": "ter.StopPoint_OCETrain_TER-87773002", "stop_timezone": null, "zone_id": null, "wheelchair_boarding": 2}, "geometry": {"type": "Point", "coordinates": [3.8823602, 43.605835]}}, {"type": "Feature", "properties": {"stop_name": "Gare de Toulouse-Matabiau", "stop_code": null, "stop_url": null, "stop_desc": null, "location_type": 0, "parent_station": "ter.StopArea_OCE87611004", "stop_id": "ter.StopPoint_OCETrain_TER-87611004", "stop_timezone": null, "zone_id": null, "wheelchair_boarding": 2}, "geometry": {"type": "Point", "coordinates": [1.4535576000000001, 43.611465]}}, {"type": "Feature", "properties": {"stop_name": "Gare de S\u00e8te", "stop_code": null, "stop_url": null, "stop_desc": null, "location_type": 0, "parent_station": "ter.StopArea_OCE87773200", "stop_id": "ter.StopPoint_OCETrain_TER-87773200", "stop_timezone": null, "zone_id": null, "wheelchair_boarding": 2}, "geometry": {"type": "Point", "coordinates": [3.696396, 43.41281]}}]}