{"type": "FeatureCollection", "features": [{"type": "Feature", "properties": {"route_id": "ter.OCE4627", "service_id": "ter.3734", "trip_id": "ter.OCESN876207F0600666625", "trip_headsign": "876207", "trip_short_name": "876207", "direction_id": 1, "wheelchair_accessible": 0, "shape_id": "shape_512"}, "geometry": {"type": "LineString", "coordinates": [[1.4535576000000001, 43.611465], [1.5129578000000001, 43.547462], [1.5424316, 43.51704], [1.6206871, 43.453552], [1.7144996, 43.398453], [1.9509894, 43.312645], [2.1195557000000003, 43.243706], [2.3518832, 43.217715999999996], [2.7698567, 43.19997], [3.0059563999999996, 43.191032], [3.219218, 43.336224], [3.46602, 43.317574], [3.696396, 43.41281], [3.7590148, 43.444588], [3.8823602, 43.605835], [3.9631087999999997, 43.635414000000004], [4.006689, 43.65312], [4.0602226, 43.672596], [4.093303, 43.68094], [4.130807, 43.679516], [4.2188444, 43.73982], [4.365835700000001, 43.832294], [4.478871, 43.82646], [4.6473165000000005, 43.802162], [4.6572447, 43.801120000000004], [4.805262, 43.941875]]}}, {"type": "Feature", "properties": {"stop_name": "Gare de Lunel-Viel", "stop_code": null, "stop_url": null, "stop_desc": null, "location_type": 0, "parent_station": "ter.StopArea_OCE87773424", "stop_id": "ter.StopPoint_OCETrain_TER-87773424", "stop_timezone": null, "zone_id": null, "wheelchair_boarding": 2}, "geometry": {"type": "Point", "coordinates": [4.093303, 43.68094]}}, {"type": "Feature", "properties": {"stop_name": "Gare de Valergues-Lansargues", "stop_code": null, "stop_url": null, "stop_desc": null, "location_type": 0, "parent_station": "ter.StopArea_OCE87773432", "stop_id": "ter.StopPoint_OCETrain_TER-87773432", "stop_timezone": null, "zone_id": null, "wheelchair_boarding": 2}, "geometry": {"type": "Point", "coordinates": [4.0602226, 43.672596]}}, {"type": "Feature", "properties": {"stop_name": "Gare de Lunel", "stop_code": null, "stop_url": null, "stop_desc": null, "location_type": 0, "parent_station": "ter.StopArea_OCE87773408", "stop_id": "ter.StopPoint_OCETrain_TER-87773408", "stop_timezone": null, "zone_id": null, "wheelchair_boarding": 2}, "geometry": {"type": "Point", "coordinates": [4.130807, 43.679516]}}, {"type": "Feature", "properties": {"stop_name": "Gare de Agde", "stop_code": null, "stop_url": null, "stop_desc": null, "location_type": 0, "parent_station": "ter.StopArea_OCE87781278", "stop_id": "ter.StopPoint_OCETrain_TER-87781278", "stop_timezone": null, "zone_id": null, "wheelchair_boarding": 2}, "geometry": {"type": "Point", "coordinates": [3.46602, 43.317574]}}, {"type": "Feature", "properties": {"stop_name": "Gare de B\u00e9ziers", "stop_code": null, "stop_url": null, "stop_desc": null, "location_type": 0, "parent_station": "ter.StopArea_OCE87781005", "stop_id": "ter.StopPoint_OCETrain_TER-87781005", "stop_timezone": null, "zone_id": null, "wheelchair_boarding": 2}, "geometry": {"type": "Point", "coordinates": [3.219218, 43.336224]}}, {"type": "Feature", "properties": {"stop_name": "Gare de Bazi\u00e8ge", "stop_code": null, "stop_url": null, "stop_desc": null, "location_type": 0, "parent_station": "ter.StopArea_OCE87611723", "stop_id": "ter.StopPoint_OCETrain_TER-87611723", "stop_timezone": null, "zone_id": null, "wheelchair_boarding": 2}, "geometry": {"type": "Point", "coordinates": [1.6206871, 43.453552]}}, {"type": "Feature", "properties": {"stop_name": "Gare de Carcassonne", "stop_code": null, "stop_url": null, "stop_desc": null, "location_type": 0, "parent_station": "ter.StopArea_OCE87615286", "stop_id": "ter.StopPoint_OCETrain_TER-87615286", "stop_timezone": null, "zone_id": null, "wheelchair_boarding": 2}, "geometry": {"type": "Point", "coordinates": [2.3518832, 43.217715999999996]}}, {"type": "Feature", "properties": {"stop_name": "Gare de Castelnaudary", "stop_code": null, "stop_url": null, "stop_desc": null, "location_type": 0, "parent_station": "ter.StopArea_OCE87615039", "stop_id": "ter.StopPoint_OCETrain_TER-87615039", "stop_timezone": null, "zone_id": null, "wheelchair_boarding": 2}, "geometry": {"type": "Point", "coordinates": [1.9509894, 43.312645]}}, {"type": "Feature", "properties": {"stop_name": "Gare de Escalquens", "stop_code": null, "stop_url": null, "stop_desc": null, "location_type": 0, "parent_station": "ter.StopArea_OCE87611707", "stop_id": "ter.StopPoint_OCETrain_TER-87611707", "stop_timezone": null, "zone_id": null, "wheelchair_boarding": 2}, "geometry": {"type": "Point", "coordinates": [1.5424316, 43.51704]}}, {"type": "Feature", "properties": {"stop_name": "Gare de Bram", "stop_code": null, "stop_url": null, "stop_desc": null, "location_type": 0, "parent_station": "ter.StopArea_OCE87615054", "stop_id": "ter.StopPoint_OCETrain_TER-87615054", "stop_timezone": null, "zone_id": null, "wheelchair_boarding": 2}, "geometry": {"type": "Point", "coordinates": [2.1195557000000003, 43.243706]}}, {"type": "Feature", "properties": {"stop_name": "Gare de Tarascon-sur-Rh\u00f4ne", "stop_code": null, "stop_url": null, "stop_desc": null, "location_type": 0, "parent_station": "ter.StopArea_OCE87765354", "stop_id": "ter.StopPoint_OCETrain_TER-87765354", "stop_timezone": null, "zone_id": null, "wheelchair_boarding": 2}, "geometry": {"type": "Point", "coordinates": [4.6572447, 43.801120000000004]}}, {"type": "Feature", "properties": {"stop_name": "Gare de L\u00e9zignan-Corbi\u00e8res", "stop_code": null, "stop_url": null, "stop_desc": null, "location_type": 0, "parent_station": "ter.StopArea_OCE87615112", "stop_id": "ter.StopPoint_OCETrain_TER-87615112", "stop_timezone": null, "zone_id": null, "wheelchair_boarding": 2}, "geometry": {"type": "Point", "coordinates": [2.7698567, 43.19997]}}, {"type": "Feature", "properties": {"stop_name": "Gare de Verg\u00e8ze-Codognan", "stop_code": null, "stop_url": null, "stop_desc": null, "location_type": 0, "parent_station": "ter.StopArea_OCE87775114", "stop_id": "ter.StopPoint_OCETrain_TER-87775114", "stop_timezone": null, "zone_id": null, "wheelchair_boarding": 2}, "geometry": {"type": "Point", "coordinates": [4.2188444, 43.73982]}}, {"type": "Feature", "properties": {"stop_name": "Gare de Lab\u00e8ge-Innopole", "stop_code": null, "stop_url": null, "stop_desc": null, "location_type": 0, "parent_station": "ter.StopArea_OCE87612002", "stop_id": "ter.StopPoint_OCETrain_TER-87612002", "stop_timezone": null, "zone_id": null, "wheelchair_boarding": 2}, "geometry": {"type": "Point", "coordinates": [1.5129578000000001, 43.547462]}}, {"type": "Feature", "properties": {"stop_name": "Gare de Frontignan", "stop_code": null, "stop_url": null, "stop_desc": null, "location_type": 0, "parent_station": "ter.StopArea_OCE87773556", "stop_id": "ter.StopPoint_OCETrain_TER-87773556", "stop_timezone": null, "zone_id": null, "wheelchair_boarding": 2}, "geometry": {"type": "Point", "coordinates": [3.7590148, 43.444588]}}, {"type": "Feature", "properties": {"stop_name": "Gare de Narbonne", "stop_code": null, "stop_url": null, "stop_desc": null, "location_type": 0, "parent_station": "ter.StopArea_OCE87781104", "stop_id": "ter.StopPoint_OCETrain_TER-87781104", "stop_timezone": null, "zone_id": null, "wheelchair_boarding": 2}, "geometry": {"type": "Point", "coordinates": [3.0059563999999996, 43.191032]}}, {"type": "Feature", "properties": {"stop_name": "Gare de Manduel-Redessan", "stop_code": null, "stop_url": null, "stop_desc": null, "location_type": 0, "parent_station": "ter.StopArea_OCE87775064", "stop_id": "ter.StopPoint_OCETrain_TER-87775064", "stop_timezone": null, "zone_id": null, "wheelchair_boarding": 2}, "geometry": {"type": "Point", "coordinates": [4.478871, 43.82646]}}, {"type": "Feature", "properties": {"stop_name": "Gare de Beaucaire", "stop_code": null, "stop_url": null, "stop_desc": null, "location_type": 0, "parent_station": "ter.StopArea_OCE87775023", "stop_id": "ter.StopPoint_OCETrain_TER-87775023", "stop_timezone": null, "zone_id": null, "wheelchair_boarding": 2}, "geometry": {"type": "Point", "coordinates": [4.6473165000000005, 43.802162]}}, {"type": "Feature", "properties": {"stop_name": "Gare de Avignon-Centre", "stop_code": null, "stop_url": null, "stop_desc": null, "location_type": 0, "parent_station": "ter.StopArea_OCE87765008", "stop_id": "ter.StopPoint_OCETrain_TER-87765008", "stop_timezone": null, "zone_id": null, "wheelchair_boarding": 2}, "geometry": {"type": "Point", "coordinates": [4.805262, 43.941875]}}, {"type": "Feature", "properties": {"stop_name": "Gare de Villefranche-Lauragais", "stop_code": null, "stop_url": null, "stop_desc": null, "location_type": 0, "parent_station": "ter.StopArea_OCE87615013", "stop_id": "ter.StopPoint_OCETrain_TER-87615013", "stop_timezone": null, "zone_id": null, "wheelchair_boarding": 2}, "geometry": {"type": "Point", "coordinates": [1.7144996, 43.398453]}}, {"type": "Feature", "properties": {"stop_name": "Gare de N\u00eemes", "stop_code": null, "stop_url": null, "stop_desc": null, "location_type": 0, "parent_station": "ter.StopArea_OCE87775007", "stop_id": "ter.StopPoint_OCETrain_TER-87775007", "stop_timezone": null, "zone_id": null, "wheelchair_boarding": 2}, "geometry": {"type": "Point", "coordinates": [4.365835700000001, 43.832294]}}, {"type": "Feature", "properties": {"stop_name": "Gare de Montpellier-Saint-Roch", "stop_code": null, "stop_url": null, "stop_desc": null, "location_type": 0, "parent_station": "ter.StopArea_OCE87773002", "stop_id": "ter.StopPoint_OCETrain_TER-87773002", "stop_timezone": null, "zone_id": null, "wheelchair_boarding": 2}, "geometry": {"type": "Point", "coordinates": [3.8823602, 43.605835]}}, {"type": "Feature", "properties": {"stop_name": "Gare de St-Aun\u00e8s", "stop_code": null, "stop_url": null, "stop_desc": null, "location_type": 0, "parent_station": "ter.StopArea_OCE87773465", "stop_id": "ter.StopPoint_OCETrain_TER-87773465", "stop_timezone": null, "zone_id": null, "wheelchair_boarding": 2}, "geometry": {"type": "Point", "coordinates": [3.9631087999999997, 43.635414000000004]}}, {"type": "Feature", "properties": {"stop_name": "Gare de Toulouse-Matabiau", "stop_code": null, "stop_url": null, "stop_desc": null, "location_type": 0, "parent_station": "ter.StopArea_OCE87611004", "stop_id": "ter.StopPoint_OCETrain_TER-87611004", "stop_timezone": null, "zone_id": null, "wheelchair_boarding": 2}, "geometry": {"type": "Point", "coordinates": [1.4535576000000001, 43.611465]}}, {"type": "Feature", "properties": {"stop_name": "Gare de S\u00e8te", "stop_code": null, "stop_url": null, "stop_desc": null, "location_type": 0, "parent_station": "ter.StopArea_OCE87773200", "stop_id": "ter.StopPoint_OCETrain_TER-87773200", "stop_timezone": null, "zone_id": null, "wheelchair_boarding": 2}, "geometry": {"type": "Point", "coordinates": [3.696396, 43.41281]}}, {"type": "Feature", "properties": {"stop_name": "Gare de Baillargues", "stop_code": null, "stop_url": null, "stop_desc": null, "location_type": 0, "parent_station": "ter.StopArea_OCE87773457", "stop_id": "ter.StopPoint_OCETrain_TER-87773457", "stop_timezone": null, "zone_id": null, "wheelchair_boarding": 2}, "geometry": {"type": "Point", "coordinates": [4.006689, 43.65312]}}]}