{"type": "FeatureCollection", "features": [{"type": "Feature", "properties": {"route_id": "ter.OCE1077888", "service_id": "ter.2780", "trip_id": "ter.OCESN868819F0100165507", "trip_headsign": "868819", "trip_short_name": "868819", "direction_id": 1, "wheelchair_accessible": 0, "shape_id": "shape_426"}, "geometry": {"type": "LineString", "coordinates": [[2.314433, 45.557327], [2.1638799, 45.53024], [2.0651445, 45.402313], [1.8803846000000002, 45.329338], [1.7564315, 45.25871], [1.5286225, 45.15256], [1.4162164, 45.13211], [1.3650692, 45.13971], [1.3005089, 45.13568], [1.2266507, 45.126717], [1.0686232, 45.160072], [0.8081272, 45.138187], [0.70718104, 45.187164]]}}, {"type": "Feature", "properties": {"stop_name": "Gare de Condat-le-Lardin", "stop_code": null, "stop_url": null, "stop_desc": null, "location_type": 0, "parent_station": "ter.StopArea_OCE87594382", "stop_id": "ter.StopPoint_OCETrain_TER-87594382", "stop_timezone": null, "zone_id": null, "wheelchair_boarding": 2}, "geometry": {"type": "Point", "coordinates": [1.2266507, 45.126717]}}, {"type": "Feature", "properties": {"stop_name": "Gare de Corr\u00e8ze", "stop_code": null, "stop_url": null, "stop_desc": null, "location_type": 0, "parent_station": "ter.StopArea_OCE87594119", "stop_id": "ter.StopPoint_OCETrain_TER-87594119", "stop_timezone": null, "zone_id": null, "wheelchair_boarding": 2}, "geometry": {"type": "Point", "coordinates": [1.8803846000000002, 45.329338]}}, {"type": "Feature", "properties": {"stop_name": "Gare de Egletons", "stop_code": null, "stop_url": null, "stop_desc": null, "location_type": 0, "parent_station": "ter.StopArea_OCE87594168", "stop_id": "ter.StopPoint_OCETrain_TER-87594168", "stop_timezone": null, "zone_id": null, "wheelchair_boarding": 2}, "geometry": {"type": "Point", "coordinates": [2.0651445, 45.402313]}}, {"type": "Feature", "properties": {"stop_name": "Gare de P\u00e9rigueux", "stop_code": null, "stop_url": null, "stop_desc": null, "location_type": 0, "parent_station": "ter.StopArea_OCE87595009", "stop_id": "ter.StopPoint_OCETrain_TER-87595009", "stop_timezone": null, "zone_id": null, "wheelchair_boarding": 2}, "geometry": {"type": "Point", "coordinates": [0.70718104, 45.187164]}}, {"type": "Feature", "properties": {"stop_name": "Gare de Larche", "stop_code": null, "stop_url": null, "stop_desc": null, "location_type": 0, "parent_station": "ter.StopArea_OCE87594424", "stop_id": "ter.StopPoint_OCETrain_TER-87594424", "stop_timezone": null, "zone_id": null, "wheelchair_boarding": 2}, "geometry": {"type": "Point", "coordinates": [1.4162164, 45.13211]}}, {"type": "Feature", "properties": {"stop_name": "Gare de Niversac", "stop_code": null, "stop_url": null, "stop_desc": null, "location_type": 0, "parent_station": "ter.StopArea_OCE87595512", "stop_id": "ter.StopPoint_OCETrain_TER-87595512", "stop_timezone": null, "zone_id": null, "wheelchair_boarding": 2}, "geometry": {"type": "Point", "coordinates": [0.8081272, 45.138187]}}, {"type": "Feature", "properties": {"stop_name": "Gare de La Rivi\u00e8re-de-Mansac", "stop_code": null, "stop_url": null, "stop_desc": null, "location_type": 0, "parent_station": "ter.StopArea_OCE87594416", "stop_id": "ter.StopPoint_OCETrain_TER-87594416", "stop_timezone": null, "zone_id": null, "wheelchair_boarding": 2}, "geometry": {"type": "Point", "coordinates": [1.3650692, 45.13971]}}, {"type": "Feature", "properties": {"stop_name": "Gare de Terrasson", "stop_code": null, "stop_url": null, "stop_desc": null, "location_type": 0, "parent_station": "ter.StopArea_OCE87594408", "stop_id": "ter.StopPoint_OCETrain_TER-87594408", "stop_timezone": null, "zone_id": null, "wheelchair_boarding": 2}, "geometry": {"type": "Point", "coordinates": [1.3005089, 45.13568]}}, {"type": "Feature", "properties": {"stop_name": "Gare de Tulle", "stop_code": null, "stop_url": null, "stop_desc": null, "location_type": 0, "parent_station": "ter.StopArea_OCE87594499", "stop_id": "ter.StopPoint_OCETrain_TER-87594499", "stop_timezone": null, "zone_id": null, "wheelchair_boarding": 2}, "geometry": {"type": "Point", "coordinates": [1.7564315, 45.25871]}}, {"type": "Feature", "properties": {"stop_name": "Gare de Thenon", "stop_code": null, "stop_url": null, "stop_desc": null, "location_type": 0, "parent_station": "ter.StopArea_OCE87595579", "stop_id": "ter.StopPoint_OCETrain_TER-87595579", "stop_timezone": null, "zone_id": null, "wheelchair_boarding": 2}, "geometry": {"type": "Point", "coordinates": [1.0686232, 45.160072]}}, {"type": "Feature", "properties": {"stop_name": "Gare de Brive-la-Gaillarde", "stop_code": null, "stop_url": null, "stop_desc": null, "location_type": 0, "parent_station": "ter.StopArea_OCE87594002", "stop_id": "ter.StopPoint_OCETrain_TER-87594002", "stop_timezone": null, "zone_id": null, "wheelchair_boarding": 2}, "geometry": {"type": "Point", "coordinates": [1.5286225, 45.15256]}}, {"type": "Feature", "properties": {"stop_name": "Gare de Meymac", "stop_code": null, "stop_url": null, "stop_desc": null, "location_type": 0, "parent_station": "ter.StopArea_OCE87594275", "stop_id": "ter.StopPoint_OCETrain_TER-87594275", "stop_timezone": null, "zone_id": null, "wheelchair_boarding": 2}, "geometry": {"type": "Point", "coordinates": [2.1638799, 45.53024]}}, {"type": "Feature", "properties": {"stop_name": "Gare de Ussel", "stop_code": null, "stop_url": null, "stop_desc": null, "location_type": 0, "parent_station": "ter.StopArea_OCE87594093", "stop_id": "ter.StopPoint_OCETrain_TER-87594093", "stop_timezone": null, "zone_id": null, "wheelchair_boarding": 2}, "geometry": {"type": "Point", "coordinates": [2.314433, 45.557327]}}]}