{"type": "FeatureCollection", "features": [{"type": "Feature", "properties": {"route_id": "ter.OCE116623", "service_id": "ter.15074", "trip_id": "ter.OCESN868000F0100365214", "trip_headsign": "868000", "trip_short_name": "868000", "direction_id": 0, "wheelchair_accessible": 0, "shape_id": "shape_370"}, "geometry": {"type": "LineString", "coordinates": [[1.2674521, 45.836209999999994], [1.1564404, 46.005695], [1.0461, 46.125225], [1.0792445, 46.21111], [0.96416324, 46.338734], [0.8737563, 46.41733], [0.7187005, 46.40514], [0.41173009999999993, 46.526203], [0.33308432, 46.582184000000005]]}}, {"type": "Feature", "properties": {"stop_name": "Gare de Le Dorat", "stop_code": null, "stop_url": null, "stop_desc": null, "location_type": 0, "parent_station": "ter.StopArea_OCE87592543", "stop_id": "ter.StopPoint_OCETrain_TER-87592543", "stop_timezone": null, "zone_id": null, "wheelchair_boarding": 2}, "geometry": {"type": "Point", "coordinates": [1.0792445, 46.21111]}}, {"type": "Feature", "properties": {"stop_name": "Gare de Lussac-les-Ch\u00e2teaux", "stop_code": null, "stop_url": null, "stop_desc": null, "location_type": 0, "parent_station": "ter.StopArea_OCE87575845", "stop_id": "ter.StopPoint_OCETrain_TER-87575845", "stop_timezone": null, "zone_id": null, "wheelchair_boarding": 2}, "geometry": {"type": "Point", "coordinates": [0.7187005, 46.40514]}}, {"type": "Feature", "properties": {"stop_name": "Gare de Poitiers", "stop_code": null, "stop_url": null, "stop_desc": null, "location_type": 0, "parent_station": "ter.StopArea_OCE87575001", "stop_id": "ter.StopPoint_OCETrain_TER-87575001", "stop_timezone": null, "zone_id": null, "wheelchair_boarding": 2}, "geometry": {"type": "Point", "coordinates": [0.33308432, 46.582184000000005]}}, {"type": "Feature", "properties": {"stop_name": "Gare de Montmorillon", "stop_code": null, "stop_url": null, "stop_desc": null, "location_type": 0, "parent_station": "ter.StopArea_OCE87575480", "stop_id": "ter.StopPoint_OCETrain_TER-87575480", "stop_timezone": null, "zone_id": null, "wheelchair_boarding": 2}, "geometry": {"type": "Point", "coordinates": [0.8737563, 46.41733]}}, {"type": "Feature", "properties": {"stop_name": "Gare de Lathus", "stop_code": null, "stop_url": null, "stop_desc": null, "location_type": 0, "parent_station": "ter.StopArea_OCE87575498", "stop_id": "ter.StopPoint_OCETrain_TER-87575498", "stop_timezone": null, "zone_id": null, "wheelchair_boarding": 2}, "geometry": {"type": "Point", "coordinates": [0.96416324, 46.338734]}}, {"type": "Feature", "properties": {"stop_name": "Gare de Nantiat", "stop_code": null, "stop_url": null, "stop_desc": null, "location_type": 0, "parent_station": "ter.StopArea_OCE87592444", "stop_id": "ter.StopPoint_OCETrain_TER-87592444", "stop_timezone": null, "zone_id": null, "wheelchair_boarding": 2}, "geometry": {"type": "Point", "coordinates": [1.1564404, 46.005695]}}, {"type": "Feature", "properties": {"stop_name": "Gare de Limoges-B\u00e9n\u00e9dictins", "stop_code": null, "stop_url": null, "stop_desc": null, "location_type": 0, "parent_station": "ter.StopArea_OCE87592006", "stop_id": "ter.StopPoint_OCETrain_TER-87592006", "stop_timezone": null, "zone_id": null, "wheelchair_boarding": 2}, "geometry": {"type": "Point", "coordinates": [1.2674521, 45.836209999999994]}}, {"type": "Feature", "properties": {"stop_name": "Gare de Bellac", "stop_code": null, "stop_url": null, "stop_desc": null, "location_type": 0, "parent_station": "ter.StopArea_OCE87592485", "stop_id": "ter.StopPoint_OCETrain_TER-87592485", "stop_timezone": null, "zone_id": null, "wheelchair_boarding": 2}, "geometry": {"type": "Point", "coordinates": [1.0461, 46.125225]}}, {"type": "Feature", "properties": {"stop_name": "Gare de Mignaloux-Nouaill\u00e9", "stop_code": null, "stop_url": null, "stop_desc": null, "location_type": 0, "parent_station": "ter.StopArea_OCE87575704", "stop_id": "ter.StopPoint_OCETrain_TER-87575704", "stop_timezone": null, "zone_id": null, "wheelchair_boarding": 2}, "geometry": {"type": "Point", "coordinates": [0.41173009999999993, 46.526203]}}]}