{"type": "FeatureCollection", "features": [{"type": "Feature", "properties": {"route_id": "ter.OCE85", "service_id": "ter.176", "trip_id": "ter.OCESN864623F0100264346", "trip_headsign": "864623", "trip_short_name": "864623", "direction_id": 1, "wheelchair_accessible": 0, "shape_id": "shape_153"}, "geometry": {"type": "LineString", "coordinates": [[-1.1453004, 46.152702000000005], [-1.0912087, 46.078564], [-0.96378833, 45.947414], [-0.89783347, 45.94338], [-0.79852164, 45.89454], [-0.67790884, 45.875842999999996], [-0.6175758000000001, 45.747845], [-0.32616413, 45.684456], [-0.17792420000000003, 45.67129], [-0.05020679, 45.59997], [0.16452847, 45.653934]]}}, {"type": "Feature", "properties": {"stop_name": "Gare de Chatelaillon-Plage", "stop_code": null, "stop_url": null, "stop_desc": null, "location_type": 0, "parent_station": "ter.StopArea_OCE87485110", "stop_id": "ter.StopPoint_OCETrain_TER-87485110", "stop_timezone": null, "zone_id": null, "wheelchair_boarding": 2}, "geometry": {"type": "Point", "coordinates": [-1.0912087, 46.078564]}}, {"type": "Feature", "properties": {"stop_name": "Gare de Rochefort", "stop_code": null, "stop_url": null, "stop_desc": null, "location_type": 0, "parent_station": "ter.StopArea_OCE87485144", "stop_id": "ter.StopPoint_OCETrain_TER-87485144", "stop_timezone": null, "zone_id": null, "wheelchair_boarding": 2}, "geometry": {"type": "Point", "coordinates": [-0.96378833, 45.947414]}}, {"type": "Feature", "properties": {"stop_name": "Gare de Tonnay-Charente", "stop_code": null, "stop_url": null, "stop_desc": null, "location_type": 0, "parent_station": "ter.StopArea_OCE87485151", "stop_id": "ter.StopPoint_OCETrain_TER-87485151", "stop_timezone": null, "zone_id": null, "wheelchair_boarding": 2}, "geometry": {"type": "Point", "coordinates": [-0.89783347, 45.94338]}}, {"type": "Feature", "properties": {"stop_name": "Gare de Angoul\u00eame", "stop_code": null, "stop_url": null, "stop_desc": null, "location_type": 0, "parent_station": "ter.StopArea_OCE87583005", "stop_id": "ter.StopPoint_OCETrain_TER-87583005", "stop_timezone": null, "zone_id": null, "wheelchair_boarding": 2}, "geometry": {"type": "Point", "coordinates": [0.16452847, 45.653934]}}, {"type": "Feature", "properties": {"stop_name": "Gare de La Rochelle-Ville", "stop_code": null, "stop_url": null, "stop_desc": null, "location_type": 0, "parent_station": "ter.StopArea_OCE87485003", "stop_id": "ter.StopPoint_OCETrain_TER-87485003", "stop_timezone": null, "zone_id": null, "wheelchair_boarding": 2}, "geometry": {"type": "Point", "coordinates": [-1.1453004, 46.152702000000005]}}, {"type": "Feature", "properties": {"stop_name": "Gare de Ch\u00e2teauneuf/Charente", "stop_code": null, "stop_url": null, "stop_desc": null, "location_type": 0, "parent_station": "ter.StopArea_OCE87491506", "stop_id": "ter.StopPoint_OCETrain_TER-87491506", "stop_timezone": null, "zone_id": null, "wheelchair_boarding": 2}, "geometry": {"type": "Point", "coordinates": [-0.05020679, 45.59997]}}, {"type": "Feature", "properties": {"stop_name": "Gare de Jarnac-Charente", "stop_code": null, "stop_url": null, "stop_desc": null, "location_type": 0, "parent_station": "ter.StopArea_OCE87491472", "stop_id": "ter.StopPoint_OCETrain_TER-87491472", "stop_timezone": null, "zone_id": null, "wheelchair_boarding": 2}, "geometry": {"type": "Point", "coordinates": [-0.17792420000000003, 45.67129]}}, {"type": "Feature", "properties": {"stop_name": "Gare de Saintes", "stop_code": null, "stop_url": null, "stop_desc": null, "location_type": 0, "parent_station": "ter.StopArea_OCE87491001", "stop_id": "ter.StopPoint_OCETrain_TER-87491001", "stop_timezone": null, "zone_id": null, "wheelchair_boarding": 2}, "geometry": {"type": "Point", "coordinates": [-0.6175758000000001, 45.747845]}}, {"type": "Feature", "properties": {"stop_name": "Gare de Cognac", "stop_code": null, "stop_url": null, "stop_desc": null, "location_type": 0, "parent_station": "ter.StopArea_OCE87491449", "stop_id": "ter.StopPoint_OCETrain_TER-87491449", "stop_timezone": null, "zone_id": null, "wheelchair_boarding": 2}, "geometry": {"type": "Point", "coordinates": [-0.32616413, 45.684456]}}, {"type": "Feature", "properties": {"stop_name": "Gare de St-Savinien/Charente", "stop_code": null, "stop_url": null, "stop_desc": null, "location_type": 0, "parent_station": "ter.StopArea_OCE87491035", "stop_id": "ter.StopPoint_OCETrain_TER-87491035", "stop_timezone": null, "zone_id": null, "wheelchair_boarding": 2}, "geometry": {"type": "Point", "coordinates": [-0.67790884, 45.875842999999996]}}, {"type": "Feature", "properties": {"stop_name": "Gare de Bords", "stop_code": null, "stop_url": null, "stop_desc": null, "location_type": 0, "parent_station": "ter.StopArea_OCE87491019", "stop_id": "ter.StopPoint_OCETrain_TER-87491019", "stop_timezone": null, "zone_id": null, "wheelchair_boarding": 2}, "geometry": {"type": "Point", "coordinates": [-0.79852164, 45.89454]}}]}