{"type": "FeatureCollection", "features": [{"type": "Feature", "properties": {"route_id": "ter.OCE104647", "service_id": "ter.15110", "trip_id": "ter.OCESN868226F0100165355", "trip_headsign": "868226", "trip_short_name": "868226", "direction_id": 0, "wheelchair_accessible": 0, "shape_id": "shape_435"}, "geometry": {"type": "LineString", "coordinates": [[0.70718104, 45.187164], [0.92134905, 45.418953], [1.026154, 45.607582], [1.1784277, 45.691536], [1.2674521, 45.836209999999994]]}}, {"type": "Feature", "properties": {"stop_name": "Gare de Nexon", "stop_code": null, "stop_url": null, "stop_desc": null, "location_type": 0, "parent_station": "ter.StopArea_OCE87592725", "stop_id": "ter.StopPoint_OCETrain_TER-87592725", "stop_timezone": null, "zone_id": null, "wheelchair_boarding": 2}, "geometry": {"type": "Point", "coordinates": [1.1784277, 45.691536]}}, {"type": "Feature", "properties": {"stop_name": "Gare de Bussi\u00e8re-Galant", "stop_code": null, "stop_url": null, "stop_desc": null, "location_type": 0, "parent_station": "ter.StopArea_OCE87592741", "stop_id": "ter.StopPoint_OCETrain_TER-87592741", "stop_timezone": null, "zone_id": null, "wheelchair_boarding": 2}, "geometry": {"type": "Point", "coordinates": [1.026154, 45.607582]}}, {"type": "Feature", "properties": {"stop_name": "Gare de P\u00e9rigueux", "stop_code": null, "stop_url": null, "stop_desc": null, "location_type": 0, "parent_station": "ter.StopArea_OCE87595009", "stop_id": "ter.StopPoint_OCETrain_TER-87595009", "stop_timezone": null, "zone_id": null, "wheelchair_boarding": 2}, "geometry": {"type": "Point", "coordinates": [0.70718104, 45.187164]}}, {"type": "Feature", "properties": {"stop_name": "Gare de Limoges-B\u00e9n\u00e9dictins", "stop_code": null, "stop_url": null, "stop_desc": null, "location_type": 0, "parent_station": "ter.StopArea_OCE87592006", "stop_id": "ter.StopPoint_OCETrain_TER-87592006", "stop_timezone": null, "zone_id": null, "wheelchair_boarding": 2}, "geometry": {"type": "Point", "coordinates": [1.2674521, 45.836209999999994]}}, {"type": "Feature", "properties": {"stop_name": "Gare de Thiviers", "stop_code": null, "stop_url": null, "stop_desc": null, "location_type": 0, "parent_station": "ter.StopArea_OCE87595124", "stop_id": "ter.StopPoint_OCETrain_TER-87595124", "stop_timezone": null, "zone_id": null, "wheelchair_boarding": 2}, "geometry": {"type": "Point", "coordinates": [0.92134905, 45.418953]}}]}