{"type": "FeatureCollection", "features": [{"type": "Feature", "properties": {"route_id": "ter.OCE4629", "service_id": "ter.11311", "trip_id": "ter.OCESN871628F0100165929", "trip_headsign": "871628", "trip_short_name": "871628", "direction_id": 0, "wheelchair_accessible": 0, "shape_id": "shape_502"}, "geometry": {"type": "LineString", "coordinates": [[1.4535576000000001, 43.611465], [1.4141264, 43.663845], [1.3715763, 43.73802], [1.3419212999999999, 43.78617], [1.3031566, 43.8278], [1.2761514999999999, 43.865524], [1.2644625, 43.92393], [1.3419736999999998, 44.01464], [1.4448755, 44.091976], [1.5334529, 44.162304], [1.5113041, 44.332733000000005], [1.4332376, 44.44916], [1.3400412, 44.65335], [1.3892756000000002, 44.741898], [1.4652148, 44.902336], [1.4832408000000001, 45.01474], [1.5286225, 45.15256]]}}, {"type": "Feature", "properties": {"stop_name": "Gare de Souillac", "stop_code": null, "stop_url": null, "stop_desc": null, "location_type": 0, "parent_station": "ter.StopArea_OCE87594333", "stop_id": "ter.StopPoint_OCETrain_TER-87594333", "stop_timezone": null, "zone_id": null, "wheelchair_boarding": 2}, "geometry": {"type": "Point", "coordinates": [1.4652148, 44.902336]}}, {"type": "Feature", "properties": {"stop_name": "Gare de D\u00e9gagnac", "stop_code": null, "stop_url": null, "stop_desc": null, "location_type": 0, "parent_station": "ter.StopArea_OCE87613174", "stop_id": "ter.StopPoint_OCETrain_TER-87613174", "stop_timezone": null, "zone_id": null, "wheelchair_boarding": 2}, "geometry": {"type": "Point", "coordinates": [1.3400412, 44.65335]}}, {"type": "Feature", "properties": {"stop_name": "Gare de Gignac-Cressensac (Lot)", "stop_code": null, "stop_url": null, "stop_desc": null, "location_type": 0, "parent_station": "ter.StopArea_OCE87594325", "stop_id": "ter.StopPoint_OCETrain_TER-87594325", "stop_timezone": null, "zone_id": null, "wheelchair_boarding": 2}, "geometry": {"type": "Point", "coordinates": [1.4832408000000001, 45.01474]}}, {"type": "Feature", "properties": {"stop_name": "Gare de Gourdon", "stop_code": null, "stop_url": null, "stop_desc": null, "location_type": 0, "parent_station": "ter.StopArea_OCE87613141", "stop_id": "ter.StopPoint_OCETrain_TER-87613141", "stop_timezone": null, "zone_id": null, "wheelchair_boarding": 2}, "geometry": {"type": "Point", "coordinates": [1.3892756000000002, 44.741898]}}, {"type": "Feature", "properties": {"stop_name": "Gare de Albias", "stop_code": null, "stop_url": null, "stop_desc": null, "location_type": 0, "parent_station": "ter.StopArea_OCE87613398", "stop_id": "ter.StopPoint_OCETrain_TER-87613398", "stop_timezone": null, "zone_id": null, "wheelchair_boarding": 2}, "geometry": {"type": "Point", "coordinates": [1.4448755, 44.091976]}}, {"type": "Feature", "properties": {"stop_name": "Gare de Caussade (T.-et-G.)", "stop_code": null, "stop_url": null, "stop_desc": null, "location_type": 0, "parent_station": "ter.StopArea_OCE87613356", "stop_id": "ter.StopPoint_OCETrain_TER-87613356", "stop_timezone": null, "zone_id": null, "wheelchair_boarding": 2}, "geometry": {"type": "Point", "coordinates": [1.5334529, 44.162304]}}, {"type": "Feature", "properties": {"stop_name": "Gare de Lalbenque-Fontanes", "stop_code": null, "stop_url": null, "stop_desc": null, "location_type": 0, "parent_station": "ter.StopArea_OCE87613323", "stop_id": "ter.StopPoint_OCETrain_TER-87613323", "stop_timezone": null, "zone_id": null, "wheelchair_boarding": 2}, "geometry": {"type": "Point", "coordinates": [1.5113041, 44.332733000000005]}}, {"type": "Feature", "properties": {"stop_name": "Gare de Dieupentale", "stop_code": null, "stop_url": null, "stop_desc": null, "location_type": 0, "parent_station": "ter.StopArea_OCE87611681", "stop_id": "ter.StopPoint_OCETrain_TER-87611681", "stop_timezone": null, "zone_id": null, "wheelchair_boarding": 2}, "geometry": {"type": "Point", "coordinates": [1.2761514999999999, 43.865524]}}, {"type": "Feature", "properties": {"stop_name": "Gare de Lacourtensourt", "stop_code": null, "stop_url": null, "stop_desc": null, "location_type": 0, "parent_station": "ter.StopArea_OCE87611434", "stop_id": "ter.StopPoint_OCETrain_TER-87611434", "stop_timezone": null, "zone_id": null, "wheelchair_boarding": 2}, "geometry": {"type": "Point", "coordinates": [1.4141264, 43.663845]}}, {"type": "Feature", "properties": {"stop_name": "Gare de Grisolles", "stop_code": null, "stop_url": null, "stop_desc": null, "location_type": 0, "parent_station": "ter.StopArea_OCE87611673", "stop_id": "ter.StopPoint_OCETrain_TER-87611673", "stop_timezone": null, "zone_id": null, "wheelchair_boarding": 2}, "geometry": {"type": "Point", "coordinates": [1.3031566, 43.8278]}}, {"type": "Feature", "properties": {"stop_name": "Gare de Montbartier", "stop_code": null, "stop_url": null, "stop_desc": null, "location_type": 0, "parent_station": "ter.StopArea_OCE87611699", "stop_id": "ter.StopPoint_OCETrain_TER-87611699", "stop_timezone": null, "zone_id": null, "wheelchair_boarding": 2}, "geometry": {"type": "Point", "coordinates": [1.2644625, 43.92393]}}, {"type": "Feature", "properties": {"stop_name": "Gare de Castelnau-d'Estr\u00e9tefond", "stop_code": null, "stop_url": null, "stop_desc": null, "location_type": 0, "parent_station": "ter.StopArea_OCE87611665", "stop_id": "ter.StopPoint_OCETrain_TER-87611665", "stop_timezone": null, "zone_id": null, "wheelchair_boarding": 2}, "geometry": {"type": "Point", "coordinates": [1.3419212999999999, 43.78617]}}, {"type": "Feature", "properties": {"stop_name": "Gare de St-Jory", "stop_code": null, "stop_url": null, "stop_desc": null, "location_type": 0, "parent_station": "ter.StopArea_OCE87611657", "stop_id": "ter.StopPoint_OCETrain_TER-87611657", "stop_timezone": null, "zone_id": null, "wheelchair_boarding": 2}, "geometry": {"type": "Point", "coordinates": [1.3715763, 43.73802]}}, {"type": "Feature", "properties": {"stop_name": "Gare de Brive-la-Gaillarde", "stop_code": null, "stop_url": null, "stop_desc": null, "location_type": 0, "parent_station": "ter.StopArea_OCE87594002", "stop_id": "ter.StopPoint_OCETrain_TER-87594002", "stop_timezone": null, "zone_id": null, "wheelchair_boarding": 2}, "geometry": {"type": "Point", "coordinates": [1.5286225, 45.15256]}}, {"type": "Feature", "properties": {"stop_name": "Gare de Cahors", "stop_code": null, "stop_url": null, "stop_desc": null, "location_type": 0, "parent_station": "ter.StopArea_OCE87613000", "stop_id": "ter.StopPoint_OCETrain_TER-87613000", "stop_timezone": null, "zone_id": null, "wheelchair_boarding": 2}, "geometry": {"type": "Point", "coordinates": [1.4332376, 44.44916]}}, {"type": "Feature", "properties": {"stop_name": "Gare de Toulouse-Matabiau", "stop_code": null, "stop_url": null, "stop_desc": null, "location_type": 0, "parent_station": "ter.StopArea_OCE87611004", "stop_id": "ter.StopPoint_OCETrain_TER-87611004", "stop_timezone": null, "zone_id": null, "wheelchair_boarding": 2}, "geometry": {"type": "Point", "coordinates": [1.4535576000000001, 43.611465]}}, {"type": "Feature", "properties": {"stop_name": "Gare de Montauban-Ville-Bourbon", "stop_code": null, "stop_url": null, "stop_desc": null, "location_type": 0, "parent_station": "ter.StopArea_OCE87611244", "stop_id": "ter.StopPoint_OCETrain_TER-87611244", "stop_timezone": null, "zone_id": null, "wheelchair_boarding": 2}, "geometry": {"type": "Point", "coordinates": [1.3419736999999998, 44.01464]}}]}