{"type": "FeatureCollection", "features": [{"type": "Feature", "properties": {"route_id": "ter.OCE180692", "service_id": "ter.11961", "trip_id": "ter.OCESN035855R0200226525", "trip_headsign": "35855", "trip_short_name": "35855", "direction_id": 1, "wheelchair_accessible": 0, "shape_id": "shape_049"}, "geometry": {"type": "LineString", "coordinates": [[1.4652148, 44.902336], [1.4756378, 44.898632], [1.534115, 44.90605], [1.5558938999999998, 44.920853], [1.6138266000000001, 44.937670000000004], [1.6150886, 44.938023], [1.6662866000000003, 44.945793]]}}, {"type": "Feature", "properties": {"stop_name": "Souillac-Renaissance", "stop_code": null, "stop_url": null, "stop_desc": null, "location_type": 0, "parent_station": "ter.StopArea_OCE87609610", "stop_id": "ter.StopPoint_OCECar_TER-87609610", "stop_timezone": null, "zone_id": null, "wheelchair_boarding": 2}, "geometry": {"type": "Point", "coordinates": [1.4756378, 44.898632]}}, {"type": "Feature", "properties": {"stop_name": "Martel-M.-Retraite", "stop_code": null, "stop_url": null, "stop_desc": null, "location_type": 0, "parent_station": "ter.StopArea_OCE87609628", "stop_id": "ter.StopPoint_OCECar_TER-87609628", "stop_timezone": null, "zone_id": null, "wheelchair_boarding": 2}, "geometry": {"type": "Point", "coordinates": [1.6150886, 44.938023]}}, {"type": "Feature", "properties": {"stop_name": "Gare de St-Denis-pr\u00e8s-Martel", "stop_code": null, "stop_url": null, "stop_desc": null, "location_type": 0, "parent_station": "ter.StopArea_OCE87594572", "stop_id": "ter.StopPoint_OCECar_TER-87594572", "stop_timezone": null, "zone_id": null, "wheelchair_boarding": 2}, "geometry": {"type": "Point", "coordinates": [1.6662866000000003, 44.945793]}}, {"type": "Feature", "properties": {"stop_name": "Gare de Souillac", "stop_code": null, "stop_url": null, "stop_desc": null, "location_type": 0, "parent_station": "ter.StopArea_OCE87594333", "stop_id": "ter.StopPoint_OCECar_TER-87594333", "stop_timezone": null, "zone_id": null, "wheelchair_boarding": 2}, "geometry": {"type": "Point", "coordinates": [1.4652148, 44.902336]}}, {"type": "Feature", "properties": {"stop_name": "Le Pigeon", "stop_code": null, "stop_url": null, "stop_desc": null, "location_type": 0, "parent_station": "ter.StopArea_OCE87594705", "stop_id": "ter.StopPoint_OCECar_TER-87594705", "stop_timezone": null, "zone_id": null, "wheelchair_boarding": 2}, "geometry": {"type": "Point", "coordinates": [1.534115, 44.90605]}}, {"type": "Feature", "properties": {"stop_name": "Martel", "stop_code": null, "stop_url": null, "stop_desc": null, "location_type": 0, "parent_station": "ter.StopArea_OCE87594713", "stop_id": "ter.StopPoint_OCECar_TER-87594713", "stop_timezone": null, "zone_id": null, "wheelchair_boarding": 2}, "geometry": {"type": "Point", "coordinates": [1.6138266000000001, 44.937670000000004]}}, {"type": "Feature", "properties": {"stop_name": "Le Baladou", "stop_code": null, "stop_url": null, "stop_desc": null, "location_type": 0, "parent_station": "ter.StopArea_OCE87517953", "stop_id": "ter.StopPoint_OCECar_TER-87517953", "stop_timezone": null, "zone_id": null, "wheelchair_boarding": 2}, "geometry": {"type": "Point", "coordinates": [1.5558938999999998, 44.920853]}}]}