{"type": "FeatureCollection", "features": [{"type": "Feature", "properties": {"route_id": "ter.OCE84", "service_id": "ter.3060", "trip_id": "ter.OCESN864207F0300264242", "trip_headsign": "864207", "trip_short_name": "864207", "direction_id": 1, "wheelchair_accessible": 0, "shape_id": "shape_188"}, "geometry": {"type": "LineString", "coordinates": [[-0.6175758000000001, 45.747845], [-0.5390014, 45.578087], [-0.5021094, 45.478493], [-0.44200249999999996, 45.438713], [-0.38396683, 45.387558], [-0.39605927, 45.280594], [-0.36804664, 45.21156], [-0.391685, 45.13908], [-0.44048288, 44.991177], [-0.5336025, 44.856770000000004], [-0.55619407, 44.826538]]}}, {"type": "Feature", "properties": {"stop_name": "Gare de Pons", "stop_code": null, "stop_url": null, "stop_desc": null, "location_type": 0, "parent_station": "ter.StopArea_OCE87491100", "stop_id": "ter.StopPoint_OCETrain_TER-87491100", "stop_timezone": null, "zone_id": null, "wheelchair_boarding": 2}, "geometry": {"type": "Point", "coordinates": [-0.5390014, 45.578087]}}, {"type": "Feature", "properties": {"stop_name": "Gare de Bordeaux-St-Jean", "stop_code": null, "stop_url": null, "stop_desc": null, "location_type": 0, "parent_station": "ter.StopArea_OCE87581009", "stop_id": "ter.StopPoint_OCETrain_TER-87581009", "stop_timezone": null, "zone_id": null, "wheelchair_boarding": 2}, "geometry": {"type": "Point", "coordinates": [-0.55619407, 44.826538]}}, {"type": "Feature", "properties": {"stop_name": "Gare de Bussac", "stop_code": null, "stop_url": null, "stop_desc": null, "location_type": 0, "parent_station": "ter.StopArea_OCE87491191", "stop_id": "ter.StopPoint_OCETrain_TER-87491191", "stop_timezone": null, "zone_id": null, "wheelchair_boarding": 2}, "geometry": {"type": "Point", "coordinates": [-0.36804664, 45.21156]}}, {"type": "Feature", "properties": {"stop_name": "Gare de Montendre", "stop_code": null, "stop_url": null, "stop_desc": null, "location_type": 0, "parent_station": "ter.StopArea_OCE87491183", "stop_id": "ter.StopPoint_OCETrain_TER-87491183", "stop_timezone": null, "zone_id": null, "wheelchair_boarding": 2}, "geometry": {"type": "Point", "coordinates": [-0.39605927, 45.280594]}}, {"type": "Feature", "properties": {"stop_name": "Gare de Fontaines-Ozillac", "stop_code": null, "stop_url": null, "stop_desc": null, "location_type": 0, "parent_station": "ter.StopArea_OCE87491159", "stop_id": "ter.StopPoint_OCETrain_TER-87491159", "stop_timezone": null, "zone_id": null, "wheelchair_boarding": 2}, "geometry": {"type": "Point", "coordinates": [-0.38396683, 45.387558]}}, {"type": "Feature", "properties": {"stop_name": "Gare de Clion-sur-Seugne", "stop_code": null, "stop_url": null, "stop_desc": null, "location_type": 0, "parent_station": "ter.StopArea_OCE87491134", "stop_id": "ter.StopPoint_OCETrain_TER-87491134", "stop_timezone": null, "zone_id": null, "wheelchair_boarding": 2}, "geometry": {"type": "Point", "coordinates": [-0.5021094, 45.478493]}}, {"type": "Feature", "properties": {"stop_name": "Gare de Jonzac", "stop_code": null, "stop_url": null, "stop_desc": null, "location_type": 0, "parent_station": "ter.StopArea_OCE87491142", "stop_id": "ter.StopPoint_OCETrain_TER-87491142", "stop_timezone": null, "zone_id": null, "wheelchair_boarding": 2}, "geometry": {"type": "Point", "coordinates": [-0.44200249999999996, 45.438713]}}, {"type": "Feature", "properties": {"stop_name": "Gare de Cenon", "stop_code": null, "stop_url": null, "stop_desc": null, "location_type": 0, "parent_station": "ter.StopArea_OCE87420596", "stop_id": "ter.StopPoint_OCETrain_TER-87420596", "stop_timezone": null, "zone_id": null, "wheelchair_boarding": 2}, "geometry": {"type": "Point", "coordinates": [-0.5336025, 44.856770000000004]}}, {"type": "Feature", "properties": {"stop_name": "Gare de St-Andr\u00e9-de-Cubzac", "stop_code": null, "stop_url": null, "stop_desc": null, "location_type": 0, "parent_station": "ter.StopArea_OCE87491241", "stop_id": "ter.StopPoint_OCETrain_TER-87491241", "stop_timezone": null, "zone_id": null, "wheelchair_boarding": 2}, "geometry": {"type": "Point", "coordinates": [-0.44048288, 44.991177]}}, {"type": "Feature", "properties": {"stop_name": "Gare de Saintes", "stop_code": null, "stop_url": null, "stop_desc": null, "location_type": 0, "parent_station": "ter.StopArea_OCE87491001", "stop_id": "ter.StopPoint_OCETrain_TER-87491001", "stop_timezone": null, "zone_id": null, "wheelchair_boarding": 2}, "geometry": {"type": "Point", "coordinates": [-0.6175758000000001, 45.747845]}}, {"type": "Feature", "properties": {"stop_name": "Gare de St-Mariens-St-Yzan", "stop_code": null, "stop_url": null, "stop_desc": null, "location_type": 0, "parent_station": "ter.StopArea_OCE87491209", "stop_id": "ter.StopPoint_OCETrain_TER-87491209", "stop_timezone": null, "zone_id": null, "wheelchair_boarding": 2}, "geometry": {"type": "Point", "coordinates": [-0.391685, 45.13908]}}]}