{"type": "FeatureCollection", "features": [{"type": "Feature", "properties": {"route_id": "ter.OCE180690", "service_id": "ter.11755", "trip_id": "ter.OCESN035548R0200126425", "trip_headsign": "35548", "trip_short_name": "35548", "direction_id": 0, "wheelchair_accessible": 0, "shape_id": "shape_093"}, "geometry": {"type": "LineString", "coordinates": [[2.0365834, 44.34768], [2.0388448, 44.353683000000004], [2.0400221000000003, 44.399048], [2.0656185000000002, 44.428447999999996], [2.0254712, 44.53979], [2.0370767, 44.603516]]}}, {"type": "Feature", "properties": {"stop_name": "Loupiac-Caf\u00e9", "stop_code": null, "stop_url": null, "stop_desc": null, "location_type": 0, "parent_station": "ter.StopArea_OCE87440107", "stop_id": "ter.StopPoint_OCECar_TER-87440107", "stop_timezone": null, "zone_id": null, "wheelchair_boarding": 2}, "geometry": {"type": "Point", "coordinates": [2.0254712, 44.53979]}}, {"type": "Feature", "properties": {"stop_name": "Gare de Figeac", "stop_code": null, "stop_url": null, "stop_desc": null, "location_type": 0, "parent_station": "ter.StopArea_OCE87613091", "stop_id": "ter.StopPoint_OCECar_TER-87613091", "stop_timezone": null, "zone_id": null, "wheelchair_boarding": 2}, "geometry": {"type": "Point", "coordinates": [2.0370767, 44.603516]}}, {"type": "Feature", "properties": {"stop_name": "Place de la Libert\u00e9", "stop_code": null, "stop_url": null, "stop_desc": null, "location_type": 0, "parent_station": "ter.StopArea_OCE87138776", "stop_id": "ter.StopPoint_OCECar_TER-87138776", "stop_timezone": null, "zone_id": null, "wheelchair_boarding": 2}, "geometry": {"type": "Point", "coordinates": [2.0388448, 44.353683000000004]}}, {"type": "Feature", "properties": {"stop_name": "R\u00e9my-12 (st)", "stop_code": null, "stop_url": null, "stop_desc": null, "location_type": 0, "parent_station": "ter.StopArea_OCE87440313", "stop_id": "ter.StopPoint_OCECar_TER-87440313", "stop_timezone": null, "zone_id": null, "wheelchair_boarding": 2}, "geometry": {"type": "Point", "coordinates": [2.0400221000000003, 44.399048]}}, {"type": "Feature", "properties": {"stop_name": "Villeneuve-d'Aveyron", "stop_code": null, "stop_url": null, "stop_desc": null, "location_type": 0, "parent_station": "ter.StopArea_OCE87613885", "stop_id": "ter.StopPoint_OCECar_TER-87613885", "stop_timezone": null, "zone_id": null, "wheelchair_boarding": 2}, "geometry": {"type": "Point", "coordinates": [2.0656185000000002, 44.428447999999996]}}, {"type": "Feature", "properties": {"stop_name": "Gare de Villefranche-Rouergue", "stop_code": null, "stop_url": null, "stop_desc": null, "location_type": 0, "parent_station": "ter.StopArea_OCE87613893", "stop_id": "ter.StopPoint_OCECar_TER-87613893", "stop_timezone": null, "zone_id": null, "wheelchair_boarding": 2}, "geometry": {"type": "Point", "coordinates": [2.0365834, 44.34768]}}]}