{"type": "FeatureCollection", "features": [{"type": "Feature", "properties": {"route_id": "ter.OCE98", "service_id": "ter.6274", "trip_id": "ter.OCESN860198F0200263531", "trip_headsign": "860198", "trip_short_name": "860198", "direction_id": 0, "wheelchair_accessible": 0, "shape_id": "shape_177"}, "geometry": {"type": "LineString", "coordinates": [[-0.21051347, 46.98525], [-0.1480413, 47.125324], [-0.07142992, 47.26897], [-0.21961059, 47.36185], [-0.2758692, 47.39737], [-0.31806290000000004, 47.412079999999996], [-0.4001965, 47.434177000000005], [-0.5569491999999999, 47.464436]]}}, {"type": "Feature", "properties": {"stop_name": "Gare de Angers-St-Laud", "stop_code": null, "stop_url": null, "stop_desc": null, "location_type": 0, "parent_station": "ter.StopArea_OCE87484006", "stop_id": "ter.StopPoint_OCETrain_TER-87484006", "stop_timezone": null, "zone_id": null, "wheelchair_boarding": 2}, "geometry": {"type": "Point", "coordinates": [-0.5569491999999999, 47.464436]}}, {"type": "Feature", "properties": {"stop_name": "Gare de La Menitr\u00e9", "stop_code": null, "stop_url": null, "stop_desc": null, "location_type": 0, "parent_station": "ter.StopArea_OCE87487884", "stop_id": "ter.StopPoint_OCETrain_TER-87487884", "stop_timezone": null, "zone_id": null, "wheelchair_boarding": 2}, "geometry": {"type": "Point", "coordinates": [-0.2758692, 47.39737]}}, {"type": "Feature", "properties": {"stop_name": "Gare de Montreuil-Bellay", "stop_code": null, "stop_url": null, "stop_desc": null, "location_type": 0, "parent_station": "ter.StopArea_OCE87487637", "stop_id": "ter.StopPoint_OCETrain_TER-87487637", "stop_timezone": null, "zone_id": null, "wheelchair_boarding": 2}, "geometry": {"type": "Point", "coordinates": [-0.1480413, 47.125324]}}, {"type": "Feature", "properties": {"stop_name": "Gare de Les Rosiers-sur-Loire", "stop_code": null, "stop_url": null, "stop_desc": null, "location_type": 0, "parent_station": "ter.StopArea_OCE87487876", "stop_id": "ter.StopPoint_OCETrain_TER-87487876", "stop_timezone": null, "zone_id": null, "wheelchair_boarding": 2}, "geometry": {"type": "Point", "coordinates": [-0.21961059, 47.36185]}}, {"type": "Feature", "properties": {"stop_name": "Gare de St-Mathurin", "stop_code": null, "stop_url": null, "stop_desc": null, "location_type": 0, "parent_station": "ter.StopArea_OCE87487892", "stop_id": "ter.StopPoint_OCETrain_TER-87487892", "stop_timezone": null, "zone_id": null, "wheelchair_boarding": 2}, "geometry": {"type": "Point", "coordinates": [-0.31806290000000004, 47.412079999999996]}}, {"type": "Feature", "properties": {"stop_name": "Gare de Saumur", "stop_code": null, "stop_url": null, "stop_desc": null, "location_type": 0, "parent_station": "ter.StopArea_OCE87487603", "stop_id": "ter.StopPoint_OCETrain_TER-87487603", "stop_timezone": null, "zone_id": null, "wheelchair_boarding": 2}, "geometry": {"type": "Point", "coordinates": [-0.07142992, 47.26897]}}, {"type": "Feature", "properties": {"stop_name": "Gare de La Bohalle", "stop_code": null, "stop_url": null, "stop_desc": null, "location_type": 0, "parent_station": "ter.StopArea_OCE87487843", "stop_id": "ter.StopPoint_OCETrain_TER-87487843", "stop_timezone": null, "zone_id": null, "wheelchair_boarding": 2}, "geometry": {"type": "Point", "coordinates": [-0.4001965, 47.434177000000005]}}, {"type": "Feature", "properties": {"stop_name": "Gare de Thouars", "stop_code": null, "stop_url": null, "stop_desc": null, "location_type": 0, "parent_station": "ter.StopArea_OCE87487009", "stop_id": "ter.StopPoint_OCETrain_TER-87487009", "stop_timezone": null, "zone_id": null, "wheelchair_boarding": 2}, "geometry": {"type": "Point", "coordinates": [-0.21051347, 46.98525]}}]}