{"type": "FeatureCollection", "features": [{"type": "Feature", "properties": {"route_id": "ter.OCE629114", "service_id": "ter.4844", "trip_id": "ter.OCESN865714F0300264643", "trip_headsign": "865714", "trip_short_name": "865714", "direction_id": 0, "wheelchair_accessible": 0, "shape_id": "shape_254"}, "geometry": {"type": "LineString", "coordinates": [[-0.55619407, 44.826538], [-0.5336025, 44.856770000000004], [-0.23636764, 44.915886], [-0.15924487, 44.881287], [-0.040657099999999995, 44.85716], [0.02154698, 44.853863], [0.10368375, 44.852], [0.221327, 44.836859999999994], [0.3318231, 44.834747], [0.38079482, 44.843815], [0.49035153, 44.8568]]}}, {"type": "Feature", "properties": {"stop_name": "Gare de Bordeaux-St-Jean", "stop_code": null, "stop_url": null, "stop_desc": null, "location_type": 0, "parent_station": "ter.StopArea_OCE87581009", "stop_id": "ter.StopPoint_OCETrain_TER-87581009", "stop_timezone": null, "zone_id": null, "wheelchair_boarding": 2}, "geometry": {"type": "Point", "coordinates": [-0.55619407, 44.826538]}}, {"type": "Feature", "properties": {"stop_name": "Gare de St-Emilion", "stop_code": null, "stop_url": null, "stop_desc": null, "location_type": 0, "parent_station": "ter.StopArea_OCE87584102", "stop_id": "ter.StopPoint_OCETrain_TER-87584102", "stop_timezone": null, "zone_id": null, "wheelchair_boarding": 2}, "geometry": {"type": "Point", "coordinates": [-0.15924487, 44.881287]}}, {"type": "Feature", "properties": {"stop_name": "Gare de Castillon", "stop_code": null, "stop_url": null, "stop_desc": null, "location_type": 0, "parent_station": "ter.StopArea_OCE87584136", "stop_id": "ter.StopPoint_OCETrain_TER-87584136", "stop_timezone": null, "zone_id": null, "wheelchair_boarding": 2}, "geometry": {"type": "Point", "coordinates": [-0.040657099999999995, 44.85716]}}, {"type": "Feature", "properties": {"stop_name": "Gare de Velines", "stop_code": null, "stop_url": null, "stop_desc": null, "location_type": 0, "parent_station": "ter.StopArea_OCE87584177", "stop_id": "ter.StopPoint_OCETrain_TER-87584177", "stop_timezone": null, "zone_id": null, "wheelchair_boarding": 2}, "geometry": {"type": "Point", "coordinates": [0.10368375, 44.852]}}, {"type": "Feature", "properties": {"stop_name": "Gare de Lamothe-Montravel", "stop_code": null, "stop_url": null, "stop_desc": null, "location_type": 0, "parent_station": "ter.StopArea_OCE87584151", "stop_id": "ter.StopPoint_OCETrain_TER-87584151", "stop_timezone": null, "zone_id": null, "wheelchair_boarding": 2}, "geometry": {"type": "Point", "coordinates": [0.02154698, 44.853863]}}, {"type": "Feature", "properties": {"stop_name": "Gare de Ste-Foy-la-Grande", "stop_code": null, "stop_url": null, "stop_desc": null, "location_type": 0, "parent_station": "ter.StopArea_OCE87584193", "stop_id": "ter.StopPoint_OCETrain_TER-87584193", "stop_timezone": null, "zone_id": null, "wheelchair_boarding": 2}, "geometry": {"type": "Point", "coordinates": [0.221327, 44.836859999999994]}}, {"type": "Feature", "properties": {"stop_name": "Gare de Cenon", "stop_code": null, "stop_url": null, "stop_desc": null, "location_type": 0, "parent_station": "ter.StopArea_OCE87420596", "stop_id": "ter.StopPoint_OCETrain_TER-87420596", "stop_timezone": null, "zone_id": null, "wheelchair_boarding": 2}, "geometry": {"type": "Point", "coordinates": [-0.5336025, 44.856770000000004]}}, {"type": "Feature", "properties": {"stop_name": "Gare de Bergerac", "stop_code": null, "stop_url": null, "stop_desc": null, "location_type": 0, "parent_station": "ter.StopArea_OCE87584268", "stop_id": "ter.StopPoint_OCETrain_TER-87584268", "stop_timezone": null, "zone_id": null, "wheelchair_boarding": 2}, "geometry": {"type": "Point", "coordinates": [0.49035153, 44.8568]}}, {"type": "Feature", "properties": {"stop_name": "Gare de Lamonzie-St-Martin", "stop_code": null, "stop_url": null, "stop_desc": null, "location_type": 0, "parent_station": "ter.StopArea_OCE87584243", "stop_id": "ter.StopPoint_OCETrain_TER-87584243", "stop_timezone": null, "zone_id": null, "wheelchair_boarding": 2}, "geometry": {"type": "Point", "coordinates": [0.38079482, 44.843815]}}, {"type": "Feature", "properties": {"stop_name": "Gare de Gardonne", "stop_code": null, "stop_url": null, "stop_desc": null, "location_type": 0, "parent_station": "ter.StopArea_OCE87584235", "stop_id": "ter.StopPoint_OCETrain_TER-87584235", "stop_timezone": null, "zone_id": null, "wheelchair_boarding": 2}, "geometry": {"type": "Point", "coordinates": [0.3318231, 44.834747]}}, {"type": "Feature", "properties": {"stop_name": "Gare de Libourne", "stop_code": null, "stop_url": null, "stop_desc": null, "location_type": 0, "parent_station": "ter.StopArea_OCE87584052", "stop_id": "ter.StopPoint_OCETrain_TER-87584052", "stop_timezone": null, "zone_id": null, "wheelchair_boarding": 2}, "geometry": {"type": "Point", "coordinates": [-0.23636764, 44.915886]}}]}