{"type": "FeatureCollection", "features": [{"type": "Feature", "properties": {"route_id": "ter.OCE104651", "service_id": "ter.2290", "trip_id": "ter.OCESN868707F0100165473", "trip_headsign": "868707", "trip_short_name": "868707", "direction_id": 1, "wheelchair_accessible": 0, "shape_id": "shape_572"}, "geometry": {"type": "LineString", "coordinates": [[2.5964122000000005, 46.337875], [2.4761217, 46.371418], [2.2703382999999997, 46.321407], [2.1741962000000004, 46.19831], [2.0231023, 46.123093], [1.87917, 46.174145], [1.7339351000000003, 46.136790000000005], [1.6735442999999999, 46.091133], [1.5856059999999998, 46.094193], [1.4762826, 46.046867], [1.4065024, 45.9529], [1.2674521, 45.836209999999994]]}}, {"type": "Feature", "properties": {"stop_name": "Gare de Ambazac", "stop_code": null, "stop_url": null, "stop_desc": null, "location_type": 0, "parent_station": "ter.StopArea_OCE87592311", "stop_id": "ter.StopPoint_OCETrain_TER-87592311", "stop_timezone": null, "zone_id": null, "wheelchair_boarding": 2}, "geometry": {"type": "Point", "coordinates": [1.4065024, 45.9529]}}, {"type": "Feature", "properties": {"stop_name": "Gare de St-Sulpice-Lauri\u00e8re", "stop_code": null, "stop_url": null, "stop_desc": null, "location_type": 0, "parent_station": "ter.StopArea_OCE87592345", "stop_id": "ter.StopPoint_OCETrain_TER-87592345", "stop_timezone": null, "zone_id": null, "wheelchair_boarding": 2}, "geometry": {"type": "Point", "coordinates": [1.4762826, 46.046867]}}, {"type": "Feature", "properties": {"stop_name": "Gare de Gu\u00e9ret", "stop_code": null, "stop_url": null, "stop_desc": null, "location_type": 0, "parent_station": "ter.StopArea_OCE87597609", "stop_id": "ter.StopPoint_OCETrain_TER-87597609", "stop_timezone": null, "zone_id": null, "wheelchair_boarding": 2}, "geometry": {"type": "Point", "coordinates": [1.87917, 46.174145]}}, {"type": "Feature", "properties": {"stop_name": "Gare de Vieilleville", "stop_code": null, "stop_url": null, "stop_desc": null, "location_type": 0, "parent_station": "ter.StopArea_OCE87597633", "stop_id": "ter.StopPoint_OCETrain_TER-87597633", "stop_timezone": null, "zone_id": null, "wheelchair_boarding": 2}, "geometry": {"type": "Point", "coordinates": [1.6735442999999999, 46.091133]}}, {"type": "Feature", "properties": {"stop_name": "Gare de Marsac (Creuse)", "stop_code": null, "stop_url": null, "stop_desc": null, "location_type": 0, "parent_station": "ter.StopArea_OCE87597625", "stop_id": "ter.StopPoint_OCETrain_TER-87597625", "stop_timezone": null, "zone_id": null, "wheelchair_boarding": 2}, "geometry": {"type": "Point", "coordinates": [1.5856059999999998, 46.094193]}}, {"type": "Feature", "properties": {"stop_name": "Gare de Montaigut (Creuse)", "stop_code": null, "stop_url": null, "stop_desc": null, "location_type": 0, "parent_station": "ter.StopArea_OCE87597674", "stop_id": "ter.StopPoint_OCETrain_TER-87597674", "stop_timezone": null, "zone_id": null, "wheelchair_boarding": 2}, "geometry": {"type": "Point", "coordinates": [1.7339351000000003, 46.136790000000005]}}, {"type": "Feature", "properties": {"stop_name": "Gare de Montlu\u00e7on-Ville", "stop_code": null, "stop_url": null, "stop_desc": null, "location_type": 0, "parent_station": "ter.StopArea_OCE87641001", "stop_id": "ter.StopPoint_OCETrain_TER-87641001", "stop_timezone": null, "zone_id": null, "wheelchair_boarding": 2}, "geometry": {"type": "Point", "coordinates": [2.5964122000000005, 46.337875]}}, {"type": "Feature", "properties": {"stop_name": "Gare de Limoges-B\u00e9n\u00e9dictins", "stop_code": null, "stop_url": null, "stop_desc": null, "location_type": 0, "parent_station": "ter.StopArea_OCE87592006", "stop_id": "ter.StopPoint_OCETrain_TER-87592006", "stop_timezone": null, "zone_id": null, "wheelchair_boarding": 2}, "geometry": {"type": "Point", "coordinates": [1.2674521, 45.836209999999994]}}, {"type": "Feature", "properties": {"stop_name": "Gare de Huriel", "stop_code": null, "stop_url": null, "stop_desc": null, "location_type": 0, "parent_station": "ter.StopArea_OCE87641217", "stop_id": "ter.StopPoint_OCETrain_TER-87641217", "stop_timezone": null, "zone_id": null, "wheelchair_boarding": 2}, "geometry": {"type": "Point", "coordinates": [2.4761217, 46.371418]}}, {"type": "Feature", "properties": {"stop_name": "Gare de Parsac-Gouzon", "stop_code": null, "stop_url": null, "stop_desc": null, "location_type": 0, "parent_station": "ter.StopArea_OCE87597724", "stop_id": "ter.StopPoint_OCETrain_TER-87597724", "stop_timezone": null, "zone_id": null, "wheelchair_boarding": 2}, "geometry": {"type": "Point", "coordinates": [2.1741962000000004, 46.19831]}}, {"type": "Feature", "properties": {"stop_name": "Gare de Busseau-sur-Creuse", "stop_code": null, "stop_url": null, "stop_desc": null, "location_type": 0, "parent_station": "ter.StopArea_OCE87597708", "stop_id": "ter.StopPoint_OCETrain_TER-87597708", "stop_timezone": null, "zone_id": null, "wheelchair_boarding": 2}, "geometry": {"type": "Point", "coordinates": [2.0231023, 46.123093]}}, {"type": "Feature", "properties": {"stop_name": "Gare de Lavaufranche", "stop_code": null, "stop_url": null, "stop_desc": null, "location_type": 0, "parent_station": "ter.StopArea_OCE87597740", "stop_id": "ter.StopPoint_OCETrain_TER-87597740", "stop_timezone": null, "zone_id": null, "wheelchair_boarding": 2}, "geometry": {"type": "Point", "coordinates": [2.2703382999999997, 46.321407]}}]}