{"type": "FeatureCollection", "features": [{"type": "Feature", "properties": {"route_id": "ter.OCE104649", "service_id": "ter.1", "trip_id": "ter.OCESN869108F0100265559", "trip_headsign": "869108", "trip_short_name": "869108", "direction_id": 0, "wheelchair_accessible": 0, "shape_id": "shape_401"}, "geometry": {"type": "LineString", "coordinates": [[1.5286225, 45.15256], [1.4732290000000001, 45.258965], [1.5151233999999998, 45.382884999999995], [1.570228, 45.44062], [1.5413525, 45.536106], [1.5383204, 45.574036], [1.4799366000000003, 45.60986], [1.4437742, 45.628840000000004], [1.347227, 45.699459999999995], [1.2855527, 45.756077000000005], [1.2674521, 45.836209999999994]]}}, {"type": "Feature", "properties": {"stop_name": "Gare de Masseret", "stop_code": null, "stop_url": null, "stop_desc": null, "location_type": 0, "parent_station": "ter.StopArea_OCE87594820", "stop_id": "ter.StopPoint_OCETrain_TER-87594820", "stop_timezone": null, "zone_id": null, "wheelchair_boarding": 2}, "geometry": {"type": "Point", "coordinates": [1.5413525, 45.536106]}}, {"type": "Feature", "properties": {"stop_name": "Gare de Solignac-le-Vigen", "stop_code": null, "stop_url": null, "stop_desc": null, "location_type": 0, "parent_station": "ter.StopArea_OCE87592246", "stop_id": "ter.StopPoint_OCETrain_TER-87592246", "stop_timezone": null, "zone_id": null, "wheelchair_boarding": 2}, "geometry": {"type": "Point", "coordinates": [1.2855527, 45.756077000000005]}}, {"type": "Feature", "properties": {"stop_name": "Gare de Limoges-B\u00e9n\u00e9dictins", "stop_code": null, "stop_url": null, "stop_desc": null, "location_type": 0, "parent_station": "ter.StopArea_OCE87592006", "stop_id": "ter.StopPoint_OCETrain_TER-87592006", "stop_timezone": null, "zone_id": null, "wheelchair_boarding": 2}, "geometry": {"type": "Point", "coordinates": [1.2674521, 45.836209999999994]}}, {"type": "Feature", "properties": {"stop_name": "Gare de St-Germain-les-Belles", "stop_code": null, "stop_url": null, "stop_desc": null, "location_type": 0, "parent_station": "ter.StopArea_OCE87592287", "stop_id": "ter.StopPoint_OCETrain_TER-87592287", "stop_timezone": null, "zone_id": null, "wheelchair_boarding": 2}, "geometry": {"type": "Point", "coordinates": [1.4799366000000003, 45.60986]}}, {"type": "Feature", "properties": {"stop_name": "Gare de Magnac-Vicq", "stop_code": null, "stop_url": null, "stop_desc": null, "location_type": 0, "parent_station": "ter.StopArea_OCE87592279", "stop_id": "ter.StopPoint_OCETrain_TER-87592279", "stop_timezone": null, "zone_id": null, "wheelchair_boarding": 2}, "geometry": {"type": "Point", "coordinates": [1.4437742, 45.628840000000004]}}, {"type": "Feature", "properties": {"stop_name": "Gare de Vigeois", "stop_code": null, "stop_url": null, "stop_desc": null, "location_type": 0, "parent_station": "ter.StopArea_OCE87594218", "stop_id": "ter.StopPoint_OCETrain_TER-87594218", "stop_timezone": null, "zone_id": null, "wheelchair_boarding": 2}, "geometry": {"type": "Point", "coordinates": [1.5151233999999998, 45.382884999999995]}}, {"type": "Feature", "properties": {"stop_name": "Gare de Uzerche", "stop_code": null, "stop_url": null, "stop_desc": null, "location_type": 0, "parent_station": "ter.StopArea_OCE87594200", "stop_id": "ter.StopPoint_OCETrain_TER-87594200", "stop_timezone": null, "zone_id": null, "wheelchair_boarding": 2}, "geometry": {"type": "Point", "coordinates": [1.570228, 45.44062]}}, {"type": "Feature", "properties": {"stop_name": "Gare de Pierre-Buffi\u00e8re", "stop_code": null, "stop_url": null, "stop_desc": null, "location_type": 0, "parent_station": "ter.StopArea_OCE87592253", "stop_id": "ter.StopPoint_OCETrain_TER-87592253", "stop_timezone": null, "zone_id": null, "wheelchair_boarding": 2}, "geometry": {"type": "Point", "coordinates": [1.347227, 45.699459999999995]}}, {"type": "Feature", "properties": {"stop_name": "Gare de Brive-la-Gaillarde", "stop_code": null, "stop_url": null, "stop_desc": null, "location_type": 0, "parent_station": "ter.StopArea_OCE87594002", "stop_id": "ter.StopPoint_OCETrain_TER-87594002", "stop_timezone": null, "zone_id": null, "wheelchair_boarding": 2}, "geometry": {"type": "Point", "coordinates": [1.5286225, 45.15256]}}, {"type": "Feature", "properties": {"stop_name": "Gare de La-Porcherie-Gare", "stop_code": null, "stop_url": null, "stop_desc": null, "location_type": 0, "parent_station": "ter.StopArea_OCE87592295", "stop_id": "ter.StopPoint_OCETrain_TER-87592295", "stop_timezone": null, "zone_id": null, "wheelchair_boarding": 2}, "geometry": {"type": "Point", "coordinates": [1.5383204, 45.574036]}}, {"type": "Feature", "properties": {"stop_name": "Gare de Allassac", "stop_code": null, "stop_url": null, "stop_desc": null, "location_type": 0, "parent_station": "ter.StopArea_OCE87594234", "stop_id": "ter.StopPoint_OCETrain_TER-87594234", "stop_timezone": null, "zone_id": null, "wheelchair_boarding": 2}, "geometry": {"type": "Point", "coordinates": [1.4732290000000001, 45.258965]}}]}