{"type": "FeatureCollection", "features": [{"type": "Feature", "properties": {"route_id": "ter.OCE652", "service_id": "ter.11908", "trip_id": "ter.OCESN878956F0400267006", "trip_headsign": "878956", "trip_short_name": "878956", "direction_id": 0, "wheelchair_accessible": 0, "shape_id": "shape_642"}, "geometry": {"type": "LineString", "coordinates": [[3.074898, 44.10187], [3.0573869, 44.325203], [3.1962101, 44.447643], [3.2810476000000004, 44.544616999999995], [3.2834152999999997, 44.718140000000005], [3.2707412000000002, 44.8017]]}}, {"type": "Feature", "properties": {"stop_name": "Gare de S\u00e9v\u00e9rac-le-Ch\u00e2teau", "stop_code": null, "stop_url": null, "stop_desc": null, "location_type": 0, "parent_station": "ter.StopArea_OCE87783365", "stop_id": "ter.StopPoint_OCETrain_TER-87783365", "stop_timezone": null, "zone_id": null, "wheelchair_boarding": 2}, "geometry": {"type": "Point", "coordinates": [3.0573869, 44.325203]}}, {"type": "Feature", "properties": {"stop_name": "Gare de Banassac-la-Canourgue", "stop_code": null, "stop_url": null, "stop_desc": null, "location_type": 0, "parent_station": "ter.StopArea_OCE87783324", "stop_id": "ter.StopPoint_OCETrain_TER-87783324", "stop_timezone": null, "zone_id": null, "wheelchair_boarding": 2}, "geometry": {"type": "Point", "coordinates": [3.1962101, 44.447643]}}, {"type": "Feature", "properties": {"stop_name": "Gare de Marvejols", "stop_code": null, "stop_url": null, "stop_desc": null, "location_type": 0, "parent_station": "ter.StopArea_OCE87783282", "stop_id": "ter.StopPoint_OCETrain_TER-87783282", "stop_timezone": null, "zone_id": null, "wheelchair_boarding": 2}, "geometry": {"type": "Point", "coordinates": [3.2810476000000004, 44.544616999999995]}}, {"type": "Feature", "properties": {"stop_name": "Gare de Aumont-Aubrac", "stop_code": null, "stop_url": null, "stop_desc": null, "location_type": 0, "parent_station": "ter.StopArea_OCE87783266", "stop_id": "ter.StopPoint_OCETrain_TER-87783266", "stop_timezone": null, "zone_id": null, "wheelchair_boarding": 2}, "geometry": {"type": "Point", "coordinates": [3.2834152999999997, 44.718140000000005]}}, {"type": "Feature", "properties": {"stop_name": "Gare de St-Ch\u00e9ly-d'Apcher", "stop_code": null, "stop_url": null, "stop_desc": null, "location_type": 0, "parent_station": "ter.StopArea_OCE87783241", "stop_id": "ter.StopPoint_OCETrain_TER-87783241", "stop_timezone": null, "zone_id": null, "wheelchair_boarding": 2}, "geometry": {"type": "Point", "coordinates": [3.2707412000000002, 44.8017]}}, {"type": "Feature", "properties": {"stop_name": "Gare de Millau", "stop_code": null, "stop_url": null, "stop_desc": null, "location_type": 0, "parent_station": "ter.StopArea_OCE87783001", "stop_id": "ter.StopPoint_OCETrain_TER-87783001", "stop_timezone": null, "zone_id": null, "wheelchair_boarding": 2}, "geometry": {"type": "Point", "coordinates": [3.074898, 44.10187]}}]}