{"type": "FeatureCollection", "features": [{"type": "Feature", "properties": {"route_id": "ter.OCE89", "service_id": "ter.176", "trip_id": "ter.OCESN864462F0100164261", "trip_headsign": "864462", "trip_short_name": "864462", "direction_id": 0, "wheelchair_accessible": 0, "shape_id": "shape_194"}, "geometry": {"type": "LineString", "coordinates": [[-0.6175758000000001, 45.747845], [-0.5098035, 45.940884000000004], [-0.5018795, 46.043507], [-0.51306933, 46.098729999999996], [-0.49367338, 46.152756], [-0.46916455, 46.1767], [-0.42863116, 46.199028000000006], [-0.4069255, 46.23454], [-0.45439056, 46.319344]]}}, {"type": "Feature", "properties": {"stop_name": "Gare de Beauvoir-sur-Niort", "stop_code": null, "stop_url": null, "stop_desc": null, "location_type": 0, "parent_station": "ter.StopArea_OCE87485342", "stop_id": "ter.StopPoint_OCETrain_TER-87485342", "stop_timezone": null, "zone_id": null, "wheelchair_boarding": 2}, "geometry": {"type": "Point", "coordinates": [-0.46916455, 46.1767]}}, {"type": "Feature", "properties": {"stop_name": "Gare de Marigny (Deux-S\u00e8vres)", "stop_code": null, "stop_url": null, "stop_desc": null, "location_type": 0, "parent_station": "ter.StopArea_OCE87485334", "stop_id": "ter.StopPoint_OCETrain_TER-87485334", "stop_timezone": null, "zone_id": null, "wheelchair_boarding": 2}, "geometry": {"type": "Point", "coordinates": [-0.42863116, 46.199028000000006]}}, {"type": "Feature", "properties": {"stop_name": "Gare de Priss\u00e9-la-Charri\u00e8re", "stop_code": null, "stop_url": null, "stop_desc": null, "location_type": 0, "parent_station": "ter.StopArea_OCE87485359", "stop_id": "ter.StopPoint_OCETrain_TER-87485359", "stop_timezone": null, "zone_id": null, "wheelchair_boarding": 2}, "geometry": {"type": "Point", "coordinates": [-0.49367338, 46.152756]}}, {"type": "Feature", "properties": {"stop_name": "Gare de Niort", "stop_code": null, "stop_url": null, "stop_desc": null, "location_type": 0, "parent_station": "ter.StopArea_OCE87485300", "stop_id": "ter.StopPoint_OCETrain_TER-87485300", "stop_timezone": null, "zone_id": null, "wheelchair_boarding": 2}, "geometry": {"type": "Point", "coordinates": [-0.45439056, 46.319344]}}, {"type": "Feature", "properties": {"stop_name": "Gare de Fors", "stop_code": null, "stop_url": null, "stop_desc": null, "location_type": 0, "parent_station": "ter.StopArea_OCE87485326", "stop_id": "ter.StopPoint_OCETrain_TER-87485326", "stop_timezone": null, "zone_id": null, "wheelchair_boarding": 2}, "geometry": {"type": "Point", "coordinates": [-0.4069255, 46.23454]}}, {"type": "Feature", "properties": {"stop_name": "Gare de St-Jean-d'Ang\u00e9ly", "stop_code": null, "stop_url": null, "stop_desc": null, "location_type": 0, "parent_station": "ter.StopArea_OCE87491357", "stop_id": "ter.StopPoint_OCETrain_TER-87491357", "stop_timezone": null, "zone_id": null, "wheelchair_boarding": 2}, "geometry": {"type": "Point", "coordinates": [-0.5098035, 45.940884000000004]}}, {"type": "Feature", "properties": {"stop_name": "Gare de Saintes", "stop_code": null, "stop_url": null, "stop_desc": null, "location_type": 0, "parent_station": "ter.StopArea_OCE87491001", "stop_id": "ter.StopPoint_OCETrain_TER-87491001", "stop_timezone": null, "zone_id": null, "wheelchair_boarding": 2}, "geometry": {"type": "Point", "coordinates": [-0.6175758000000001, 45.747845]}}, {"type": "Feature", "properties": {"stop_name": "Gare de Loulay", "stop_code": null, "stop_url": null, "stop_desc": null, "location_type": 0, "parent_station": "ter.StopArea_OCE87491290", "stop_id": "ter.StopPoint_OCETrain_TER-87491290", "stop_timezone": null, "zone_id": null, "wheelchair_boarding": 2}, "geometry": {"type": "Point", "coordinates": [-0.5018795, 46.043507]}}, {"type": "Feature", "properties": {"stop_name": "Gare de Villeneuve-la-Comtesse", "stop_code": null, "stop_url": null, "stop_desc": null, "location_type": 0, "parent_station": "ter.StopArea_OCE87491258", "stop_id": "ter.StopPoint_OCETrain_TER-87491258", "stop_timezone": null, "zone_id": null, "wheelchair_boarding": 2}, "geometry": {"type": "Point", "coordinates": [-0.51306933, 46.098729999999996]}}]}