{"type": "FeatureCollection", "features": [{"type": "Feature", "properties": {"route_id": "ter.OCE180691", "service_id": "ter.115", "trip_id": "ter.OCESN035507R0300126407", "trip_headsign": "35507", "trip_short_name": "35507", "direction_id": 1, "wheelchair_accessible": 0, "shape_id": "shape_091"}, "geometry": {"type": "LineString", "coordinates": [[2.240842, 44.56367], [2.2508736000000003, 44.560028], [2.218024, 44.55704], [2.2416296, 44.529552], [2.2437818, 44.528107], [2.229428, 44.477608000000004], [2.176453, 44.433871999999994], [2.1603665000000003, 44.424793], [2.0893655, 44.40494], [2.0363854999999997, 44.37536], [2.0388448, 44.353683000000004], [2.0365834, 44.34768]]}}, {"type": "Feature", "properties": {"stop_name": "Villefranche-Rouerg-Far", "stop_code": null, "stop_url": null, "stop_desc": null, "location_type": 0, "parent_station": "ter.StopArea_OCE87138800", "stop_id": "ter.StopPoint_OCECar_TER-87138800", "stop_timezone": null, "zone_id": null, "wheelchair_boarding": 2}, "geometry": {"type": "Point", "coordinates": [2.0363854999999997, 44.37536]}}, {"type": "Feature", "properties": {"stop_name": "Aubin-LEP", "stop_code": null, "stop_url": null, "stop_desc": null, "location_type": 0, "parent_station": "ter.StopArea_OCE87587931", "stop_id": "ter.StopPoint_OCECar_TER-87587931", "stop_timezone": null, "zone_id": null, "wheelchair_boarding": 2}, "geometry": {"type": "Point", "coordinates": [2.2416296, 44.529552]}}, {"type": "Feature", "properties": {"stop_name": "Le-Bruel-Bel-Air", "stop_code": null, "stop_url": null, "stop_desc": null, "location_type": 0, "parent_station": "ter.StopArea_OCE87139071", "stop_id": "ter.StopPoint_OCECar_TER-87139071", "stop_timezone": null, "zone_id": null, "wheelchair_boarding": 2}, "geometry": {"type": "Point", "coordinates": [2.176453, 44.433871999999994]}}, {"type": "Feature", "properties": {"stop_name": "Aubin-Place-Monteils", "stop_code": null, "stop_url": null, "stop_desc": null, "location_type": 0, "parent_station": "ter.StopArea_OCE87609602", "stop_id": "ter.StopPoint_OCECar_TER-87609602", "stop_timezone": null, "zone_id": null, "wheelchair_boarding": 2}, "geometry": {"type": "Point", "coordinates": [2.2437818, 44.528107]}}, {"type": "Feature", "properties": {"stop_name": "Place de la Libert\u00e9", "stop_code": null, "stop_url": null, "stop_desc": null, "location_type": 0, "parent_station": "ter.StopArea_OCE87138776", "stop_id": "ter.StopPoint_OCECar_TER-87138776", "stop_timezone": null, "zone_id": null, "wheelchair_boarding": 2}, "geometry": {"type": "Point", "coordinates": [2.0388448, 44.353683000000004]}}, {"type": "Feature", "properties": {"stop_name": "Maleville-Barbet", "stop_code": null, "stop_url": null, "stop_desc": null, "location_type": 0, "parent_station": "ter.StopArea_OCE87146597", "stop_id": "ter.StopPoint_OCECar_TER-87146597", "stop_timezone": null, "zone_id": null, "wheelchair_boarding": 2}, "geometry": {"type": "Point", "coordinates": [2.0893655, 44.40494]}}, {"type": "Feature", "properties": {"stop_name": "Decazeville-Place-Wilso", "stop_code": null, "stop_url": null, "stop_desc": null, "location_type": 0, "parent_station": "ter.StopArea_OCE87146522", "stop_id": "ter.StopPoint_OCECar_TER-87146522", "stop_timezone": null, "zone_id": null, "wheelchair_boarding": 2}, "geometry": {"type": "Point", "coordinates": [2.2508736000000003, 44.560028]}}, {"type": "Feature", "properties": {"stop_name": "Montbazens", "stop_code": null, "stop_url": null, "stop_desc": null, "location_type": 0, "parent_station": "ter.StopArea_OCE87157016", "stop_id": "ter.StopPoint_OCECar_TER-87157016", "stop_timezone": null, "zone_id": null, "wheelchair_boarding": 2}, "geometry": {"type": "Point", "coordinates": [2.229428, 44.477608000000004]}}, {"type": "Feature", "properties": {"stop_name": "Lanu\u00e9jouls", "stop_code": null, "stop_url": null, "stop_desc": null, "location_type": 0, "parent_station": "ter.StopArea_OCE87157024", "stop_id": "ter.StopPoint_OCECar_TER-87157024", "stop_timezone": null, "zone_id": null, "wheelchair_boarding": 2}, "geometry": {"type": "Point", "coordinates": [2.1603665000000003, 44.424793]}}, {"type": "Feature", "properties": {"stop_name": "Gare de Viviez-Decazeville", "stop_code": null, "stop_url": null, "stop_desc": null, "location_type": 0, "parent_station": "ter.StopArea_OCE87613661", "stop_id": "ter.StopPoint_OCECar_TER-87613661", "stop_timezone": null, "zone_id": null, "wheelchair_boarding": 2}, "geometry": {"type": "Point", "coordinates": [2.218024, 44.55704]}}, {"type": "Feature", "properties": {"stop_name": "Decazeville-Centre", "stop_code": null, "stop_url": null, "stop_desc": null, "location_type": 0, "parent_station": "ter.StopArea_OCE87613679", "stop_id": "ter.StopPoint_OCECar_TER-87613679", "stop_timezone": null, "zone_id": null, "wheelchair_boarding": 2}, "geometry": {"type": "Point", "coordinates": [2.240842, 44.56367]}}, {"type": "Feature", "properties": {"stop_name": "Gare de Villefranche-Rouergue", "stop_code": null, "stop_url": null, "stop_desc": null, "location_type": 0, "parent_station": "ter.StopArea_OCE87613893", "stop_id": "ter.StopPoint_OCECar_TER-87613893", "stop_timezone": null, "zone_id": null, "wheelchair_boarding": 2}, "geometry": {"type": "Point", "coordinates": [2.0365834, 44.34768]}}]}