{"type": "FeatureCollection", "features": [{"type": "Feature", "properties": {"route_id": "ter.OCE116623", "service_id": "ter.15101", "trip_id": "ter.OCESN868064F0100165278", "trip_headsign": "868064", "trip_short_name": "868064", "direction_id": 0, "wheelchair_accessible": 0, "shape_id": "shape_362"}, "geometry": {"type": "LineString", "coordinates": [[1.2674521, 45.836209999999994], [1.1722442, 45.927437], [1.17019, 45.959742999999996], [1.1564404, 46.005695], [1.0461, 46.125225], [1.0792445, 46.21111]]}}, {"type": "Feature", "properties": {"stop_name": "Gare de Le Dorat", "stop_code": null, "stop_url": null, "stop_desc": null, "location_type": 0, "parent_station": "ter.StopArea_OCE87592543", "stop_id": "ter.StopPoint_OCETrain_TER-87592543", "stop_timezone": null, "zone_id": null, "wheelchair_boarding": 2}, "geometry": {"type": "Point", "coordinates": [1.0792445, 46.21111]}}, {"type": "Feature", "properties": {"stop_name": "Gare de Nantiat", "stop_code": null, "stop_url": null, "stop_desc": null, "location_type": 0, "parent_station": "ter.StopArea_OCE87592444", "stop_id": "ter.StopPoint_OCETrain_TER-87592444", "stop_timezone": null, "zone_id": null, "wheelchair_boarding": 2}, "geometry": {"type": "Point", "coordinates": [1.1564404, 46.005695]}}, {"type": "Feature", "properties": {"stop_name": "Gare de Peyrilhac-St-Jouvent", "stop_code": null, "stop_url": null, "stop_desc": null, "location_type": 0, "parent_station": "ter.StopArea_OCE87592428", "stop_id": "ter.StopPoint_OCETrain_TER-87592428", "stop_timezone": null, "zone_id": null, "wheelchair_boarding": 2}, "geometry": {"type": "Point", "coordinates": [1.17019, 45.959742999999996]}}, {"type": "Feature", "properties": {"stop_name": "Gare de Nieul", "stop_code": null, "stop_url": null, "stop_desc": null, "location_type": 0, "parent_station": "ter.StopArea_OCE87592410", "stop_id": "ter.StopPoint_OCETrain_TER-87592410", "stop_timezone": null, "zone_id": null, "wheelchair_boarding": 2}, "geometry": {"type": "Point", "coordinates": [1.1722442, 45.927437]}}, {"type": "Feature", "properties": {"stop_name": "Gare de Limoges-B\u00e9n\u00e9dictins", "stop_code": null, "stop_url": null, "stop_desc": null, "location_type": 0, "parent_station": "ter.StopArea_OCE87592006", "stop_id": "ter.StopPoint_OCETrain_TER-87592006", "stop_timezone": null, "zone_id": null, "wheelchair_boarding": 2}, "geometry": {"type": "Point", "coordinates": [1.2674521, 45.836209999999994]}}, {"type": "Feature", "properties": {"stop_name": "Gare de Bellac", "stop_code": null, "stop_url": null, "stop_desc": null, "location_type": 0, "parent_station": "ter.StopArea_OCE87592485", "stop_id": "ter.StopPoint_OCETrain_TER-87592485", "stop_timezone": null, "zone_id": null, "wheelchair_boarding": 2}, "geometry": {"type": "Point", "coordinates": [1.0461, 46.125225]}}]}