{"type": "FeatureCollection", "features": [{"type": "Feature", "properties": {"route_id": "ter.OCE572938", "service_id": "ter.11846", "trip_id": "ter.OCESN038807R0200127221", "trip_headsign": "38807", "trip_short_name": "38807", "direction_id": 1, "wheelchair_accessible": 0, "shape_id": "shape_025"}, "geometry": {"type": "LineString", "coordinates": [[0.25204360000000003, 47.16305], [0.1948782, 47.140125], [0.17677051, 47.094612], [0.12276684, 47.03555], [0.08334456, 47.016026000000004], [-0.21051347, 46.98525]]}}, {"type": "Feature", "properties": {"stop_name": "Basses-Sammar\u00e7olles", "stop_code": null, "stop_url": null, "stop_desc": null, "location_type": 0, "parent_station": "ter.StopArea_OCE87571729", "stop_id": "ter.StopPoint_OCECar_TER-87571729", "stop_timezone": null, "zone_id": null, "wheelchair_boarding": 2}, "geometry": {"type": "Point", "coordinates": [0.12276684, 47.03555]}}, {"type": "Feature", "properties": {"stop_name": "Loudun", "stop_code": null, "stop_url": null, "stop_desc": null, "location_type": 0, "parent_station": "ter.StopArea_OCE87575084", "stop_id": "ter.StopPoint_OCECar_TER-87575084", "stop_timezone": null, "zone_id": null, "wheelchair_boarding": 2}, "geometry": {"type": "Point", "coordinates": [0.08334456, 47.016026000000004]}}, {"type": "Feature", "properties": {"stop_name": "Beuxes", "stop_code": null, "stop_url": null, "stop_desc": null, "location_type": 0, "parent_station": "ter.StopArea_OCE87571711", "stop_id": "ter.StopPoint_OCECar_TER-87571711", "stop_timezone": null, "zone_id": null, "wheelchair_boarding": 2}, "geometry": {"type": "Point", "coordinates": [0.17677051, 47.094612]}}, {"type": "Feature", "properties": {"stop_name": "La Roche-Clermault", "stop_code": null, "stop_url": null, "stop_desc": null, "location_type": 0, "parent_station": "ter.StopArea_OCE87571703", "stop_id": "ter.StopPoint_OCECar_TER-87571703", "stop_timezone": null, "zone_id": null, "wheelchair_boarding": 2}, "geometry": {"type": "Point", "coordinates": [0.1948782, 47.140125]}}, {"type": "Feature", "properties": {"stop_name": "Gare de Thouars", "stop_code": null, "stop_url": null, "stop_desc": null, "location_type": 0, "parent_station": "ter.StopArea_OCE87487009", "stop_id": "ter.StopPoint_OCECar_TER-87487009", "stop_timezone": null, "zone_id": null, "wheelchair_boarding": 2}, "geometry": {"type": "Point", "coordinates": [-0.21051347, 46.98525]}}, {"type": "Feature", "properties": {"stop_name": "Gare de Chinon", "stop_code": null, "stop_url": null, "stop_desc": null, "location_type": 0, "parent_station": "ter.StopArea_OCE87571687", "stop_id": "ter.StopPoint_OCECar_TER-87571687", "stop_timezone": null, "zone_id": null, "wheelchair_boarding": 2}, "geometry": {"type": "Point", "coordinates": [0.25204360000000003, 47.16305]}}]}