{"type": "FeatureCollection", "features": [{"type": "Feature", "properties": {"route_id": "ter.OCE641480", "service_id": "ter.2881", "trip_id": "ter.OCESN038604R0100127211", "trip_headsign": "38604", "trip_short_name": "38604", "direction_id": 0, "wheelchair_accessible": 0, "shape_id": "shape_010"}, "geometry": {"type": "LineString", "coordinates": [[0.33401558, 46.582767], [0.38188955, 46.682303999999995], [0.440467, 46.72867], [0.49607092, 46.759518], [0.549218, 46.818565]]}}, {"type": "Feature", "properties": {"stop_name": "Poitiers-Gare-Routi\u00e8re", "stop_code": null, "stop_url": null, "stop_desc": null, "location_type": 0, "parent_station": "ter.StopArea_OCE87202481", "stop_id": "ter.StopPoint_OCECar_TER-87202481", "stop_timezone": null, "zone_id": null, "wheelchair_boarding": 2}, "geometry": {"type": "Point", "coordinates": [0.33401558, 46.582767]}}, {"type": "Feature", "properties": {"stop_name": "Gare de Jaunay-Clan", "stop_code": null, "stop_url": null, "stop_desc": null, "location_type": 0, "parent_station": "ter.StopArea_OCE87575217", "stop_id": "ter.StopPoint_OCECar_TER-87575217", "stop_timezone": null, "zone_id": null, "wheelchair_boarding": 2}, "geometry": {"type": "Point", "coordinates": [0.38188955, 46.682303999999995]}}, {"type": "Feature", "properties": {"stop_name": "Gare de La Tricherie", "stop_code": null, "stop_url": null, "stop_desc": null, "location_type": 0, "parent_station": "ter.StopArea_OCE87575183", "stop_id": "ter.StopPoint_OCECar_TER-87575183", "stop_timezone": null, "zone_id": null, "wheelchair_boarding": 2}, "geometry": {"type": "Point", "coordinates": [0.440467, 46.72867]}}, {"type": "Feature", "properties": {"stop_name": "Gare de Naintr\u00e9-les-Barres", "stop_code": null, "stop_url": null, "stop_desc": null, "location_type": 0, "parent_station": "ter.StopArea_OCE87575175", "stop_id": "ter.StopPoint_OCECar_TER-87575175", "stop_timezone": null, "zone_id": null, "wheelchair_boarding": 2}, "geometry": {"type": "Point", "coordinates": [0.49607092, 46.759518]}}, {"type": "Feature", "properties": {"stop_name": "Gare de Chatellerault", "stop_code": null, "stop_url": null, "stop_desc": null, "location_type": 0, "parent_station": "ter.StopArea_OCE87575142", "stop_id": "ter.StopPoint_OCECar_TER-87575142", "stop_timezone": null, "zone_id": null, "wheelchair_boarding": 2}, "geometry": {"type": "Point", "coordinates": [0.549218, 46.818565]}}]}