{"type": "FeatureCollection", "features": [{"type": "Feature", "properties": {"route_id": "ter.OCE4621", "service_id": "ter.1", "trip_id": "ter.OCESN870056F0100265610", "trip_headsign": "870056", "trip_short_name": "870056", "direction_id": 0, "wheelchair_accessible": 0, "shape_id": "shape_530"}, "geometry": {"type": "LineString", "coordinates": [[1.4535576000000001, 43.611465], [1.5675675, 43.695797], [1.5978936000000001, 43.716], [1.6182401000000002, 43.750645], [1.6810372, 43.775414000000005], [1.7307626, 43.81949], [1.8077447, 43.856228], [1.8948191000000003, 43.905964000000004], [1.9374105, 43.928394], [2.026759, 43.915096000000005], [2.1386354, 43.922035], [2.1411675999999997, 43.9379], [2.1523887999999998, 44.049004]]}}, {"type": "Feature", "properties": {"stop_name": "Gare de Montastruc-la-Conseil.", "stop_code": null, "stop_url": null, "stop_desc": null, "location_type": 0, "parent_station": "ter.StopArea_OCE87615369", "stop_id": "ter.StopPoint_OCETrain_TER-87615369", "stop_timezone": null, "zone_id": null, "wheelchair_boarding": 2}, "geometry": {"type": "Point", "coordinates": [1.5978936000000001, 43.716]}}, {"type": "Feature", "properties": {"stop_name": "Gare de Roqueseri\u00e8re-Buzet", "stop_code": null, "stop_url": null, "stop_desc": null, "location_type": 0, "parent_station": "ter.StopArea_OCE87615351", "stop_id": "ter.StopPoint_OCETrain_TER-87615351", "stop_timezone": null, "zone_id": null, "wheelchair_boarding": 2}, "geometry": {"type": "Point", "coordinates": [1.6182401000000002, 43.750645]}}, {"type": "Feature", "properties": {"stop_name": "Gare de Gragnague", "stop_code": null, "stop_url": null, "stop_desc": null, "location_type": 0, "parent_station": "ter.StopArea_OCE87615377", "stop_id": "ter.StopPoint_OCETrain_TER-87615377", "stop_timezone": null, "zone_id": null, "wheelchair_boarding": 2}, "geometry": {"type": "Point", "coordinates": [1.5675675, 43.695797]}}, {"type": "Feature", "properties": {"stop_name": "Gare de Rabastens-Couffouleux", "stop_code": null, "stop_url": null, "stop_desc": null, "location_type": 0, "parent_station": "ter.StopArea_OCE87615328", "stop_id": "ter.StopPoint_OCETrain_TER-87615328", "stop_timezone": null, "zone_id": null, "wheelchair_boarding": 2}, "geometry": {"type": "Point", "coordinates": [1.7307626, 43.81949]}}, {"type": "Feature", "properties": {"stop_name": "Gare de Lisle-sur-Tarn", "stop_code": null, "stop_url": null, "stop_desc": null, "location_type": 0, "parent_station": "ter.StopArea_OCE87615310", "stop_id": "ter.StopPoint_OCETrain_TER-87615310", "stop_timezone": null, "zone_id": null, "wheelchair_boarding": 2}, "geometry": {"type": "Point", "coordinates": [1.8077447, 43.856228]}}, {"type": "Feature", "properties": {"stop_name": "Gare de St-Sulpice (Tarn)", "stop_code": null, "stop_url": null, "stop_desc": null, "location_type": 0, "parent_station": "ter.StopArea_OCE87615344", "stop_id": "ter.StopPoint_OCETrain_TER-87615344", "stop_timezone": null, "zone_id": null, "wheelchair_boarding": 2}, "geometry": {"type": "Point", "coordinates": [1.6810372, 43.775414000000005]}}, {"type": "Feature", "properties": {"stop_name": "Gare de Albi-Madeleine.", "stop_code": null, "stop_url": null, "stop_desc": null, "location_type": 0, "parent_station": "ter.StopArea_OCE87615195", "stop_id": "ter.StopPoint_OCETrain_TER-87615195", "stop_timezone": null, "zone_id": null, "wheelchair_boarding": 2}, "geometry": {"type": "Point", "coordinates": [2.1411675999999997, 43.9379]}}, {"type": "Feature", "properties": {"stop_name": "Gare de Tessonni\u00e8res", "stop_code": null, "stop_url": null, "stop_desc": null, "location_type": 0, "parent_station": "ter.StopArea_OCE87615245", "stop_id": "ter.StopPoint_OCETrain_TER-87615245", "stop_timezone": null, "zone_id": null, "wheelchair_boarding": 2}, "geometry": {"type": "Point", "coordinates": [1.9374105, 43.928394]}}, {"type": "Feature", "properties": {"stop_name": "Gare de Albi-Ville", "stop_code": null, "stop_url": null, "stop_desc": null, "location_type": 0, "parent_station": "ter.StopArea_OCE87615005", "stop_id": "ter.StopPoint_OCETrain_TER-87615005", "stop_timezone": null, "zone_id": null, "wheelchair_boarding": 2}, "geometry": {"type": "Point", "coordinates": [2.1386354, 43.922035]}}, {"type": "Feature", "properties": {"stop_name": "Gare de Gaillac", "stop_code": null, "stop_url": null, "stop_desc": null, "location_type": 0, "parent_station": "ter.StopArea_OCE87615252", "stop_id": "ter.StopPoint_OCETrain_TER-87615252", "stop_timezone": null, "zone_id": null, "wheelchair_boarding": 2}, "geometry": {"type": "Point", "coordinates": [1.8948191000000003, 43.905964000000004]}}, {"type": "Feature", "properties": {"stop_name": "Gare de Marssac-sur-Tarn", "stop_code": null, "stop_url": null, "stop_desc": null, "location_type": 0, "parent_station": "ter.StopArea_OCE87615419", "stop_id": "ter.StopPoint_OCETrain_TER-87615419", "stop_timezone": null, "zone_id": null, "wheelchair_boarding": 2}, "geometry": {"type": "Point", "coordinates": [2.026759, 43.915096000000005]}}, {"type": "Feature", "properties": {"stop_name": "Gare de Toulouse-Matabiau", "stop_code": null, "stop_url": null, "stop_desc": null, "location_type": 0, "parent_station": "ter.StopArea_OCE87611004", "stop_id": "ter.StopPoint_OCETrain_TER-87611004", "stop_timezone": null, "zone_id": null, "wheelchair_boarding": 2}, "geometry": {"type": "Point", "coordinates": [1.4535576000000001, 43.611465]}}, {"type": "Feature", "properties": {"stop_name": "Gare de Carmaux", "stop_code": null, "stop_url": null, "stop_desc": null, "location_type": 0, "parent_station": "ter.StopArea_OCE87615625", "stop_id": "ter.StopPoint_OCETrain_TER-87615625", "stop_timezone": null, "zone_id": null, "wheelchair_boarding": 2}, "geometry": {"type": "Point", "coordinates": [2.1523887999999998, 44.049004]}}]}