{"type": "FeatureCollection", "features": [{"type": "Feature", "properties": {"route_id": "ter.OCE629108", "service_id": "ter.15013", "trip_id": "ter.OCESN866881F0200165112", "trip_headsign": "866881", "trip_short_name": "866881", "direction_id": 1, "wheelchair_accessible": 0, "shape_id": "shape_290"}, "geometry": {"type": "LineString", "coordinates": [[-0.55619407, 44.826538], [-0.45017704, 44.70104], [-0.34060246, 44.632153], [-0.25560984, 44.555443], [-0.22709733, 44.568493], [-0.18762004, 44.575138], [-0.14510064, 44.580093], [-0.09246588, 44.58334], [-0.03072477, 44.579754], [0.04523115, 44.562912], [0.09320612, 44.532303000000006], [0.16811469, 44.503067], [0.31412917, 44.392803], [0.33517408, 44.298725], [0.3903098, 44.250366], [0.62090456, 44.207972999999996]]}}, {"type": "Feature", "properties": {"stop_name": "Gare de Beautiran", "stop_code": null, "stop_url": null, "stop_desc": null, "location_type": 0, "parent_station": "ter.StopArea_OCE87582700", "stop_id": "ter.StopPoint_OCETrain_TER-87582700", "stop_timezone": null, "zone_id": null, "wheelchair_boarding": 2}, "geometry": {"type": "Point", "coordinates": [-0.45017704, 44.70104]}}, {"type": "Feature", "properties": {"stop_name": "Gare de C\u00e9rons", "stop_code": null, "stop_url": null, "stop_desc": null, "location_type": 0, "parent_station": "ter.StopArea_OCE87582742", "stop_id": "ter.StopPoint_OCETrain_TER-87582742", "stop_timezone": null, "zone_id": null, "wheelchair_boarding": 2}, "geometry": {"type": "Point", "coordinates": [-0.34060246, 44.632153]}}, {"type": "Feature", "properties": {"stop_name": "Gare de Langon", "stop_code": null, "stop_url": null, "stop_desc": null, "location_type": 0, "parent_station": "ter.StopArea_OCE87582775", "stop_id": "ter.StopPoint_OCETrain_TER-87582775", "stop_timezone": null, "zone_id": null, "wheelchair_boarding": 2}, "geometry": {"type": "Point", "coordinates": [-0.25560984, 44.555443]}}, {"type": "Feature", "properties": {"stop_name": "Gare de Bordeaux-St-Jean", "stop_code": null, "stop_url": null, "stop_desc": null, "location_type": 0, "parent_station": "ter.StopArea_OCE87581009", "stop_id": "ter.StopPoint_OCETrain_TER-87581009", "stop_timezone": null, "zone_id": null, "wheelchair_boarding": 2}, "geometry": {"type": "Point", "coordinates": [-0.55619407, 44.826538]}}, {"type": "Feature", "properties": {"stop_name": "Gare de Marmande", "stop_code": null, "stop_url": null, "stop_desc": null, "location_type": 0, "parent_station": "ter.StopArea_OCE87586545", "stop_id": "ter.StopPoint_OCETrain_TER-87586545", "stop_timezone": null, "zone_id": null, "wheelchair_boarding": 2}, "geometry": {"type": "Point", "coordinates": [0.16811469, 44.503067]}}, {"type": "Feature", "properties": {"stop_name": "Gare de Port-Ste-Marie", "stop_code": null, "stop_url": null, "stop_desc": null, "location_type": 0, "parent_station": "ter.StopArea_OCE87586107", "stop_id": "ter.StopPoint_OCETrain_TER-87586107", "stop_timezone": null, "zone_id": null, "wheelchair_boarding": 2}, "geometry": {"type": "Point", "coordinates": [0.3903098, 44.250366]}}, {"type": "Feature", "properties": {"stop_name": "Gare de Caudrot", "stop_code": null, "stop_url": null, "stop_desc": null, "location_type": 0, "parent_station": "ter.StopArea_OCE87582841", "stop_id": "ter.StopPoint_OCETrain_TER-87582841", "stop_timezone": null, "zone_id": null, "wheelchair_boarding": 2}, "geometry": {"type": "Point", "coordinates": [-0.14510064, 44.580093]}}, {"type": "Feature", "properties": {"stop_name": "Gare de St-Pierre-d'Aurillac", "stop_code": null, "stop_url": null, "stop_desc": null, "location_type": 0, "parent_station": "ter.StopArea_OCE87582833", "stop_id": "ter.StopPoint_OCETrain_TER-87582833", "stop_timezone": null, "zone_id": null, "wheelchair_boarding": 2}, "geometry": {"type": "Point", "coordinates": [-0.18762004, 44.575138]}}, {"type": "Feature", "properties": {"stop_name": "Gare de St-Macaire", "stop_code": null, "stop_url": null, "stop_desc": null, "location_type": 0, "parent_station": "ter.StopArea_OCE87582825", "stop_id": "ter.StopPoint_OCETrain_TER-87582825", "stop_timezone": null, "zone_id": null, "wheelchair_boarding": 2}, "geometry": {"type": "Point", "coordinates": [-0.22709733, 44.568493]}}, {"type": "Feature", "properties": {"stop_name": "Gare de Lamothe-Landerron", "stop_code": null, "stop_url": null, "stop_desc": null, "location_type": 0, "parent_station": "ter.StopArea_OCE87582882", "stop_id": "ter.StopPoint_OCETrain_TER-87582882", "stop_timezone": null, "zone_id": null, "wheelchair_boarding": 2}, "geometry": {"type": "Point", "coordinates": [0.04523115, 44.562912]}}, {"type": "Feature", "properties": {"stop_name": "Gare de La R\u00e9ole", "stop_code": null, "stop_url": null, "stop_desc": null, "location_type": 0, "parent_station": "ter.StopArea_OCE87582866", "stop_id": "ter.StopPoint_OCETrain_TER-87582866", "stop_timezone": null, "zone_id": null, "wheelchair_boarding": 2}, "geometry": {"type": "Point", "coordinates": [-0.03072477, 44.579754]}}, {"type": "Feature", "properties": {"stop_name": "Gare de Gironde", "stop_code": null, "stop_url": null, "stop_desc": null, "location_type": 0, "parent_station": "ter.StopArea_OCE87582858", "stop_id": "ter.StopPoint_OCETrain_TER-87582858", "stop_timezone": null, "zone_id": null, "wheelchair_boarding": 2}, "geometry": {"type": "Point", "coordinates": [-0.09246588, 44.58334]}}, {"type": "Feature", "properties": {"stop_name": "Gare de Tonneins", "stop_code": null, "stop_url": null, "stop_desc": null, "location_type": 0, "parent_station": "ter.StopArea_OCE87586651", "stop_id": "ter.StopPoint_OCETrain_TER-87586651", "stop_timezone": null, "zone_id": null, "wheelchair_boarding": 2}, "geometry": {"type": "Point", "coordinates": [0.31412917, 44.392803]}}, {"type": "Feature", "properties": {"stop_name": "Gare de Agen", "stop_code": null, "stop_url": null, "stop_desc": null, "location_type": 0, "parent_station": "ter.StopArea_OCE87586008", "stop_id": "ter.StopPoint_OCETrain_TER-87586008", "stop_timezone": null, "zone_id": null, "wheelchair_boarding": 2}, "geometry": {"type": "Point", "coordinates": [0.62090456, 44.207972999999996]}}, {"type": "Feature", "properties": {"stop_name": "Gare de Ste-Bazeille", "stop_code": null, "stop_url": null, "stop_desc": null, "location_type": 0, "parent_station": "ter.StopArea_OCE87586479", "stop_id": "ter.StopPoint_OCETrain_TER-87586479", "stop_timezone": null, "zone_id": null, "wheelchair_boarding": 2}, "geometry": {"type": "Point", "coordinates": [0.09320612, 44.532303000000006]}}, {"type": "Feature", "properties": {"stop_name": "Gare de Aiguillon (Lot et Gar)", "stop_code": null, "stop_url": null, "stop_desc": null, "location_type": 0, "parent_station": "ter.StopArea_OCE87586693", "stop_id": "ter.StopPoint_OCETrain_TER-87586693", "stop_timezone": null, "zone_id": null, "wheelchair_boarding": 2}, "geometry": {"type": "Point", "coordinates": [0.33517408, 44.298725]}}]}