{"type": "FeatureCollection", "features": [{"type": "Feature", "properties": {"route_id": "ter.OCE80", "service_id": "ter.12005", "trip_id": "ter.OCESN863462F0100364183", "trip_headsign": "863462", "trip_short_name": "863462", "direction_id": 0, "wheelchair_accessible": 0, "shape_id": "shape_159"}, "geometry": {"type": "LineString", "coordinates": [[-1.1453004, 46.152702000000005], [-1.0236846, 46.120625], [-0.95126826, 46.09349], [-0.762133, 46.113415], [-0.67359734, 46.199688], [-0.45439056, 46.319344], [-0.2962778, 46.360424], [-0.20130625, 46.406307], [-0.12987266, 46.380924], [-0.05197593, 46.399807], [0.11575616, 46.435], [0.33308432, 46.582184000000005], [0.37281123, 46.651794], [0.37720186, 46.66985], [0.38188955, 46.682303999999995], [0.42113104, 46.70373], [0.440467, 46.72867], [0.49607092, 46.759518], [0.549218, 46.818565], [0.6935051, 47.389812]]}}, {"type": "Feature", "properties": {"stop_name": "Gare de Chatellerault", "stop_code": null, "stop_url": null, "stop_desc": null, "location_type": 0, "parent_station": "ter.StopArea_OCE87575142", "stop_id": "ter.StopPoint_OCETrain_TER-87575142", "stop_timezone": null, "zone_id": null, "wheelchair_boarding": 2}, "geometry": {"type": "Point", "coordinates": [0.549218, 46.818565]}}, {"type": "Feature", "properties": {"stop_name": "Gare de La Tricherie", "stop_code": null, "stop_url": null, "stop_desc": null, "location_type": 0, "parent_station": "ter.StopArea_OCE87575183", "stop_id": "ter.StopPoint_OCETrain_TER-87575183", "stop_timezone": null, "zone_id": null, "wheelchair_boarding": 2}, "geometry": {"type": "Point", "coordinates": [0.440467, 46.72867]}}, {"type": "Feature", "properties": {"stop_name": "Gare de Niort", "stop_code": null, "stop_url": null, "stop_desc": null, "location_type": 0, "parent_station": "ter.StopArea_OCE87485300", "stop_id": "ter.StopPoint_OCETrain_TER-87485300", "stop_timezone": null, "zone_id": null, "wheelchair_boarding": 2}, "geometry": {"type": "Point", "coordinates": [-0.45439056, 46.319344]}}, {"type": "Feature", "properties": {"stop_name": "Gare de Lusignan", "stop_code": null, "stop_url": null, "stop_desc": null, "location_type": 0, "parent_station": "ter.StopArea_OCE87485540", "stop_id": "ter.StopPoint_OCETrain_TER-87485540", "stop_timezone": null, "zone_id": null, "wheelchair_boarding": 2}, "geometry": {"type": "Point", "coordinates": [0.11575616, 46.435]}}, {"type": "Feature", "properties": {"stop_name": "Gare de Dissay (Vienne)", "stop_code": null, "stop_url": null, "stop_desc": null, "location_type": 0, "parent_station": "ter.StopArea_OCE87575191", "stop_id": "ter.StopPoint_OCETrain_TER-87575191", "stop_timezone": null, "zone_id": null, "wheelchair_boarding": 2}, "geometry": {"type": "Point", "coordinates": [0.42113104, 46.70373]}}, {"type": "Feature", "properties": {"stop_name": "Gare de Naintr\u00e9-les-Barres", "stop_code": null, "stop_url": null, "stop_desc": null, "location_type": 0, "parent_station": "ter.StopArea_OCE87575175", "stop_id": "ter.StopPoint_OCETrain_TER-87575175", "stop_timezone": null, "zone_id": null, "wheelchair_boarding": 2}, "geometry": {"type": "Point", "coordinates": [0.49607092, 46.759518]}}, {"type": "Feature", "properties": {"stop_name": "Gare de La-Jarrie", "stop_code": null, "stop_url": null, "stop_desc": null, "location_type": 0, "parent_station": "ter.StopArea_OCE87485185", "stop_id": "ter.StopPoint_OCETrain_TER-87485185", "stop_timezone": null, "zone_id": null, "wheelchair_boarding": 2}, "geometry": {"type": "Point", "coordinates": [-1.0236846, 46.120625]}}, {"type": "Feature", "properties": {"stop_name": "Gare de Aigrefeuille-le-Thou", "stop_code": null, "stop_url": null, "stop_desc": null, "location_type": 0, "parent_station": "ter.StopArea_OCE87485193", "stop_id": "ter.StopPoint_OCETrain_TER-87485193", "stop_timezone": null, "zone_id": null, "wheelchair_boarding": 2}, "geometry": {"type": "Point", "coordinates": [-0.95126826, 46.09349]}}, {"type": "Feature", "properties": {"stop_name": "Gare de Tours", "stop_code": null, "stop_url": null, "stop_desc": null, "location_type": 0, "parent_station": "ter.StopArea_OCE87571000", "stop_id": "ter.StopPoint_OCETrain_TER-87571000", "stop_timezone": null, "zone_id": null, "wheelchair_boarding": 2}, "geometry": {"type": "Point", "coordinates": [0.6935051, 47.389812]}}, {"type": "Feature", "properties": {"stop_name": "Gare de La Mothe-St-H\u00e9ray", "stop_code": null, "stop_url": null, "stop_desc": null, "location_type": 0, "parent_station": "ter.StopArea_OCE87485508", "stop_id": "ter.StopPoint_OCETrain_TER-87485508", "stop_timezone": null, "zone_id": null, "wheelchair_boarding": 2}, "geometry": {"type": "Point", "coordinates": [-0.12987266, 46.380924]}}, {"type": "Feature", "properties": {"stop_name": "Gare de Pamproux", "stop_code": null, "stop_url": null, "stop_desc": null, "location_type": 0, "parent_station": "ter.StopArea_OCE87485524", "stop_id": "ter.StopPoint_OCETrain_TER-87485524", "stop_timezone": null, "zone_id": null, "wheelchair_boarding": 2}, "geometry": {"type": "Point", "coordinates": [-0.05197593, 46.399807]}}, {"type": "Feature", "properties": {"stop_name": "Gare de Chasseneuil (Vienne)", "stop_code": null, "stop_url": null, "stop_desc": null, "location_type": 0, "parent_station": "ter.StopArea_OCE87575225", "stop_id": "ter.StopPoint_OCETrain_TER-87575225", "stop_timezone": null, "zone_id": null, "wheelchair_boarding": 2}, "geometry": {"type": "Point", "coordinates": [0.37281123, 46.651794]}}, {"type": "Feature", "properties": {"stop_name": "Gare de Jaunay-Clan", "stop_code": null, "stop_url": null, "stop_desc": null, "location_type": 0, "parent_station": "ter.StopArea_OCE87575217", "stop_id": "ter.StopPoint_OCETrain_TER-87575217", "stop_timezone": null, "zone_id": null, "wheelchair_boarding": 2}, "geometry": {"type": "Point", "coordinates": [0.38188955, 46.682303999999995]}}, {"type": "Feature", "properties": {"stop_name": "Gare de Surg\u00e8res", "stop_code": null, "stop_url": null, "stop_desc": null, "location_type": 0, "parent_station": "ter.StopArea_OCE87485227", "stop_id": "ter.StopPoint_OCETrain_TER-87485227", "stop_timezone": null, "zone_id": null, "wheelchair_boarding": 2}, "geometry": {"type": "Point", "coordinates": [-0.762133, 46.113415]}}, {"type": "Feature", "properties": {"stop_name": "Gare de Poitiers", "stop_code": null, "stop_url": null, "stop_desc": null, "location_type": 0, "parent_station": "ter.StopArea_OCE87575001", "stop_id": "ter.StopPoint_OCETrain_TER-87575001", "stop_timezone": null, "zone_id": null, "wheelchair_boarding": 2}, "geometry": {"type": "Point", "coordinates": [0.33308432, 46.582184000000005]}}, {"type": "Feature", "properties": {"stop_name": "Gare de La Rochelle-Ville", "stop_code": null, "stop_url": null, "stop_desc": null, "location_type": 0, "parent_station": "ter.StopArea_OCE87485003", "stop_id": "ter.StopPoint_OCETrain_TER-87485003", "stop_timezone": null, "zone_id": null, "wheelchair_boarding": 2}, "geometry": {"type": "Point", "coordinates": [-1.1453004, 46.152702000000005]}}, {"type": "Feature", "properties": {"stop_name": "Gare de La Cr\u00e8che", "stop_code": null, "stop_url": null, "stop_desc": null, "location_type": 0, "parent_station": "ter.StopArea_OCE87485474", "stop_id": "ter.StopPoint_OCETrain_TER-87485474", "stop_timezone": null, "zone_id": null, "wheelchair_boarding": 2}, "geometry": {"type": "Point", "coordinates": [-0.2962778, 46.360424]}}, {"type": "Feature", "properties": {"stop_name": "Gare de Mauz\u00e9", "stop_code": null, "stop_url": null, "stop_desc": null, "location_type": 0, "parent_station": "ter.StopArea_OCE87485250", "stop_id": "ter.StopPoint_OCETrain_TER-87485250", "stop_timezone": null, "zone_id": null, "wheelchair_boarding": 2}, "geometry": {"type": "Point", "coordinates": [-0.67359734, 46.199688]}}, {"type": "Feature", "properties": {"stop_name": "Gare de St-Maixent (Deux-S\u00e8vr.)", "stop_code": null, "stop_url": null, "stop_desc": null, "location_type": 0, "parent_station": "ter.StopArea_OCE87485490", "stop_id": "ter.StopPoint_OCETrain_TER-87485490", "stop_timezone": null, "zone_id": null, "wheelchair_boarding": 2}, "geometry": {"type": "Point", "coordinates": [-0.20130625, 46.406307]}}, {"type": "Feature", "properties": {"stop_name": "Gare de Futuroscope", "stop_code": null, "stop_url": null, "stop_desc": null, "location_type": 0, "parent_station": "ter.StopArea_OCE87324095", "stop_id": "ter.StopPoint_OCETrain_TER-87324095", "stop_timezone": null, "zone_id": null, "wheelchair_boarding": 2}, "geometry": {"type": "Point", "coordinates": [0.37720186, 46.66985]}}]}