{"type": "FeatureCollection", "features": [{"type": "Feature", "properties": {"route_id": "ter.OCE77", "service_id": "ter.1", "trip_id": "ter.OCESN863037F0200364111", "trip_headsign": "863037", "trip_short_name": "863037", "direction_id": 1, "wheelchair_accessible": 0, "shape_id": "shape_210"}, "geometry": {"type": "LineString", "coordinates": [[0.6935051, 47.389812], [0.6547335999999999, 47.281998], [0.63353354, 47.202059999999996], [0.57700586, 47.11111], [0.5830063, 47.05296], [0.59855866, 47.010146999999996], [0.6087779000000001, 46.93781], [0.549218, 46.818565], [0.49607092, 46.759518], [0.440467, 46.72867], [0.42113104, 46.70373], [0.38188955, 46.682303999999995], [0.37720186, 46.66985], [0.37281123, 46.651794], [0.33308432, 46.582184000000005]]}}, {"type": "Feature", "properties": {"stop_name": "Gare de Chatellerault", "stop_code": null, "stop_url": null, "stop_desc": null, "location_type": 0, "parent_station": "ter.StopArea_OCE87575142", "stop_id": "ter.StopPoint_OCETrain_TER-87575142", "stop_timezone": null, "zone_id": null, "wheelchair_boarding": 2}, "geometry": {"type": "Point", "coordinates": [0.549218, 46.818565]}}, {"type": "Feature", "properties": {"stop_name": "Gare de Dang\u00e9", "stop_code": null, "stop_url": null, "stop_desc": null, "location_type": 0, "parent_station": "ter.StopArea_OCE87575126", "stop_id": "ter.StopPoint_OCETrain_TER-87575126", "stop_timezone": null, "zone_id": null, "wheelchair_boarding": 2}, "geometry": {"type": "Point", "coordinates": [0.6087779000000001, 46.93781]}}, {"type": "Feature", "properties": {"stop_name": "Gare de La Tricherie", "stop_code": null, "stop_url": null, "stop_desc": null, "location_type": 0, "parent_station": "ter.StopArea_OCE87575183", "stop_id": "ter.StopPoint_OCETrain_TER-87575183", "stop_timezone": null, "zone_id": null, "wheelchair_boarding": 2}, "geometry": {"type": "Point", "coordinates": [0.440467, 46.72867]}}, {"type": "Feature", "properties": {"stop_name": "Gare de Dissay (Vienne)", "stop_code": null, "stop_url": null, "stop_desc": null, "location_type": 0, "parent_station": "ter.StopArea_OCE87575191", "stop_id": "ter.StopPoint_OCETrain_TER-87575191", "stop_timezone": null, "zone_id": null, "wheelchair_boarding": 2}, "geometry": {"type": "Point", "coordinates": [0.42113104, 46.70373]}}, {"type": "Feature", "properties": {"stop_name": "Gare de Naintr\u00e9-les-Barres", "stop_code": null, "stop_url": null, "stop_desc": null, "location_type": 0, "parent_station": "ter.StopArea_OCE87575175", "stop_id": "ter.StopPoint_OCETrain_TER-87575175", "stop_timezone": null, "zone_id": null, "wheelchair_boarding": 2}, "geometry": {"type": "Point", "coordinates": [0.49607092, 46.759518]}}, {"type": "Feature", "properties": {"stop_name": "Gare de Tours", "stop_code": null, "stop_url": null, "stop_desc": null, "location_type": 0, "parent_station": "ter.StopArea_OCE87571000", "stop_id": "ter.StopPoint_OCETrain_TER-87571000", "stop_timezone": null, "zone_id": null, "wheelchair_boarding": 2}, "geometry": {"type": "Point", "coordinates": [0.6935051, 47.389812]}}, {"type": "Feature", "properties": {"stop_name": "Gare de Chasseneuil (Vienne)", "stop_code": null, "stop_url": null, "stop_desc": null, "location_type": 0, "parent_station": "ter.StopArea_OCE87575225", "stop_id": "ter.StopPoint_OCETrain_TER-87575225", "stop_timezone": null, "zone_id": null, "wheelchair_boarding": 2}, "geometry": {"type": "Point", "coordinates": [0.37281123, 46.651794]}}, {"type": "Feature", "properties": {"stop_name": "Gare de Jaunay-Clan", "stop_code": null, "stop_url": null, "stop_desc": null, "location_type": 0, "parent_station": "ter.StopArea_OCE87575217", "stop_id": "ter.StopPoint_OCETrain_TER-87575217", "stop_timezone": null, "zone_id": null, "wheelchair_boarding": 2}, "geometry": {"type": "Point", "coordinates": [0.38188955, 46.682303999999995]}}, {"type": "Feature", "properties": {"stop_name": "Gare de Monts (Indre-et-Loire)", "stop_code": null, "stop_url": null, "stop_desc": null, "location_type": 0, "parent_station": "ter.StopArea_OCE87575035", "stop_id": "ter.StopPoint_OCETrain_TER-87575035", "stop_timezone": null, "zone_id": null, "wheelchair_boarding": 2}, "geometry": {"type": "Point", "coordinates": [0.6547335999999999, 47.281998]}}, {"type": "Feature", "properties": {"stop_name": "Gare de Poitiers", "stop_code": null, "stop_url": null, "stop_desc": null, "location_type": 0, "parent_station": "ter.StopArea_OCE87575001", "stop_id": "ter.StopPoint_OCETrain_TER-87575001", "stop_timezone": null, "zone_id": null, "wheelchair_boarding": 2}, "geometry": {"type": "Point", "coordinates": [0.33308432, 46.582184000000005]}}, {"type": "Feature", "properties": {"stop_name": "Gare de Maill\u00e9", "stop_code": null, "stop_url": null, "stop_desc": null, "location_type": 0, "parent_station": "ter.StopArea_OCE87575068", "stop_id": "ter.StopPoint_OCETrain_TER-87575068", "stop_timezone": null, "zone_id": null, "wheelchair_boarding": 2}, "geometry": {"type": "Point", "coordinates": [0.5830063, 47.05296]}}, {"type": "Feature", "properties": {"stop_name": "Gare de Port-de-Piles", "stop_code": null, "stop_url": null, "stop_desc": null, "location_type": 0, "parent_station": "ter.StopArea_OCE87575076", "stop_id": "ter.StopPoint_OCETrain_TER-87575076", "stop_timezone": null, "zone_id": null, "wheelchair_boarding": 2}, "geometry": {"type": "Point", "coordinates": [0.59855866, 47.010146999999996]}}, {"type": "Feature", "properties": {"stop_name": "Gare de Villeperdue", "stop_code": null, "stop_url": null, "stop_desc": null, "location_type": 0, "parent_station": "ter.StopArea_OCE87575043", "stop_id": "ter.StopPoint_OCETrain_TER-87575043", "stop_timezone": null, "zone_id": null, "wheelchair_boarding": 2}, "geometry": {"type": "Point", "coordinates": [0.63353354, 47.202059999999996]}}, {"type": "Feature", "properties": {"stop_name": "Gare de Ste-Maure-Noyant", "stop_code": null, "stop_url": null, "stop_desc": null, "location_type": 0, "parent_station": "ter.StopArea_OCE87575050", "stop_id": "ter.StopPoint_OCETrain_TER-87575050", "stop_timezone": null, "zone_id": null, "wheelchair_boarding": 2}, "geometry": {"type": "Point", "coordinates": [0.57700586, 47.11111]}}, {"type": "Feature", "properties": {"stop_name": "Gare de Futuroscope", "stop_code": null, "stop_url": null, "stop_desc": null, "location_type": 0, "parent_station": "ter.StopArea_OCE87324095", "stop_id": "ter.StopPoint_OCETrain_TER-87324095", "stop_timezone": null, "zone_id": null, "wheelchair_boarding": 2}, "geometry": {"type": "Point", "coordinates": [0.37720186, 46.66985]}}]}