{"type": "FeatureCollection", "features": [{"type": "Feature", "properties": {"route_id": "ter.OCE629104", "service_id": "ter.2290", "trip_id": "ter.OCESN867118F0100165146", "trip_headsign": "867118", "trip_short_name": "867118", "direction_id": 0, "wheelchair_accessible": 0, "shape_id": "shape_615"}, "geometry": {"type": "LineString", "coordinates": [[-1.0503241, 43.720665000000004], [-0.9108603999999999, 43.52448], [-0.7676248999999999, 43.4841], [-0.5701236, 43.3932], [-0.36964959999999997, 43.291668], [-0.2417563, 43.18183], [-0.04219186, 43.100429999999996], [0.06940671, 43.239803]]}}, {"type": "Feature", "properties": {"stop_name": "Gare de Tarbes", "stop_code": null, "stop_url": null, "stop_desc": null, "location_type": 0, "parent_station": "ter.StopArea_OCE87671008", "stop_id": "ter.StopPoint_OCETrain_TER-87671008", "stop_timezone": null, "zone_id": null, "wheelchair_boarding": 2}, "geometry": {"type": "Point", "coordinates": [0.06940671, 43.239803]}}, {"type": "Feature", "properties": {"stop_name": "Gare de Dax", "stop_code": null, "stop_url": null, "stop_desc": null, "location_type": 0, "parent_station": "ter.StopArea_OCE87673202", "stop_id": "ter.StopPoint_OCETrain_TER-87673202", "stop_timezone": null, "zone_id": null, "wheelchair_boarding": 2}, "geometry": {"type": "Point", "coordinates": [-1.0503241, 43.720665000000004]}}, {"type": "Feature", "properties": {"stop_name": "Gare de Coarraze-Nay", "stop_code": null, "stop_url": null, "stop_desc": null, "location_type": 0, "parent_station": "ter.StopArea_OCE87672139", "stop_id": "ter.StopPoint_OCETrain_TER-87672139", "stop_timezone": null, "zone_id": null, "wheelchair_boarding": 2}, "geometry": {"type": "Point", "coordinates": [-0.2417563, 43.18183]}}, {"type": "Feature", "properties": {"stop_name": "Gare de Lourdes", "stop_code": null, "stop_url": null, "stop_desc": null, "location_type": 0, "parent_station": "ter.StopArea_OCE87671339", "stop_id": "ter.StopPoint_OCETrain_TER-87671339", "stop_timezone": null, "zone_id": null, "wheelchair_boarding": 2}, "geometry": {"type": "Point", "coordinates": [-0.04219186, 43.100429999999996]}}, {"type": "Feature", "properties": {"stop_name": "Gare de Artix", "stop_code": null, "stop_url": null, "stop_desc": null, "location_type": 0, "parent_station": "ter.StopArea_OCE87672212", "stop_id": "ter.StopPoint_OCETrain_TER-87672212", "stop_timezone": null, "zone_id": null, "wheelchair_boarding": 2}, "geometry": {"type": "Point", "coordinates": [-0.5701236, 43.3932]}}, {"type": "Feature", "properties": {"stop_name": "Gare de Pau", "stop_code": null, "stop_url": null, "stop_desc": null, "location_type": 0, "parent_station": "ter.StopArea_OCE87672006", "stop_id": "ter.StopPoint_OCETrain_TER-87672006", "stop_timezone": null, "zone_id": null, "wheelchair_boarding": 2}, "geometry": {"type": "Point", "coordinates": [-0.36964959999999997, 43.291668]}}, {"type": "Feature", "properties": {"stop_name": "Gare de Orthez", "stop_code": null, "stop_url": null, "stop_desc": null, "location_type": 0, "parent_station": "ter.StopArea_OCE87672253", "stop_id": "ter.StopPoint_OCETrain_TER-87672253", "stop_timezone": null, "zone_id": null, "wheelchair_boarding": 2}, "geometry": {"type": "Point", "coordinates": [-0.7676248999999999, 43.4841]}}, {"type": "Feature", "properties": {"stop_name": "Gare de Puyo\u00f4", "stop_code": null, "stop_url": null, "stop_desc": null, "location_type": 0, "parent_station": "ter.StopArea_OCE87672279", "stop_id": "ter.StopPoint_OCETrain_TER-87672279", "stop_timezone": null, "zone_id": null, "wheelchair_boarding": 2}, "geometry": {"type": "Point", "coordinates": [-0.9108603999999999, 43.52448]}}]}