{"type": "FeatureCollection", "features": [{"type": "Feature", "properties": {"route_id": "ter.OCE136641", "service_id": "ter.15124", "trip_id": "ter.OCESN868710F0300165474", "trip_headsign": "868710", "trip_short_name": "868710", "direction_id": 0, "wheelchair_accessible": 0, "shape_id": "shape_467"}, "geometry": {"type": "LineString", "coordinates": [[1.87917, 46.174145], [2.0231023, 46.123093], [2.0891998, 46.078903000000004], [2.1604794999999997, 45.960934], [2.1694539, 45.886505]]}}, {"type": "Feature", "properties": {"stop_name": "Gare de Gu\u00e9ret", "stop_code": null, "stop_url": null, "stop_desc": null, "location_type": 0, "parent_station": "ter.StopArea_OCE87597609", "stop_id": "ter.StopPoint_OCETrain_TER-87597609", "stop_timezone": null, "zone_id": null, "wheelchair_boarding": 2}, "geometry": {"type": "Point", "coordinates": [1.87917, 46.174145]}}, {"type": "Feature", "properties": {"stop_name": "Gare de Felletin-Gare", "stop_code": null, "stop_url": null, "stop_desc": null, "location_type": 0, "parent_station": "ter.StopArea_OCE87597849", "stop_id": "ter.StopPoint_OCETrain_TER-87597849", "stop_timezone": null, "zone_id": null, "wheelchair_boarding": 2}, "geometry": {"type": "Point", "coordinates": [2.1694539, 45.886505]}}, {"type": "Feature", "properties": {"stop_name": "Gare de Aubusson", "stop_code": null, "stop_url": null, "stop_desc": null, "location_type": 0, "parent_station": "ter.StopArea_OCE87597823", "stop_id": "ter.StopPoint_OCETrain_TER-87597823", "stop_timezone": null, "zone_id": null, "wheelchair_boarding": 2}, "geometry": {"type": "Point", "coordinates": [2.1604794999999997, 45.960934]}}, {"type": "Feature", "properties": {"stop_name": "Gare de Busseau-sur-Creuse", "stop_code": null, "stop_url": null, "stop_desc": null, "location_type": 0, "parent_station": "ter.StopArea_OCE87597708", "stop_id": "ter.StopPoint_OCETrain_TER-87597708", "stop_timezone": null, "zone_id": null, "wheelchair_boarding": 2}, "geometry": {"type": "Point", "coordinates": [2.0231023, 46.123093]}}, {"type": "Feature", "properties": {"stop_name": "Gare de Lavaveix-les-Mines", "stop_code": null, "stop_url": null, "stop_desc": null, "location_type": 0, "parent_station": "ter.StopArea_OCE87597781", "stop_id": "ter.StopPoint_OCETrain_TER-87597781", "stop_timezone": null, "zone_id": null, "wheelchair_boarding": 2}, "geometry": {"type": "Point", "coordinates": [2.0891998, 46.078903000000004]}}]}