{"type": "FeatureCollection", "features": [{"type": "Feature", "properties": {"route_id": "ter.OCE4619", "service_id": "ter.1", "trip_id": "ter.OCESN871457F0100165890", "trip_headsign": "871457", "trip_short_name": "871457", "direction_id": 1, "wheelchair_accessible": 0, "shape_id": "shape_496"}, "geometry": {"type": "LineString", "coordinates": [[1.4535576000000001, 43.611465], [1.4495552, 43.57926], [1.4058973999999997, 43.53078], [1.3995893999999998, 43.48077], [1.4258695, 43.433327], [1.4686244, 43.348835], [1.5210854, 43.305347], [1.5704218, 43.23942], [1.6116968, 43.189487], [1.6189978999999999, 43.116177], [1.6285756, 43.04149], [1.6081466999999998, 43.012344], [1.6073936000000002, 42.9693], [1.600031, 42.849453000000004], [1.7531537, 42.764441999999995], [1.8333150000000002, 42.724804]]}}, {"type": "Feature", "properties": {"stop_name": "Gare de Varilhes", "stop_code": null, "stop_url": null, "stop_desc": null, "location_type": 0, "parent_station": "ter.StopArea_OCE87611327", "stop_id": "ter.StopPoint_OCETrain_TER-87611327", "stop_timezone": null, "zone_id": null, "wheelchair_boarding": 2}, "geometry": {"type": "Point", "coordinates": [1.6285756, 43.04149]}}, {"type": "Feature", "properties": {"stop_name": "Gare de Luzenac-Garanou", "stop_code": null, "stop_url": null, "stop_desc": null, "location_type": 0, "parent_station": "ter.StopArea_OCE87611558", "stop_id": "ter.StopPoint_OCETrain_TER-87611558", "stop_timezone": null, "zone_id": null, "wheelchair_boarding": 2}, "geometry": {"type": "Point", "coordinates": [1.7531537, 42.764441999999995]}}, {"type": "Feature", "properties": {"stop_name": "Gare de Pamiers", "stop_code": null, "stop_url": null, "stop_desc": null, "location_type": 0, "parent_station": "ter.StopArea_OCE87611343", "stop_id": "ter.StopPoint_OCETrain_TER-87611343", "stop_timezone": null, "zone_id": null, "wheelchair_boarding": 2}, "geometry": {"type": "Point", "coordinates": [1.6189978999999999, 43.116177]}}, {"type": "Feature", "properties": {"stop_name": "Gare de St-Agne", "stop_code": null, "stop_url": null, "stop_desc": null, "location_type": 0, "parent_station": "ter.StopArea_OCE87611301", "stop_id": "ter.StopPoint_OCETrain_TER-87611301", "stop_timezone": null, "zone_id": null, "wheelchair_boarding": 2}, "geometry": {"type": "Point", "coordinates": [1.4495552, 43.57926]}}, {"type": "Feature", "properties": {"stop_name": "Gare de Ax-les-Thermes", "stop_code": null, "stop_url": null, "stop_desc": null, "location_type": 0, "parent_station": "ter.StopArea_OCE87611533", "stop_id": "ter.StopPoint_OCETrain_TER-87611533", "stop_timezone": null, "zone_id": null, "wheelchair_boarding": 2}, "geometry": {"type": "Point", "coordinates": [1.8333150000000002, 42.724804]}}, {"type": "Feature", "properties": {"stop_name": "Gare de Pins Justaret", "stop_code": null, "stop_url": null, "stop_desc": null, "location_type": 0, "parent_station": "ter.StopArea_OCE87618116", "stop_id": "ter.StopPoint_OCETrain_TER-87618116", "stop_timezone": null, "zone_id": null, "wheelchair_boarding": 2}, "geometry": {"type": "Point", "coordinates": [1.3995893999999998, 43.48077]}}, {"type": "Feature", "properties": {"stop_name": "Gare de Venerque-le-Vernet", "stop_code": null, "stop_url": null, "stop_desc": null, "location_type": 0, "parent_station": "ter.StopArea_OCE87611392", "stop_id": "ter.StopPoint_OCETrain_TER-87611392", "stop_timezone": null, "zone_id": null, "wheelchair_boarding": 2}, "geometry": {"type": "Point", "coordinates": [1.4258695, 43.433327]}}, {"type": "Feature", "properties": {"stop_name": "Gare de Saverdun", "stop_code": null, "stop_url": null, "stop_desc": null, "location_type": 0, "parent_station": "ter.StopArea_OCE87611368", "stop_id": "ter.StopPoint_OCETrain_TER-87611368", "stop_timezone": null, "zone_id": null, "wheelchair_boarding": 2}, "geometry": {"type": "Point", "coordinates": [1.5704218, 43.23942]}}, {"type": "Feature", "properties": {"stop_name": "Gare de Tarascon-sur-Ari\u00e8ge", "stop_code": null, "stop_url": null, "stop_desc": null, "location_type": 0, "parent_station": "ter.StopArea_OCE87611590", "stop_id": "ter.StopPoint_OCETrain_TER-87611590", "stop_timezone": null, "zone_id": null, "wheelchair_boarding": 2}, "geometry": {"type": "Point", "coordinates": [1.600031, 42.849453000000004]}}, {"type": "Feature", "properties": {"stop_name": "Gare de Vernet-d'Ari\u00e8ge", "stop_code": null, "stop_url": null, "stop_desc": null, "location_type": 0, "parent_station": "ter.StopArea_OCE87611350", "stop_id": "ter.StopPoint_OCETrain_TER-87611350", "stop_timezone": null, "zone_id": null, "wheelchair_boarding": 2}, "geometry": {"type": "Point", "coordinates": [1.6116968, 43.189487]}}, {"type": "Feature", "properties": {"stop_name": "Gare de Auterive", "stop_code": null, "stop_url": null, "stop_desc": null, "location_type": 0, "parent_station": "ter.StopArea_OCE87611384", "stop_id": "ter.StopPoint_OCETrain_TER-87611384", "stop_timezone": null, "zone_id": null, "wheelchair_boarding": 2}, "geometry": {"type": "Point", "coordinates": [1.4686244, 43.348835]}}, {"type": "Feature", "properties": {"stop_name": "Gare de Cintegabelle", "stop_code": null, "stop_url": null, "stop_desc": null, "location_type": 0, "parent_station": "ter.StopArea_OCE87611376", "stop_id": "ter.StopPoint_OCETrain_TER-87611376", "stop_timezone": null, "zone_id": null, "wheelchair_boarding": 2}, "geometry": {"type": "Point", "coordinates": [1.5210854, 43.305347]}}, {"type": "Feature", "properties": {"stop_name": "Gare de Portet-St-Simon", "stop_code": null, "stop_url": null, "stop_desc": null, "location_type": 0, "parent_station": "ter.StopArea_OCE87611400", "stop_id": "ter.StopPoint_OCETrain_TER-87611400", "stop_timezone": null, "zone_id": null, "wheelchair_boarding": 2}, "geometry": {"type": "Point", "coordinates": [1.4058973999999997, 43.53078]}}, {"type": "Feature", "properties": {"stop_name": "Gare de St-Jean-de-Verges", "stop_code": null, "stop_url": null, "stop_desc": null, "location_type": 0, "parent_station": "ter.StopArea_OCE87611624", "stop_id": "ter.StopPoint_OCETrain_TER-87611624", "stop_timezone": null, "zone_id": null, "wheelchair_boarding": 2}, "geometry": {"type": "Point", "coordinates": [1.6081466999999998, 43.012344]}}, {"type": "Feature", "properties": {"stop_name": "Gare de Foix", "stop_code": null, "stop_url": null, "stop_desc": null, "location_type": 0, "parent_station": "ter.StopArea_OCE87611616", "stop_id": "ter.StopPoint_OCETrain_TER-87611616", "stop_timezone": null, "zone_id": null, "wheelchair_boarding": 2}, "geometry": {"type": "Point", "coordinates": [1.6073936000000002, 42.9693]}}, {"type": "Feature", "properties": {"stop_name": "Gare de Toulouse-Matabiau", "stop_code": null, "stop_url": null, "stop_desc": null, "location_type": 0, "parent_station": "ter.StopArea_OCE87611004", "stop_id": "ter.StopPoint_OCETrain_TER-87611004", "stop_timezone": null, "zone_id": null, "wheelchair_boarding": 2}, "geometry": {"type": "Point", "coordinates": [1.4535576000000001, 43.611465]}}]}