{"type": "FeatureCollection", "features": [{"type": "Feature", "properties": {"route_id": "ter.OCE104648", "service_id": "ter.2971", "trip_id": "ter.OCESN868311F0200165365", "trip_headsign": "868311", "trip_short_name": "868311", "direction_id": 1, "wheelchair_accessible": 0, "shape_id": "shape_373"}, "geometry": {"type": "LineString", "coordinates": [[1.2674521, 45.836209999999994], [1.2050815000000001, 45.77832], [1.1784277, 45.691536], [1.2121892, 45.621338], [1.2055011, 45.51924], [1.3109951000000002, 45.507725], [1.3889809, 45.444546], [1.3870801000000001, 45.395218]]}}, {"type": "Feature", "properties": {"stop_name": "Gare de Nexon", "stop_code": null, "stop_url": null, "stop_desc": null, "location_type": 0, "parent_station": "ter.StopArea_OCE87592725", "stop_id": "ter.StopPoint_OCETrain_TER-87592725", "stop_timezone": null, "zone_id": null, "wheelchair_boarding": 2}, "geometry": {"type": "Point", "coordinates": [1.1784277, 45.691536]}}, {"type": "Feature", "properties": {"stop_name": "Gare de La Meyze", "stop_code": null, "stop_url": null, "stop_desc": null, "location_type": 0, "parent_station": "ter.StopArea_OCE87592808", "stop_id": "ter.StopPoint_OCETrain_TER-87592808", "stop_timezone": null, "zone_id": null, "wheelchair_boarding": 2}, "geometry": {"type": "Point", "coordinates": [1.2121892, 45.621338]}}, {"type": "Feature", "properties": {"stop_name": "Gare de Coussac-Bonneval", "stop_code": null, "stop_url": null, "stop_desc": null, "location_type": 0, "parent_station": "ter.StopArea_OCE87592840", "stop_id": "ter.StopPoint_OCETrain_TER-87592840", "stop_timezone": null, "zone_id": null, "wheelchair_boarding": 2}, "geometry": {"type": "Point", "coordinates": [1.3109951000000002, 45.507725]}}, {"type": "Feature", "properties": {"stop_name": "Gare de St-Yrieix-la-Perche", "stop_code": null, "stop_url": null, "stop_desc": null, "location_type": 0, "parent_station": "ter.StopArea_OCE87592824", "stop_id": "ter.StopPoint_OCETrain_TER-87592824", "stop_timezone": null, "zone_id": null, "wheelchair_boarding": 2}, "geometry": {"type": "Point", "coordinates": [1.2055011, 45.51924]}}, {"type": "Feature", "properties": {"stop_name": "Gare de L'Aiguille", "stop_code": null, "stop_url": null, "stop_desc": null, "location_type": 0, "parent_station": "ter.StopArea_OCE87592634", "stop_id": "ter.StopPoint_OCETrain_TER-87592634", "stop_timezone": null, "zone_id": null, "wheelchair_boarding": 2}, "geometry": {"type": "Point", "coordinates": [1.2050815000000001, 45.77832]}}, {"type": "Feature", "properties": {"stop_name": "Gare de Limoges-B\u00e9n\u00e9dictins", "stop_code": null, "stop_url": null, "stop_desc": null, "location_type": 0, "parent_station": "ter.StopArea_OCE87592006", "stop_id": "ter.StopPoint_OCETrain_TER-87592006", "stop_timezone": null, "zone_id": null, "wheelchair_boarding": 2}, "geometry": {"type": "Point", "coordinates": [1.2674521, 45.836209999999994]}}, {"type": "Feature", "properties": {"stop_name": "Gare de Pompadour", "stop_code": null, "stop_url": null, "stop_desc": null, "location_type": 0, "parent_station": "ter.StopArea_OCE87594663", "stop_id": "ter.StopPoint_OCETrain_TER-87594663", "stop_timezone": null, "zone_id": null, "wheelchair_boarding": 2}, "geometry": {"type": "Point", "coordinates": [1.3870801000000001, 45.395218]}}, {"type": "Feature", "properties": {"stop_name": "Gare de Lubersac", "stop_code": null, "stop_url": null, "stop_desc": null, "location_type": 0, "parent_station": "ter.StopArea_OCE87594671", "stop_id": "ter.StopPoint_OCETrain_TER-87594671", "stop_timezone": null, "zone_id": null, "wheelchair_boarding": 2}, "geometry": {"type": "Point", "coordinates": [1.3889809, 45.444546]}}]}