{"type": "FeatureCollection", "features": [{"type": "Feature", "properties": {"route_id": "ter.OCE4621", "service_id": "ter.15146", "trip_id": "ter.OCESN870009F0200265588", "trip_headsign": "870009", "trip_short_name": "870009", "direction_id": 1, "wheelchair_accessible": 0, "shape_id": "shape_560"}, "geometry": {"type": "LineString", "coordinates": [[2.5802531, 44.36265], [2.5544825, 44.29139], [2.427506, 44.270382], [2.3632557, 44.18567], [2.1523887999999998, 44.049004], [2.1411675999999997, 43.9379], [2.1386354, 43.922035], [1.8948191000000003, 43.905964000000004], [1.8077447, 43.856228], [1.7307626, 43.81949], [1.6810372, 43.775414000000005], [1.4535576000000001, 43.611465]]}}, {"type": "Feature", "properties": {"stop_name": "Gare de Rabastens-Couffouleux", "stop_code": null, "stop_url": null, "stop_desc": null, "location_type": 0, "parent_station": "ter.StopArea_OCE87615328", "stop_id": "ter.StopPoint_OCETrain_TER-87615328", "stop_timezone": null, "zone_id": null, "wheelchair_boarding": 2}, "geometry": {"type": "Point", "coordinates": [1.7307626, 43.81949]}}, {"type": "Feature", "properties": {"stop_name": "Gare de Lisle-sur-Tarn", "stop_code": null, "stop_url": null, "stop_desc": null, "location_type": 0, "parent_station": "ter.StopArea_OCE87615310", "stop_id": "ter.StopPoint_OCETrain_TER-87615310", "stop_timezone": null, "zone_id": null, "wheelchair_boarding": 2}, "geometry": {"type": "Point", "coordinates": [1.8077447, 43.856228]}}, {"type": "Feature", "properties": {"stop_name": "Gare de St-Sulpice (Tarn)", "stop_code": null, "stop_url": null, "stop_desc": null, "location_type": 0, "parent_station": "ter.StopArea_OCE87615344", "stop_id": "ter.StopPoint_OCETrain_TER-87615344", "stop_timezone": null, "zone_id": null, "wheelchair_boarding": 2}, "geometry": {"type": "Point", "coordinates": [1.6810372, 43.775414000000005]}}, {"type": "Feature", "properties": {"stop_name": "Gare de Baraqueville-Carce.Pey.", "stop_code": null, "stop_url": null, "stop_desc": null, "location_type": 0, "parent_station": "ter.StopArea_OCE87615757", "stop_id": "ter.StopPoint_OCETrain_TER-87615757", "stop_timezone": null, "zone_id": null, "wheelchair_boarding": 2}, "geometry": {"type": "Point", "coordinates": [2.427506, 44.270382]}}, {"type": "Feature", "properties": {"stop_name": "Gare de Luc-Primaube", "stop_code": null, "stop_url": null, "stop_desc": null, "location_type": 0, "parent_station": "ter.StopArea_OCE87615773", "stop_id": "ter.StopPoint_OCETrain_TER-87615773", "stop_timezone": null, "zone_id": null, "wheelchair_boarding": 2}, "geometry": {"type": "Point", "coordinates": [2.5544825, 44.29139]}}, {"type": "Feature", "properties": {"stop_name": "Gare de Naucelle", "stop_code": null, "stop_url": null, "stop_desc": null, "location_type": 0, "parent_station": "ter.StopArea_OCE87615732", "stop_id": "ter.StopPoint_OCETrain_TER-87615732", "stop_timezone": null, "zone_id": null, "wheelchair_boarding": 2}, "geometry": {"type": "Point", "coordinates": [2.3632557, 44.18567]}}, {"type": "Feature", "properties": {"stop_name": "Gare de Albi-Madeleine.", "stop_code": null, "stop_url": null, "stop_desc": null, "location_type": 0, "parent_station": "ter.StopArea_OCE87615195", "stop_id": "ter.StopPoint_OCETrain_TER-87615195", "stop_timezone": null, "zone_id": null, "wheelchair_boarding": 2}, "geometry": {"type": "Point", "coordinates": [2.1411675999999997, 43.9379]}}, {"type": "Feature", "properties": {"stop_name": "Gare de Albi-Ville", "stop_code": null, "stop_url": null, "stop_desc": null, "location_type": 0, "parent_station": "ter.StopArea_OCE87615005", "stop_id": "ter.StopPoint_OCETrain_TER-87615005", "stop_timezone": null, "zone_id": null, "wheelchair_boarding": 2}, "geometry": {"type": "Point", "coordinates": [2.1386354, 43.922035]}}, {"type": "Feature", "properties": {"stop_name": "Gare de Gaillac", "stop_code": null, "stop_url": null, "stop_desc": null, "location_type": 0, "parent_station": "ter.StopArea_OCE87615252", "stop_id": "ter.StopPoint_OCETrain_TER-87615252", "stop_timezone": null, "zone_id": null, "wheelchair_boarding": 2}, "geometry": {"type": "Point", "coordinates": [1.8948191000000003, 43.905964000000004]}}, {"type": "Feature", "properties": {"stop_name": "Gare de Toulouse-Matabiau", "stop_code": null, "stop_url": null, "stop_desc": null, "location_type": 0, "parent_station": "ter.StopArea_OCE87611004", "stop_id": "ter.StopPoint_OCETrain_TER-87611004", "stop_timezone": null, "zone_id": null, "wheelchair_boarding": 2}, "geometry": {"type": "Point", "coordinates": [1.4535576000000001, 43.611465]}}, {"type": "Feature", "properties": {"stop_name": "Gare de Rodez", "stop_code": null, "stop_url": null, "stop_desc": null, "location_type": 0, "parent_station": "ter.StopArea_OCE87613422", "stop_id": "ter.StopPoint_OCETrain_TER-87613422", "stop_timezone": null, "zone_id": null, "wheelchair_boarding": 2}, "geometry": {"type": "Point", "coordinates": [2.5802531, 44.36265]}}, {"type": "Feature", "properties": {"stop_name": "Gare de Carmaux", "stop_code": null, "stop_url": null, "stop_desc": null, "location_type": 0, "parent_station": "ter.StopArea_OCE87615625", "stop_id": "ter.StopPoint_OCETrain_TER-87615625", "stop_timezone": null, "zone_id": null, "wheelchair_boarding": 2}, "geometry": {"type": "Point", "coordinates": [2.1523887999999998, 44.049004]}}]}