{"type": "FeatureCollection", "features": [{"type": "Feature", "properties": {"route_id": "ter.OCE180695", "service_id": "ter.177", "trip_id": "ter.OCESN035691R0300126473", "trip_headsign": "35691", "trip_short_name": "35691", "direction_id": 1, "wheelchair_accessible": 0, "shape_id": "shape_063"}, "geometry": {"type": "LineString", "coordinates": [[1.4535576000000001, 43.611465], [1.4258695, 43.433327], [1.4686244, 43.348835], [1.5210854, 43.305347], [1.5704218, 43.23942], [1.6097489999999999, 43.184273], [1.6189978999999999, 43.116177], [1.610783, 43.116013], [1.627614, 43.044979999999995], [1.6081466999999998, 43.012344], [1.6073936000000002, 42.9693], [1.6043162, 42.846534999999996], [1.600031, 42.849453000000004], [1.6213309, 42.821053000000006], [1.6884171000000001, 42.784943], [1.7191657999999999, 42.773920000000004], [1.7531537, 42.764441999999995], [1.8333150000000002, 42.724804]]}}, {"type": "Feature", "properties": {"stop_name": "Varilhes-Centre", "stop_code": null, "stop_url": null, "stop_desc": null, "location_type": 0, "parent_station": "ter.StopArea_OCE87130898", "stop_id": "ter.StopPoint_OCECar_TER-87130898", "stop_timezone": null, "zone_id": null, "wheelchair_boarding": 2}, "geometry": {"type": "Point", "coordinates": [1.627614, 43.044979999999995]}}, {"type": "Feature", "properties": {"stop_name": "Vernet-Ari\u00e8ge-Abri-Bus", "stop_code": null, "stop_url": null, "stop_desc": null, "location_type": 0, "parent_station": "ter.StopArea_OCE87130880", "stop_id": "ter.StopPoint_OCECar_TER-87130880", "stop_timezone": null, "zone_id": null, "wheelchair_boarding": 2}, "geometry": {"type": "Point", "coordinates": [1.6097489999999999, 43.184273]}}, {"type": "Feature", "properties": {"stop_name": "Gare de Ax-les-Thermes", "stop_code": null, "stop_url": null, "stop_desc": null, "location_type": 0, "parent_station": "ter.StopArea_OCE87611533", "stop_id": "ter.StopPoint_OCECar_TER-87611533", "stop_timezone": null, "zone_id": null, "wheelchair_boarding": 2}, "geometry": {"type": "Point", "coordinates": [1.8333150000000002, 42.724804]}}, {"type": "Feature", "properties": {"stop_name": "V\u00e8bre-La-Remise", "stop_code": null, "stop_url": null, "stop_desc": null, "location_type": 0, "parent_station": "ter.StopArea_OCE87611566", "stop_id": "ter.StopPoint_OCECar_TER-87611566", "stop_timezone": null, "zone_id": null, "wheelchair_boarding": 2}, "geometry": {"type": "Point", "coordinates": [1.7191657999999999, 42.773920000000004]}}, {"type": "Feature", "properties": {"stop_name": "Gare de Luzenac-Garanou", "stop_code": null, "stop_url": null, "stop_desc": null, "location_type": 0, "parent_station": "ter.StopArea_OCE87611558", "stop_id": "ter.StopPoint_OCECar_TER-87611558", "stop_timezone": null, "zone_id": null, "wheelchair_boarding": 2}, "geometry": {"type": "Point", "coordinates": [1.7531537, 42.764441999999995]}}, {"type": "Feature", "properties": {"stop_name": "Pamiers-Centre", "stop_code": null, "stop_url": null, "stop_desc": null, "location_type": 0, "parent_station": "ter.StopArea_OCE87130831", "stop_id": "ter.StopPoint_OCECar_TER-87130831", "stop_timezone": null, "zone_id": null, "wheelchair_boarding": 2}, "geometry": {"type": "Point", "coordinates": [1.610783, 43.116013]}}, {"type": "Feature", "properties": {"stop_name": "Les-cabannes-09-Centre", "stop_code": null, "stop_url": null, "stop_desc": null, "location_type": 0, "parent_station": "ter.StopArea_OCE87130823", "stop_id": "ter.StopPoint_OCECar_TER-87130823", "stop_timezone": null, "zone_id": null, "wheelchair_boarding": 2}, "geometry": {"type": "Point", "coordinates": [1.6884171000000001, 42.784943]}}, {"type": "Feature", "properties": {"stop_name": "Gare de Saverdun", "stop_code": null, "stop_url": null, "stop_desc": null, "location_type": 0, "parent_station": "ter.StopArea_OCE87611368", "stop_id": "ter.StopPoint_OCECar_TER-87611368", "stop_timezone": null, "zone_id": null, "wheelchair_boarding": 2}, "geometry": {"type": "Point", "coordinates": [1.5704218, 43.23942]}}, {"type": "Feature", "properties": {"stop_name": "Gare de Cintegabelle", "stop_code": null, "stop_url": null, "stop_desc": null, "location_type": 0, "parent_station": "ter.StopArea_OCE87611376", "stop_id": "ter.StopPoint_OCECar_TER-87611376", "stop_timezone": null, "zone_id": null, "wheelchair_boarding": 2}, "geometry": {"type": "Point", "coordinates": [1.5210854, 43.305347]}}, {"type": "Feature", "properties": {"stop_name": "Gare de Pamiers", "stop_code": null, "stop_url": null, "stop_desc": null, "location_type": 0, "parent_station": "ter.StopArea_OCE87611343", "stop_id": "ter.StopPoint_OCECar_TER-87611343", "stop_timezone": null, "zone_id": null, "wheelchair_boarding": 2}, "geometry": {"type": "Point", "coordinates": [1.6189978999999999, 43.116177]}}, {"type": "Feature", "properties": {"stop_name": "Ussat-les-Bains-Centre", "stop_code": null, "stop_url": null, "stop_desc": null, "location_type": 0, "parent_station": "ter.StopArea_OCE87611582", "stop_id": "ter.StopPoint_OCECar_TER-87611582", "stop_timezone": null, "zone_id": null, "wheelchair_boarding": 2}, "geometry": {"type": "Point", "coordinates": [1.6213309, 42.821053000000006]}}, {"type": "Feature", "properties": {"stop_name": "Gare de Tarascon-sur-Ari\u00e8ge", "stop_code": null, "stop_url": null, "stop_desc": null, "location_type": 0, "parent_station": "ter.StopArea_OCE87611590", "stop_id": "ter.StopPoint_OCECar_TER-87611590", "stop_timezone": null, "zone_id": null, "wheelchair_boarding": 2}, "geometry": {"type": "Point", "coordinates": [1.600031, 42.849453000000004]}}, {"type": "Feature", "properties": {"stop_name": "Gare de Auterive", "stop_code": null, "stop_url": null, "stop_desc": null, "location_type": 0, "parent_station": "ter.StopArea_OCE87611384", "stop_id": "ter.StopPoint_OCECar_TER-87611384", "stop_timezone": null, "zone_id": null, "wheelchair_boarding": 2}, "geometry": {"type": "Point", "coordinates": [1.4686244, 43.348835]}}, {"type": "Feature", "properties": {"stop_name": "Gare de Venerque-le-Vernet", "stop_code": null, "stop_url": null, "stop_desc": null, "location_type": 0, "parent_station": "ter.StopArea_OCE87611392", "stop_id": "ter.StopPoint_OCECar_TER-87611392", "stop_timezone": null, "zone_id": null, "wheelchair_boarding": 2}, "geometry": {"type": "Point", "coordinates": [1.4258695, 43.433327]}}, {"type": "Feature", "properties": {"stop_name": "Tarascon-Ari\u00e8ge-Mitter.", "stop_code": null, "stop_url": null, "stop_desc": null, "location_type": 0, "parent_station": "ter.StopArea_OCE87137158", "stop_id": "ter.StopPoint_OCECar_TER-87137158", "stop_timezone": null, "zone_id": null, "wheelchair_boarding": 2}, "geometry": {"type": "Point", "coordinates": [1.6043162, 42.846534999999996]}}, {"type": "Feature", "properties": {"stop_name": "Gare de Foix", "stop_code": null, "stop_url": null, "stop_desc": null, "location_type": 0, "parent_station": "ter.StopArea_OCE87611616", "stop_id": "ter.StopPoint_OCECar_TER-87611616", "stop_timezone": null, "zone_id": null, "wheelchair_boarding": 2}, "geometry": {"type": "Point", "coordinates": [1.6073936000000002, 42.9693]}}, {"type": "Feature", "properties": {"stop_name": "Gare de St-Jean-de-Verges", "stop_code": null, "stop_url": null, "stop_desc": null, "location_type": 0, "parent_station": "ter.StopArea_OCE87611624", "stop_id": "ter.StopPoint_OCECar_TER-87611624", "stop_timezone": null, "zone_id": null, "wheelchair_boarding": 2}, "geometry": {"type": "Point", "coordinates": [1.6081466999999998, 43.012344]}}, {"type": "Feature", "properties": {"stop_name": "Gare de Toulouse-Matabiau", "stop_code": null, "stop_url": null, "stop_desc": null, "location_type": 0, "parent_station": "ter.StopArea_OCE87611004", "stop_id": "ter.StopPoint_OCECar_TER-87611004", "stop_timezone": null, "zone_id": null, "wheelchair_boarding": 2}, "geometry": {"type": "Point", "coordinates": [1.4535576000000001, 43.611465]}}]}