{"type": "FeatureCollection", "features": [{"type": "Feature", "properties": {"route_id": "ter.OCE629115", "service_id": "ter.14598", "trip_id": "ter.OCESN867011F0100365123", "trip_headsign": "867011", "trip_short_name": "867011", "direction_id": 1, "wheelchair_accessible": 0, "shape_id": "shape_586"}, "geometry": {"type": "LineString", "coordinates": [[0.06940671, 43.239803], [-0.0216077, 43.183315], [-0.04219186, 43.100429999999996], [-0.16197066, 43.10155], [-0.1983975, 43.127052], [-0.2417563, 43.18183], [-0.29522163, 43.25463], [-0.36964959999999997, 43.291668], [-0.5701236, 43.3932], [-0.7676248999999999, 43.4841], [-0.9108603999999999, 43.52448], [-1.1157913000000002, 43.546772], [-1.3004588, 43.49925], [-1.4703981000000002, 43.496758]]}}, {"type": "Feature", "properties": {"stop_name": "Gare de Peyrehorade", "stop_code": null, "stop_url": null, "stop_desc": null, "location_type": 0, "parent_station": "ter.StopArea_OCE87672337", "stop_id": "ter.StopPoint_OCETrain_TER-87672337", "stop_timezone": null, "zone_id": null, "wheelchair_boarding": 2}, "geometry": {"type": "Point", "coordinates": [-1.1157913000000002, 43.546772]}}, {"type": "Feature", "properties": {"stop_name": "Gare de Tarbes", "stop_code": null, "stop_url": null, "stop_desc": null, "location_type": 0, "parent_station": "ter.StopArea_OCE87671008", "stop_id": "ter.StopPoint_OCETrain_TER-87671008", "stop_timezone": null, "zone_id": null, "wheelchair_boarding": 2}, "geometry": {"type": "Point", "coordinates": [0.06940671, 43.239803]}}, {"type": "Feature", "properties": {"stop_name": "Gare de Montaut-B\u00e9tharram", "stop_code": null, "stop_url": null, "stop_desc": null, "location_type": 0, "parent_station": "ter.StopArea_OCE87672113", "stop_id": "ter.StopPoint_OCETrain_TER-87672113", "stop_timezone": null, "zone_id": null, "wheelchair_boarding": 2}, "geometry": {"type": "Point", "coordinates": [-0.1983975, 43.127052]}}, {"type": "Feature", "properties": {"stop_name": "Gare de Coarraze-Nay", "stop_code": null, "stop_url": null, "stop_desc": null, "location_type": 0, "parent_station": "ter.StopArea_OCE87672139", "stop_id": "ter.StopPoint_OCETrain_TER-87672139", "stop_timezone": null, "zone_id": null, "wheelchair_boarding": 2}, "geometry": {"type": "Point", "coordinates": [-0.2417563, 43.18183]}}, {"type": "Feature", "properties": {"stop_name": "Gare de Urt", "stop_code": null, "stop_url": null, "stop_desc": null, "location_type": 0, "parent_station": "ter.StopArea_OCE87672386", "stop_id": "ter.StopPoint_OCETrain_TER-87672386", "stop_timezone": null, "zone_id": null, "wheelchair_boarding": 2}, "geometry": {"type": "Point", "coordinates": [-1.3004588, 43.49925]}}, {"type": "Feature", "properties": {"stop_name": "Gare de Bayonne", "stop_code": null, "stop_url": null, "stop_desc": null, "location_type": 0, "parent_station": "ter.StopArea_OCE87673004", "stop_id": "ter.StopPoint_OCETrain_TER-87673004", "stop_timezone": null, "zone_id": null, "wheelchair_boarding": 2}, "geometry": {"type": "Point", "coordinates": [-1.4703981000000002, 43.496758]}}, {"type": "Feature", "properties": {"stop_name": "Gare de Ossun", "stop_code": null, "stop_url": null, "stop_desc": null, "location_type": 0, "parent_station": "ter.StopArea_OCE87671313", "stop_id": "ter.StopPoint_OCETrain_TER-87671313", "stop_timezone": null, "zone_id": null, "wheelchair_boarding": 2}, "geometry": {"type": "Point", "coordinates": [-0.0216077, 43.183315]}}, {"type": "Feature", "properties": {"stop_name": "Gare de Lourdes", "stop_code": null, "stop_url": null, "stop_desc": null, "location_type": 0, "parent_station": "ter.StopArea_OCE87671339", "stop_id": "ter.StopPoint_OCETrain_TER-87671339", "stop_timezone": null, "zone_id": null, "wheelchair_boarding": 2}, "geometry": {"type": "Point", "coordinates": [-0.04219186, 43.100429999999996]}}, {"type": "Feature", "properties": {"stop_name": "Gare de St-P\u00e9 (Htes-Pyr\u00e9n\u00e9es)", "stop_code": null, "stop_url": null, "stop_desc": null, "location_type": 0, "parent_station": "ter.StopArea_OCE87671362", "stop_id": "ter.StopPoint_OCETrain_TER-87671362", "stop_timezone": null, "zone_id": null, "wheelchair_boarding": 2}, "geometry": {"type": "Point", "coordinates": [-0.16197066, 43.10155]}}, {"type": "Feature", "properties": {"stop_name": "Gare de Artix", "stop_code": null, "stop_url": null, "stop_desc": null, "location_type": 0, "parent_station": "ter.StopArea_OCE87672212", "stop_id": "ter.StopPoint_OCETrain_TER-87672212", "stop_timezone": null, "zone_id": null, "wheelchair_boarding": 2}, "geometry": {"type": "Point", "coordinates": [-0.5701236, 43.3932]}}, {"type": "Feature", "properties": {"stop_name": "Gare de Pau", "stop_code": null, "stop_url": null, "stop_desc": null, "location_type": 0, "parent_station": "ter.StopArea_OCE87672006", "stop_id": "ter.StopPoint_OCETrain_TER-87672006", "stop_timezone": null, "zone_id": null, "wheelchair_boarding": 2}, "geometry": {"type": "Point", "coordinates": [-0.36964959999999997, 43.291668]}}, {"type": "Feature", "properties": {"stop_name": "Gare de Orthez", "stop_code": null, "stop_url": null, "stop_desc": null, "location_type": 0, "parent_station": "ter.StopArea_OCE87672253", "stop_id": "ter.StopPoint_OCETrain_TER-87672253", "stop_timezone": null, "zone_id": null, "wheelchair_boarding": 2}, "geometry": {"type": "Point", "coordinates": [-0.7676248999999999, 43.4841]}}, {"type": "Feature", "properties": {"stop_name": "Gare de Puyo\u00f4", "stop_code": null, "stop_url": null, "stop_desc": null, "location_type": 0, "parent_station": "ter.StopArea_OCE87672279", "stop_id": "ter.StopPoint_OCETrain_TER-87672279", "stop_timezone": null, "zone_id": null, "wheelchair_boarding": 2}, "geometry": {"type": "Point", "coordinates": [-0.9108603999999999, 43.52448]}}, {"type": "Feature", "properties": {"stop_name": "Gare de Assat", "stop_code": null, "stop_url": null, "stop_desc": null, "location_type": 0, "parent_station": "ter.StopArea_OCE87672162", "stop_id": "ter.StopPoint_OCETrain_TER-87672162", "stop_timezone": null, "zone_id": null, "wheelchair_boarding": 2}, "geometry": {"type": "Point", "coordinates": [-0.29522163, 43.25463]}}]}