{"type": "FeatureCollection", "features": [{"type": "Feature", "properties": {"route_id": "ter.OCE592927", "service_id": "ter.2722", "trip_id": "ter.OCESN038872R0200127233", "trip_headsign": "38872", "trip_short_name": "38872", "direction_id": 0, "wheelchair_accessible": 0, "shape_id": "shape_020"}, "geometry": {"type": "LineString", "coordinates": [[-0.49648509999999996, 46.837165999999996], [-0.21051347, 46.98525], [-0.1849096, 47.04872], [-0.1480413, 47.125324], [-0.07142992, 47.26897]]}}, {"type": "Feature", "properties": {"stop_name": "Gare de Bressuire", "stop_code": null, "stop_url": null, "stop_desc": null, "location_type": 0, "parent_station": "ter.StopArea_OCE87487249", "stop_id": "ter.StopPoint_OCECar_TER-87487249", "stop_timezone": null, "zone_id": null, "wheelchair_boarding": 2}, "geometry": {"type": "Point", "coordinates": [-0.49648509999999996, 46.837165999999996]}}, {"type": "Feature", "properties": {"stop_name": "Gare de Thouars", "stop_code": null, "stop_url": null, "stop_desc": null, "location_type": 0, "parent_station": "ter.StopArea_OCE87487009", "stop_id": "ter.StopPoint_OCECar_TER-87487009", "stop_timezone": null, "zone_id": null, "wheelchair_boarding": 2}, "geometry": {"type": "Point", "coordinates": [-0.21051347, 46.98525]}}, {"type": "Feature", "properties": {"stop_name": "Gare de Saumur", "stop_code": null, "stop_url": null, "stop_desc": null, "location_type": 0, "parent_station": "ter.StopArea_OCE87487603", "stop_id": "ter.StopPoint_OCECar_TER-87487603", "stop_timezone": null, "zone_id": null, "wheelchair_boarding": 2}, "geometry": {"type": "Point", "coordinates": [-0.07142992, 47.26897]}}, {"type": "Feature", "properties": {"stop_name": "Gare de Montreuil-Bellay", "stop_code": null, "stop_url": null, "stop_desc": null, "location_type": 0, "parent_station": "ter.StopArea_OCE87487637", "stop_id": "ter.StopPoint_OCECar_TER-87487637", "stop_timezone": null, "zone_id": null, "wheelchair_boarding": 2}, "geometry": {"type": "Point", "coordinates": [-0.1480413, 47.125324]}}, {"type": "Feature", "properties": {"stop_name": "Brion-pr\u00e8s-Thouet", "stop_code": null, "stop_url": null, "stop_desc": null, "location_type": 0, "parent_station": "ter.StopArea_OCE87487611", "stop_id": "ter.StopPoint_OCECar_TER-87487611", "stop_timezone": null, "zone_id": null, "wheelchair_boarding": 2}, "geometry": {"type": "Point", "coordinates": [-0.1849096, 47.04872]}}]}