{"type": "FeatureCollection", "features": [{"type": "Feature", "properties": {"route_id": "ter.OCE629119", "service_id": "ter.11813", "trip_id": "ter.OCESN865016F0100264397", "trip_headsign": "865016", "trip_short_name": "865016", "direction_id": 0, "wheelchair_accessible": 0, "shape_id": "shape_263"}, "geometry": {"type": "LineString", "coordinates": [[-0.55619407, 44.826538], [-0.5336025, 44.856770000000004], [-0.23636764, 44.915886], [-0.19802581, 44.97858], [-0.13142905, 45.036654999999996], [-0.04353312, 45.094265], [-0.01926982, 45.157375], [0.04338003, 45.270676], [0.13800132, 45.3983], [0.16452847, 45.653934]]}}, {"type": "Feature", "properties": {"stop_name": "Gare de St-Denis-de-Pile", "stop_code": null, "stop_url": null, "stop_desc": null, "location_type": 0, "parent_station": "ter.StopArea_OCE87584508", "stop_id": "ter.StopPoint_OCETrain_TER-87584508", "stop_timezone": null, "zone_id": null, "wheelchair_boarding": 2}, "geometry": {"type": "Point", "coordinates": [-0.19802581, 44.97858]}}, {"type": "Feature", "properties": {"stop_name": "Gare de St-Aigulin-la-Roche-Cha", "stop_code": null, "stop_url": null, "stop_desc": null, "location_type": 0, "parent_station": "ter.StopArea_OCE87584540", "stop_id": "ter.StopPoint_OCETrain_TER-87584540", "stop_timezone": null, "zone_id": null, "wheelchair_boarding": 2}, "geometry": {"type": "Point", "coordinates": [-0.01926982, 45.157375]}}, {"type": "Feature", "properties": {"stop_name": "Gare de Chalais", "stop_code": null, "stop_url": null, "stop_desc": null, "location_type": 0, "parent_station": "ter.StopArea_OCE87583690", "stop_id": "ter.StopPoint_OCETrain_TER-87583690", "stop_timezone": null, "zone_id": null, "wheelchair_boarding": 2}, "geometry": {"type": "Point", "coordinates": [0.04338003, 45.270676]}}, {"type": "Feature", "properties": {"stop_name": "Gare de Les Eglisottes", "stop_code": null, "stop_url": null, "stop_desc": null, "location_type": 0, "parent_station": "ter.StopArea_OCE87584532", "stop_id": "ter.StopPoint_OCETrain_TER-87584532", "stop_timezone": null, "zone_id": null, "wheelchair_boarding": 2}, "geometry": {"type": "Point", "coordinates": [-0.04353312, 45.094265]}}, {"type": "Feature", "properties": {"stop_name": "Gare de Montmoreau", "stop_code": null, "stop_url": null, "stop_desc": null, "location_type": 0, "parent_station": "ter.StopArea_OCE87583674", "stop_id": "ter.StopPoint_OCETrain_TER-87583674", "stop_timezone": null, "zone_id": null, "wheelchair_boarding": 2}, "geometry": {"type": "Point", "coordinates": [0.13800132, 45.3983]}}, {"type": "Feature", "properties": {"stop_name": "Gare de Bordeaux-St-Jean", "stop_code": null, "stop_url": null, "stop_desc": null, "location_type": 0, "parent_station": "ter.StopArea_OCE87581009", "stop_id": "ter.StopPoint_OCETrain_TER-87581009", "stop_timezone": null, "zone_id": null, "wheelchair_boarding": 2}, "geometry": {"type": "Point", "coordinates": [-0.55619407, 44.826538]}}, {"type": "Feature", "properties": {"stop_name": "Gare de Coutras", "stop_code": null, "stop_url": null, "stop_desc": null, "location_type": 0, "parent_station": "ter.StopArea_OCE87584516", "stop_id": "ter.StopPoint_OCETrain_TER-87584516", "stop_timezone": null, "zone_id": null, "wheelchair_boarding": 2}, "geometry": {"type": "Point", "coordinates": [-0.13142905, 45.036654999999996]}}, {"type": "Feature", "properties": {"stop_name": "Gare de Angoul\u00eame", "stop_code": null, "stop_url": null, "stop_desc": null, "location_type": 0, "parent_station": "ter.StopArea_OCE87583005", "stop_id": "ter.StopPoint_OCETrain_TER-87583005", "stop_timezone": null, "zone_id": null, "wheelchair_boarding": 2}, "geometry": {"type": "Point", "coordinates": [0.16452847, 45.653934]}}, {"type": "Feature", "properties": {"stop_name": "Gare de Cenon", "stop_code": null, "stop_url": null, "stop_desc": null, "location_type": 0, "parent_station": "ter.StopArea_OCE87420596", "stop_id": "ter.StopPoint_OCETrain_TER-87420596", "stop_timezone": null, "zone_id": null, "wheelchair_boarding": 2}, "geometry": {"type": "Point", "coordinates": [-0.5336025, 44.856770000000004]}}, {"type": "Feature", "properties": {"stop_name": "Gare de Libourne", "stop_code": null, "stop_url": null, "stop_desc": null, "location_type": 0, "parent_station": "ter.StopArea_OCE87584052", "stop_id": "ter.StopPoint_OCETrain_TER-87584052", "stop_timezone": null, "zone_id": null, "wheelchair_boarding": 2}, "geometry": {"type": "Point", "coordinates": [-0.23636764, 44.915886]}}]}