{"type": "FeatureCollection", "features": [{"type": "Feature", "properties": {"route_id": "ter.OCE83", "service_id": "ter.176", "trip_id": "ter.OCESN864758F0100264357", "trip_headsign": "864758", "trip_short_name": "864758", "direction_id": 0, "wheelchair_accessible": 0, "shape_id": "shape_186"}, "geometry": {"type": "LineString", "coordinates": [[-0.6175758000000001, 45.747845], [-0.67790884, 45.875842999999996], [-0.79852164, 45.89454], [-0.89783347, 45.94338], [-0.96378833, 45.947414], [-1.0912087, 46.078564], [-1.1453004, 46.152702000000005]]}}, {"type": "Feature", "properties": {"stop_name": "Gare de Chatelaillon-Plage", "stop_code": null, "stop_url": null, "stop_desc": null, "location_type": 0, "parent_station": "ter.StopArea_OCE87485110", "stop_id": "ter.StopPoint_OCETrain_TER-87485110", "stop_timezone": null, "zone_id": null, "wheelchair_boarding": 2}, "geometry": {"type": "Point", "coordinates": [-1.0912087, 46.078564]}}, {"type": "Feature", "properties": {"stop_name": "Gare de Rochefort", "stop_code": null, "stop_url": null, "stop_desc": null, "location_type": 0, "parent_station": "ter.StopArea_OCE87485144", "stop_id": "ter.StopPoint_OCETrain_TER-87485144", "stop_timezone": null, "zone_id": null, "wheelchair_boarding": 2}, "geometry": {"type": "Point", "coordinates": [-0.96378833, 45.947414]}}, {"type": "Feature", "properties": {"stop_name": "Gare de Tonnay-Charente", "stop_code": null, "stop_url": null, "stop_desc": null, "location_type": 0, "parent_station": "ter.StopArea_OCE87485151", "stop_id": "ter.StopPoint_OCETrain_TER-87485151", "stop_timezone": null, "zone_id": null, "wheelchair_boarding": 2}, "geometry": {"type": "Point", "coordinates": [-0.89783347, 45.94338]}}, {"type": "Feature", "properties": {"stop_name": "Gare de La Rochelle-Ville", "stop_code": null, "stop_url": null, "stop_desc": null, "location_type": 0, "parent_station": "ter.StopArea_OCE87485003", "stop_id": "ter.StopPoint_OCETrain_TER-87485003", "stop_timezone": null, "zone_id": null, "wheelchair_boarding": 2}, "geometry": {"type": "Point", "coordinates": [-1.1453004, 46.152702000000005]}}, {"type": "Feature", "properties": {"stop_name": "Gare de Saintes", "stop_code": null, "stop_url": null, "stop_desc": null, "location_type": 0, "parent_station": "ter.StopArea_OCE87491001", "stop_id": "ter.StopPoint_OCETrain_TER-87491001", "stop_timezone": null, "zone_id": null, "wheelchair_boarding": 2}, "geometry": {"type": "Point", "coordinates": [-0.6175758000000001, 45.747845]}}, {"type": "Feature", "properties": {"stop_name": "Gare de St-Savinien/Charente", "stop_code": null, "stop_url": null, "stop_desc": null, "location_type": 0, "parent_station": "ter.StopArea_OCE87491035", "stop_id": "ter.StopPoint_OCETrain_TER-87491035", "stop_timezone": null, "zone_id": null, "wheelchair_boarding": 2}, "geometry": {"type": "Point", "coordinates": [-0.67790884, 45.875842999999996]}}, {"type": "Feature", "properties": {"stop_name": "Gare de Bords", "stop_code": null, "stop_url": null, "stop_desc": null, "location_type": 0, "parent_station": "ter.StopArea_OCE87491019", "stop_id": "ter.StopPoint_OCETrain_TER-87491019", "stop_timezone": null, "zone_id": null, "wheelchair_boarding": 2}, "geometry": {"type": "Point", "coordinates": [-0.79852164, 45.89454]}}]}