{"type": "FeatureCollection", "features": [{"type": "Feature", "properties": {"route_id": "ter.OCE645732", "service_id": "ter.4372", "trip_id": "ter.OCESN871209F0700165835", "trip_headsign": "871209", "trip_short_name": "871209", "direction_id": 1, "wheelchair_accessible": 0, "shape_id": "shape_629"}, "geometry": {"type": "LineString", "coordinates": [[3.3104875, 45.365383], [3.1965847000000003, 45.253704], [2.9791257, 45.125384999999994], [2.8695877, 45.10908], [2.7532669999999997, 45.09075], [2.6314366000000002, 44.97595], [2.4355466, 44.920986], [2.235418, 44.856556], [2.1996974999999996, 44.70613], [2.1601627, 44.665279999999996], [2.0370767, 44.603516], [2.0789020000000002, 44.577656], [2.0790188, 44.475547999999996], [2.0365834, 44.34768], [1.976568, 44.222485], [1.9686299999999999, 44.14549], [1.8844318, 44.142223], [1.8999964, 44.066994], [1.8948191000000003, 43.905964000000004], [1.8077447, 43.856228], [1.6810372, 43.775414000000005], [1.4535576000000001, 43.611465]]}}, {"type": "Feature", "properties": {"stop_name": "Gare de Arvant", "stop_code": null, "stop_url": null, "stop_desc": null, "location_type": 0, "parent_station": "ter.StopArea_OCE87734251", "stop_id": "ter.StopPoint_OCETrain_TER-87734251", "stop_timezone": null, "zone_id": null, "wheelchair_boarding": 2}, "geometry": {"type": "Point", "coordinates": [3.3104875, 45.365383]}}, {"type": "Feature", "properties": {"stop_name": "Gare de Neussargues", "stop_code": null, "stop_url": null, "stop_desc": null, "location_type": 0, "parent_station": "ter.StopArea_OCE87645507", "stop_id": "ter.StopPoint_OCETrain_TER-87645507", "stop_timezone": null, "zone_id": null, "wheelchair_boarding": 2}, "geometry": {"type": "Point", "coordinates": [2.9791257, 45.125384999999994]}}, {"type": "Feature", "properties": {"stop_name": "Gare de Massiac-Blesle", "stop_code": null, "stop_url": null, "stop_desc": null, "location_type": 0, "parent_station": "ter.StopArea_OCE87734871", "stop_id": "ter.StopPoint_OCETrain_TER-87734871", "stop_timezone": null, "zone_id": null, "wheelchair_boarding": 2}, "geometry": {"type": "Point", "coordinates": [3.1965847000000003, 45.253704]}}, {"type": "Feature", "properties": {"stop_name": "Gare de Lisle-sur-Tarn", "stop_code": null, "stop_url": null, "stop_desc": null, "location_type": 0, "parent_station": "ter.StopArea_OCE87615310", "stop_id": "ter.StopPoint_OCETrain_TER-87615310", "stop_timezone": null, "zone_id": null, "wheelchair_boarding": 2}, "geometry": {"type": "Point", "coordinates": [1.8077447, 43.856228]}}, {"type": "Feature", "properties": {"stop_name": "Gare de St-Sulpice (Tarn)", "stop_code": null, "stop_url": null, "stop_desc": null, "location_type": 0, "parent_station": "ter.StopArea_OCE87615344", "stop_id": "ter.StopPoint_OCETrain_TER-87615344", "stop_timezone": null, "zone_id": null, "wheelchair_boarding": 2}, "geometry": {"type": "Point", "coordinates": [1.6810372, 43.775414000000005]}}, {"type": "Feature", "properties": {"stop_name": "Gare de Capdenac", "stop_code": null, "stop_url": null, "stop_desc": null, "location_type": 0, "parent_station": "ter.StopArea_OCE87613109", "stop_id": "ter.StopPoint_OCETrain_TER-87613109", "stop_timezone": null, "zone_id": null, "wheelchair_boarding": 2}, "geometry": {"type": "Point", "coordinates": [2.0789020000000002, 44.577656]}}, {"type": "Feature", "properties": {"stop_name": "Gare de Le Rouget", "stop_code": null, "stop_url": null, "stop_desc": null, "location_type": 0, "parent_station": "ter.StopArea_OCE87645192", "stop_id": "ter.StopPoint_OCETrain_TER-87645192", "stop_timezone": null, "zone_id": null, "wheelchair_boarding": 2}, "geometry": {"type": "Point", "coordinates": [2.235418, 44.856556]}}, {"type": "Feature", "properties": {"stop_name": "Gare de Maurs", "stop_code": null, "stop_url": null, "stop_desc": null, "location_type": 0, "parent_station": "ter.StopArea_OCE87645168", "stop_id": "ter.StopPoint_OCETrain_TER-87645168", "stop_timezone": null, "zone_id": null, "wheelchair_boarding": 2}, "geometry": {"type": "Point", "coordinates": [2.1996974999999996, 44.70613]}}, {"type": "Feature", "properties": {"stop_name": "Gare de Vic-sur-C\u00e8re", "stop_code": null, "stop_url": null, "stop_desc": null, "location_type": 0, "parent_station": "ter.StopArea_OCE87645440", "stop_id": "ter.StopPoint_OCETrain_TER-87645440", "stop_timezone": null, "zone_id": null, "wheelchair_boarding": 2}, "geometry": {"type": "Point", "coordinates": [2.6314366000000002, 44.97595]}}, {"type": "Feature", "properties": {"stop_name": "Gare de Salles-Courbatiers", "stop_code": null, "stop_url": null, "stop_desc": null, "location_type": 0, "parent_station": "ter.StopArea_OCE87613877", "stop_id": "ter.StopPoint_OCETrain_TER-87613877", "stop_timezone": null, "zone_id": null, "wheelchair_boarding": 2}, "geometry": {"type": "Point", "coordinates": [2.0790188, 44.475547999999996]}}, {"type": "Feature", "properties": {"stop_name": "Gare de Bagnac", "stop_code": null, "stop_url": null, "stop_desc": null, "location_type": 0, "parent_station": "ter.StopArea_OCE87613604", "stop_id": "ter.StopPoint_OCETrain_TER-87613604", "stop_timezone": null, "zone_id": null, "wheelchair_boarding": 2}, "geometry": {"type": "Point", "coordinates": [2.1601627, 44.665279999999996]}}, {"type": "Feature", "properties": {"stop_name": "Gare de Cordes-Vindrac", "stop_code": null, "stop_url": null, "stop_desc": null, "location_type": 0, "parent_station": "ter.StopArea_OCE87613802", "stop_id": "ter.StopPoint_OCETrain_TER-87613802", "stop_timezone": null, "zone_id": null, "wheelchair_boarding": 2}, "geometry": {"type": "Point", "coordinates": [1.8999964, 44.066994]}}, {"type": "Feature", "properties": {"stop_name": "Gare de Figeac", "stop_code": null, "stop_url": null, "stop_desc": null, "location_type": 0, "parent_station": "ter.StopArea_OCE87613091", "stop_id": "ter.StopPoint_OCETrain_TER-87613091", "stop_timezone": null, "zone_id": null, "wheelchair_boarding": 2}, "geometry": {"type": "Point", "coordinates": [2.0370767, 44.603516]}}, {"type": "Feature", "properties": {"stop_name": "Gare de Gaillac", "stop_code": null, "stop_url": null, "stop_desc": null, "location_type": 0, "parent_station": "ter.StopArea_OCE87615252", "stop_id": "ter.StopPoint_OCETrain_TER-87615252", "stop_timezone": null, "zone_id": null, "wheelchair_boarding": 2}, "geometry": {"type": "Point", "coordinates": [1.8948191000000003, 43.905964000000004]}}, {"type": "Feature", "properties": {"stop_name": "Gare de Najac", "stop_code": null, "stop_url": null, "stop_desc": null, "location_type": 0, "parent_station": "ter.StopArea_OCE87613463", "stop_id": "ter.StopPoint_OCETrain_TER-87613463", "stop_timezone": null, "zone_id": null, "wheelchair_boarding": 2}, "geometry": {"type": "Point", "coordinates": [1.976568, 44.222485]}}, {"type": "Feature", "properties": {"stop_name": "Gare de Lexos", "stop_code": null, "stop_url": null, "stop_desc": null, "location_type": 0, "parent_station": "ter.StopArea_OCE87613489", "stop_id": "ter.StopPoint_OCETrain_TER-87613489", "stop_timezone": null, "zone_id": null, "wheelchair_boarding": 2}, "geometry": {"type": "Point", "coordinates": [1.8844318, 44.142223]}}, {"type": "Feature", "properties": {"stop_name": "Gare de Lagu\u00e9pie", "stop_code": null, "stop_url": null, "stop_desc": null, "location_type": 0, "parent_station": "ter.StopArea_OCE87613471", "stop_id": "ter.StopPoint_OCETrain_TER-87613471", "stop_timezone": null, "zone_id": null, "wheelchair_boarding": 2}, "geometry": {"type": "Point", "coordinates": [1.9686299999999999, 44.14549]}}, {"type": "Feature", "properties": {"stop_name": "Gare de Toulouse-Matabiau", "stop_code": null, "stop_url": null, "stop_desc": null, "location_type": 0, "parent_station": "ter.StopArea_OCE87611004", "stop_id": "ter.StopPoint_OCETrain_TER-87611004", "stop_timezone": null, "zone_id": null, "wheelchair_boarding": 2}, "geometry": {"type": "Point", "coordinates": [1.4535576000000001, 43.611465]}}, {"type": "Feature", "properties": {"stop_name": "Gare de Villefranche-Rouergue", "stop_code": null, "stop_url": null, "stop_desc": null, "location_type": 0, "parent_station": "ter.StopArea_OCE87613893", "stop_id": "ter.StopPoint_OCETrain_TER-87613893", "stop_timezone": null, "zone_id": null, "wheelchair_boarding": 2}, "geometry": {"type": "Point", "coordinates": [2.0365834, 44.34768]}}, {"type": "Feature", "properties": {"stop_name": "Gare de Murat (Cantal)", "stop_code": null, "stop_url": null, "stop_desc": null, "location_type": 0, "parent_station": "ter.StopArea_OCE87645481", "stop_id": "ter.StopPoint_OCETrain_TER-87645481", "stop_timezone": null, "zone_id": null, "wheelchair_boarding": 2}, "geometry": {"type": "Point", "coordinates": [2.8695877, 45.10908]}}, {"type": "Feature", "properties": {"stop_name": "Gare de Aurillac", "stop_code": null, "stop_url": null, "stop_desc": null, "location_type": 0, "parent_station": "ter.StopArea_OCE87645002", "stop_id": "ter.StopPoint_OCETrain_TER-87645002", "stop_timezone": null, "zone_id": null, "wheelchair_boarding": 2}, "geometry": {"type": "Point", "coordinates": [2.4355466, 44.920986]}}, {"type": "Feature", "properties": {"stop_name": "Gare de Le Lioran", "stop_code": null, "stop_url": null, "stop_desc": null, "location_type": 0, "parent_station": "ter.StopArea_OCE87645473", "stop_id": "ter.StopPoint_OCETrain_TER-87645473", "stop_timezone": null, "zone_id": null, "wheelchair_boarding": 2}, "geometry": {"type": "Point", "coordinates": [2.7532669999999997, 45.09075]}}]}