{"type": "FeatureCollection", "features": [{"type": "Feature", "properties": {"route_id": "ter.OCE629111", "service_id": "ter.14934", "trip_id": "ter.OCESN866460F0100264923", "trip_headsign": "866460", "trip_short_name": "866460", "direction_id": 0, "wheelchair_accessible": 0, "shape_id": "shape_626"}, "geometry": {"type": "LineString", "coordinates": [[-1.7818685, 43.352993], [-1.7644191000000002, 43.370036999999996], [-1.6611619999999998, 43.385845], [-1.6099274, 43.425426], [-1.5460112, 43.459377], [-1.4703981000000002, 43.496758], [-1.4289253999999998, 43.587105], [-1.3063851999999998, 43.657806], [-1.0503241, 43.720665000000004], [-0.9084808000000001, 44.033671999999996], [-0.9209958, 44.210575], [-0.94619685, 44.32925], [-0.9660205, 44.63748], [-0.6317491, 44.804596000000004], [-0.55619407, 44.826538]]}}, {"type": "Feature", "properties": {"stop_name": "Gare de Biarritz", "stop_code": null, "stop_url": null, "stop_desc": null, "location_type": 0, "parent_station": "ter.StopArea_OCE87673400", "stop_id": "ter.StopPoint_OCETrain_TER-87673400", "stop_timezone": null, "zone_id": null, "wheelchair_boarding": 2}, "geometry": {"type": "Point", "coordinates": [-1.5460112, 43.459377]}}, {"type": "Feature", "properties": {"stop_name": "Gare de Dax", "stop_code": null, "stop_url": null, "stop_desc": null, "location_type": 0, "parent_station": "ter.StopArea_OCE87673202", "stop_id": "ter.StopPoint_OCETrain_TER-87673202", "stop_timezone": null, "zone_id": null, "wheelchair_boarding": 2}, "geometry": {"type": "Point", "coordinates": [-1.0503241, 43.720665000000004]}}, {"type": "Feature", "properties": {"stop_name": "Gare de Gu\u00e9thary", "stop_code": null, "stop_url": null, "stop_desc": null, "location_type": 0, "parent_station": "ter.StopArea_OCE87673459", "stop_id": "ter.StopPoint_OCETrain_TER-87673459", "stop_timezone": null, "zone_id": null, "wheelchair_boarding": 2}, "geometry": {"type": "Point", "coordinates": [-1.6099274, 43.425426]}}, {"type": "Feature", "properties": {"stop_name": "Gare de Labouheyre", "stop_code": null, "stop_url": null, "stop_desc": null, "location_type": 0, "parent_station": "ter.StopArea_OCE87582551", "stop_id": "ter.StopPoint_OCETrain_TER-87582551", "stop_timezone": null, "zone_id": null, "wheelchair_boarding": 2}, "geometry": {"type": "Point", "coordinates": [-0.9209958, 44.210575]}}, {"type": "Feature", "properties": {"stop_name": "Gare de Bayonne", "stop_code": null, "stop_url": null, "stop_desc": null, "location_type": 0, "parent_station": "ter.StopArea_OCE87673004", "stop_id": "ter.StopPoint_OCETrain_TER-87673004", "stop_timezone": null, "zone_id": null, "wheelchair_boarding": 2}, "geometry": {"type": "Point", "coordinates": [-1.4703981000000002, 43.496758]}}, {"type": "Feature", "properties": {"stop_name": "Gare de Ychoux", "stop_code": null, "stop_url": null, "stop_desc": null, "location_type": 0, "parent_station": "ter.StopArea_OCE87582536", "stop_id": "ter.StopPoint_OCETrain_TER-87582536", "stop_timezone": null, "zone_id": null, "wheelchair_boarding": 2}, "geometry": {"type": "Point", "coordinates": [-0.94619685, 44.32925]}}, {"type": "Feature", "properties": {"stop_name": "Gare de Bordeaux-St-Jean", "stop_code": null, "stop_url": null, "stop_desc": null, "location_type": 0, "parent_station": "ter.StopArea_OCE87581009", "stop_id": "ter.StopPoint_OCETrain_TER-87581009", "stop_timezone": null, "zone_id": null, "wheelchair_boarding": 2}, "geometry": {"type": "Point", "coordinates": [-0.55619407, 44.826538]}}, {"type": "Feature", "properties": {"stop_name": "Gare de Les Deux-Jumeaux (64)", "stop_code": null, "stop_url": null, "stop_desc": null, "location_type": 0, "parent_station": "ter.StopArea_OCE87677104", "stop_id": "ter.StopPoint_OCETrain_TER-87677104", "stop_timezone": null, "zone_id": null, "wheelchair_boarding": 2}, "geometry": {"type": "Point", "coordinates": [-1.7644191000000002, 43.370036999999996]}}, {"type": "Feature", "properties": {"stop_name": "Gare de St-Jean-de-Luz-Ciboure", "stop_code": null, "stop_url": null, "stop_desc": null, "location_type": 0, "parent_station": "ter.StopArea_OCE87677120", "stop_id": "ter.StopPoint_OCETrain_TER-87677120", "stop_timezone": null, "zone_id": null, "wheelchair_boarding": 2}, "geometry": {"type": "Point", "coordinates": [-1.6611619999999998, 43.385845]}}, {"type": "Feature", "properties": {"stop_name": "Gare de Pessac", "stop_code": null, "stop_url": null, "stop_desc": null, "location_type": 0, "parent_station": "ter.StopArea_OCE87581751", "stop_id": "ter.StopPoint_OCETrain_TER-87581751", "stop_timezone": null, "zone_id": null, "wheelchair_boarding": 2}, "geometry": {"type": "Point", "coordinates": [-0.6317491, 44.804596000000004]}}, {"type": "Feature", "properties": {"stop_name": "Gare de Morcenx", "stop_code": null, "stop_url": null, "stop_desc": null, "location_type": 0, "parent_station": "ter.StopArea_OCE87673103", "stop_id": "ter.StopPoint_OCETrain_TER-87673103", "stop_timezone": null, "zone_id": null, "wheelchair_boarding": 2}, "geometry": {"type": "Point", "coordinates": [-0.9084808000000001, 44.033671999999996]}}, {"type": "Feature", "properties": {"stop_name": "Gare de Biganos-Facture", "stop_code": null, "stop_url": null, "stop_desc": null, "location_type": 0, "parent_station": "ter.StopArea_OCE87582478", "stop_id": "ter.StopPoint_OCETrain_TER-87582478", "stop_timezone": null, "zone_id": null, "wheelchair_boarding": 2}, "geometry": {"type": "Point", "coordinates": [-0.9660205, 44.63748]}}, {"type": "Feature", "properties": {"stop_name": "Gare de St-Vincent-de-Tyrosse", "stop_code": null, "stop_url": null, "stop_desc": null, "location_type": 0, "parent_station": "ter.StopArea_OCE87673277", "stop_id": "ter.StopPoint_OCETrain_TER-87673277", "stop_timezone": null, "zone_id": null, "wheelchair_boarding": 2}, "geometry": {"type": "Point", "coordinates": [-1.3063851999999998, 43.657806]}}, {"type": "Feature", "properties": {"stop_name": "Gare de Labenne", "stop_code": null, "stop_url": null, "stop_desc": null, "location_type": 0, "parent_station": "ter.StopArea_OCE87673293", "stop_id": "ter.StopPoint_OCETrain_TER-87673293", "stop_timezone": null, "zone_id": null, "wheelchair_boarding": 2}, "geometry": {"type": "Point", "coordinates": [-1.4289253999999998, 43.587105]}}, {"type": "Feature", "properties": {"stop_name": "Gare de Hendaye", "stop_code": null, "stop_url": null, "stop_desc": null, "location_type": 0, "parent_station": "ter.StopArea_OCE87677005", "stop_id": "ter.StopPoint_OCETrain_TER-87677005", "stop_timezone": null, "zone_id": null, "wheelchair_boarding": 2}, "geometry": {"type": "Point", "coordinates": [-1.7818685, 43.352993]}}]}