{"type": "FeatureCollection", "features": [{"type": "Feature", "properties": {"route_id": "ter.OCE180687", "service_id": "ter.11957", "trip_id": "ter.OCESN035853R0300226522", "trip_headsign": "35853", "trip_short_name": "35853", "direction_id": 1, "wheelchair_accessible": 0, "shape_id": "shape_095"}, "geometry": {"type": "LineString", "coordinates": [[2.1386354, 43.922035], [1.8960919999999999, 43.904472], [1.8077447, 43.856228], [1.6810372, 43.775414000000005], [1.4535576000000001, 43.611465]]}}, {"type": "Feature", "properties": {"stop_name": "Gare de Albi-Ville", "stop_code": null, "stop_url": null, "stop_desc": null, "location_type": 0, "parent_station": "ter.StopArea_OCE87615005", "stop_id": "ter.StopPoint_OCECar_TER-87615005", "stop_timezone": null, "zone_id": null, "wheelchair_boarding": 2}, "geometry": {"type": "Point", "coordinates": [2.1386354, 43.922035]}}, {"type": "Feature", "properties": {"stop_name": "Gare de Lisle-sur-Tarn", "stop_code": null, "stop_url": null, "stop_desc": null, "location_type": 0, "parent_station": "ter.StopArea_OCE87615310", "stop_id": "ter.StopPoint_OCECar_TER-87615310", "stop_timezone": null, "zone_id": null, "wheelchair_boarding": 2}, "geometry": {"type": "Point", "coordinates": [1.8077447, 43.856228]}}, {"type": "Feature", "properties": {"stop_name": "Gare de St-Sulpice (Tarn)", "stop_code": null, "stop_url": null, "stop_desc": null, "location_type": 0, "parent_station": "ter.StopArea_OCE87615344", "stop_id": "ter.StopPoint_OCECar_TER-87615344", "stop_timezone": null, "zone_id": null, "wheelchair_boarding": 2}, "geometry": {"type": "Point", "coordinates": [1.6810372, 43.775414000000005]}}, {"type": "Feature", "properties": {"stop_name": "Gaillac-Gare-Routier", "stop_code": null, "stop_url": null, "stop_desc": null, "location_type": 0, "parent_station": "ter.StopArea_OCE87702951", "stop_id": "ter.StopPoint_OCECar_TER-87702951", "stop_timezone": null, "zone_id": null, "wheelchair_boarding": 2}, "geometry": {"type": "Point", "coordinates": [1.8960919999999999, 43.904472]}}, {"type": "Feature", "properties": {"stop_name": "Gare de Toulouse-Matabiau", "stop_code": null, "stop_url": null, "stop_desc": null, "location_type": 0, "parent_station": "ter.StopArea_OCE87611004", "stop_id": "ter.StopPoint_OCECar_TER-87611004", "stop_timezone": null, "zone_id": null, "wheelchair_boarding": 2}, "geometry": {"type": "Point", "coordinates": [1.4535576000000001, 43.611465]}}]}