{"type": "FeatureCollection", "features": [{"type": "Feature", "properties": {"route_id": "ter.OCE629108", "service_id": "ter.14986", "trip_id": "ter.OCESN866702F0100264979", "trip_headsign": "866702", "trip_short_name": "866702", "direction_id": 0, "wheelchair_accessible": 0, "shape_id": "shape_302"}, "geometry": {"type": "LineString", "coordinates": [[-0.25560984, 44.555443], [-0.34060246, 44.632153], [-0.35882917, 44.64901], [-0.42539385, 44.692833], [-0.45017704, 44.70104], [-0.504386, 44.715709999999994], [-0.55534065, 44.799778], [-0.55619407, 44.826538]]}}, {"type": "Feature", "properties": {"stop_name": "Gare de B\u00e8gles", "stop_code": null, "stop_url": null, "stop_desc": null, "location_type": 0, "parent_station": "ter.StopArea_OCE87581801", "stop_id": "ter.StopPoint_OCETrain_TER-87581801", "stop_timezone": null, "zone_id": null, "wheelchair_boarding": 2}, "geometry": {"type": "Point", "coordinates": [-0.55534065, 44.799778]}}, {"type": "Feature", "properties": {"stop_name": "Gare de Portets", "stop_code": null, "stop_url": null, "stop_desc": null, "location_type": 0, "parent_station": "ter.StopArea_OCE87582718", "stop_id": "ter.StopPoint_OCETrain_TER-87582718", "stop_timezone": null, "zone_id": null, "wheelchair_boarding": 2}, "geometry": {"type": "Point", "coordinates": [-0.42539385, 44.692833]}}, {"type": "Feature", "properties": {"stop_name": "Gare de Beautiran", "stop_code": null, "stop_url": null, "stop_desc": null, "location_type": 0, "parent_station": "ter.StopArea_OCE87582700", "stop_id": "ter.StopPoint_OCETrain_TER-87582700", "stop_timezone": null, "zone_id": null, "wheelchair_boarding": 2}, "geometry": {"type": "Point", "coordinates": [-0.45017704, 44.70104]}}, {"type": "Feature", "properties": {"stop_name": "Gare de C\u00e9rons", "stop_code": null, "stop_url": null, "stop_desc": null, "location_type": 0, "parent_station": "ter.StopArea_OCE87582742", "stop_id": "ter.StopPoint_OCETrain_TER-87582742", "stop_timezone": null, "zone_id": null, "wheelchair_boarding": 2}, "geometry": {"type": "Point", "coordinates": [-0.34060246, 44.632153]}}, {"type": "Feature", "properties": {"stop_name": "Gare de Podensac", "stop_code": null, "stop_url": null, "stop_desc": null, "location_type": 0, "parent_station": "ter.StopArea_OCE87582734", "stop_id": "ter.StopPoint_OCETrain_TER-87582734", "stop_timezone": null, "zone_id": null, "wheelchair_boarding": 2}, "geometry": {"type": "Point", "coordinates": [-0.35882917, 44.64901]}}, {"type": "Feature", "properties": {"stop_name": "Gare de Langon", "stop_code": null, "stop_url": null, "stop_desc": null, "location_type": 0, "parent_station": "ter.StopArea_OCE87582775", "stop_id": "ter.StopPoint_OCETrain_TER-87582775", "stop_timezone": null, "zone_id": null, "wheelchair_boarding": 2}, "geometry": {"type": "Point", "coordinates": [-0.25560984, 44.555443]}}, {"type": "Feature", "properties": {"stop_name": "Gare de Bordeaux-St-Jean", "stop_code": null, "stop_url": null, "stop_desc": null, "location_type": 0, "parent_station": "ter.StopArea_OCE87581009", "stop_id": "ter.StopPoint_OCETrain_TER-87581009", "stop_timezone": null, "zone_id": null, "wheelchair_boarding": 2}, "geometry": {"type": "Point", "coordinates": [-0.55619407, 44.826538]}}, {"type": "Feature", "properties": {"stop_name": "Gare de St-M\u00e9dard-d'Eyrans", "stop_code": null, "stop_url": null, "stop_desc": null, "location_type": 0, "parent_station": "ter.StopArea_OCE87582692", "stop_id": "ter.StopPoint_OCETrain_TER-87582692", "stop_timezone": null, "zone_id": null, "wheelchair_boarding": 2}, "geometry": {"type": "Point", "coordinates": [-0.504386, 44.715709999999994]}}]}