{"type": "FeatureCollection", "features": [{"type": "Feature", "properties": {"route_id": "ter.OCE629106", "service_id": "ter.177", "trip_id": "ter.OCESN865845F0100264697", "trip_headsign": "865845", "trip_short_name": "865845", "direction_id": 1, "wheelchair_accessible": 0, "shape_id": "shape_371"}, "geometry": {"type": "LineString", "coordinates": [[1.2674521, 45.836209999999994], [1.2050815000000001, 45.77832], [1.1784277, 45.691536], [1.1309166000000002, 45.633854], [1.026154, 45.607582], [0.9744252, 45.540714], [0.92134905, 45.418953], [0.8613556999999998, 45.34598], [0.74858844, 45.286682], [0.68844974, 45.244704999999996], [0.70718104, 45.187164], [0.8081272, 45.138187], [1.0082746999999999, 44.94127], [0.9428639999999999, 44.905772999999996], [0.90818334, 44.847225], [0.98422676, 44.819794], [1.0120142, 44.777363], [1.0492079, 44.626976], [1.0116796000000001, 44.589363], [0.9414589, 44.486397], [0.8031514, 44.37983], [0.62090456, 44.207972999999996]]}}, {"type": "Feature", "properties": {"stop_name": "Gare de Nexon", "stop_code": null, "stop_url": null, "stop_desc": null, "location_type": 0, "parent_station": "ter.StopArea_OCE87592725", "stop_id": "ter.StopPoint_OCETrain_TER-87592725", "stop_timezone": null, "zone_id": null, "wheelchair_boarding": 2}, "geometry": {"type": "Point", "coordinates": [1.1784277, 45.691536]}}, {"type": "Feature", "properties": {"stop_name": "Gare de Sauveterre-la-L\u00e9mance", "stop_code": null, "stop_url": null, "stop_desc": null, "location_type": 0, "parent_station": "ter.StopArea_OCE87586495", "stop_id": "ter.StopPoint_OCETrain_TER-87586495", "stop_timezone": null, "zone_id": null, "wheelchair_boarding": 2}, "geometry": {"type": "Point", "coordinates": [1.0116796000000001, 44.589363]}}, {"type": "Feature", "properties": {"stop_name": "Gare de Bussi\u00e8re-Galant", "stop_code": null, "stop_url": null, "stop_desc": null, "location_type": 0, "parent_station": "ter.StopArea_OCE87592741", "stop_id": "ter.StopPoint_OCETrain_TER-87592741", "stop_timezone": null, "zone_id": null, "wheelchair_boarding": 2}, "geometry": {"type": "Point", "coordinates": [1.026154, 45.607582]}}, {"type": "Feature", "properties": {"stop_name": "Gare de La Coquille", "stop_code": null, "stop_url": null, "stop_desc": null, "location_type": 0, "parent_station": "ter.StopArea_OCE87592501", "stop_id": "ter.StopPoint_OCETrain_TER-87592501", "stop_timezone": null, "zone_id": null, "wheelchair_boarding": 2}, "geometry": {"type": "Point", "coordinates": [0.9744252, 45.540714]}}, {"type": "Feature", "properties": {"stop_name": "Gare de Lafarge", "stop_code": null, "stop_url": null, "stop_desc": null, "location_type": 0, "parent_station": "ter.StopArea_OCE87592733", "stop_id": "ter.StopPoint_OCETrain_TER-87592733", "stop_timezone": null, "zone_id": null, "wheelchair_boarding": 2}, "geometry": {"type": "Point", "coordinates": [1.1309166000000002, 45.633854]}}, {"type": "Feature", "properties": {"stop_name": "Gare de Belv\u00e8s", "stop_code": null, "stop_url": null, "stop_desc": null, "location_type": 0, "parent_station": "ter.StopArea_OCE87595876", "stop_id": "ter.StopPoint_OCETrain_TER-87595876", "stop_timezone": null, "zone_id": null, "wheelchair_boarding": 2}, "geometry": {"type": "Point", "coordinates": [1.0120142, 44.777363]}}, {"type": "Feature", "properties": {"stop_name": "Gare de Villefranche-P\u00e9rigord", "stop_code": null, "stop_url": null, "stop_desc": null, "location_type": 0, "parent_station": "ter.StopArea_OCE87595892", "stop_id": "ter.StopPoint_OCETrain_TER-87595892", "stop_timezone": null, "zone_id": null, "wheelchair_boarding": 2}, "geometry": {"type": "Point", "coordinates": [1.0492079, 44.626976]}}, {"type": "Feature", "properties": {"stop_name": "Gare de P\u00e9rigueux", "stop_code": null, "stop_url": null, "stop_desc": null, "location_type": 0, "parent_station": "ter.StopArea_OCE87595009", "stop_id": "ter.StopPoint_OCETrain_TER-87595009", "stop_timezone": null, "zone_id": null, "wheelchair_boarding": 2}, "geometry": {"type": "Point", "coordinates": [0.70718104, 45.187164]}}, {"type": "Feature", "properties": {"stop_name": "Gare de L'Aiguille", "stop_code": null, "stop_url": null, "stop_desc": null, "location_type": 0, "parent_station": "ter.StopArea_OCE87592634", "stop_id": "ter.StopPoint_OCETrain_TER-87592634", "stop_timezone": null, "zone_id": null, "wheelchair_boarding": 2}, "geometry": {"type": "Point", "coordinates": [1.2050815000000001, 45.77832]}}, {"type": "Feature", "properties": {"stop_name": "Gare de Niversac", "stop_code": null, "stop_url": null, "stop_desc": null, "location_type": 0, "parent_station": "ter.StopArea_OCE87595512", "stop_id": "ter.StopPoint_OCETrain_TER-87595512", "stop_timezone": null, "zone_id": null, "wheelchair_boarding": 2}, "geometry": {"type": "Point", "coordinates": [0.8081272, 45.138187]}}, {"type": "Feature", "properties": {"stop_name": "Gare de Limoges-B\u00e9n\u00e9dictins", "stop_code": null, "stop_url": null, "stop_desc": null, "location_type": 0, "parent_station": "ter.StopArea_OCE87592006", "stop_id": "ter.StopPoint_OCETrain_TER-87592006", "stop_timezone": null, "zone_id": null, "wheelchair_boarding": 2}, "geometry": {"type": "Point", "coordinates": [1.2674521, 45.836209999999994]}}, {"type": "Feature", "properties": {"stop_name": "Gare de Le Buisson", "stop_code": null, "stop_url": null, "stop_desc": null, "location_type": 0, "parent_station": "ter.StopArea_OCE87595751", "stop_id": "ter.StopPoint_OCETrain_TER-87595751", "stop_timezone": null, "zone_id": null, "wheelchair_boarding": 2}, "geometry": {"type": "Point", "coordinates": [0.90818334, 44.847225]}}, {"type": "Feature", "properties": {"stop_name": "Gare de Le Bugue", "stop_code": null, "stop_url": null, "stop_desc": null, "location_type": 0, "parent_station": "ter.StopArea_OCE87595744", "stop_id": "ter.StopPoint_OCETrain_TER-87595744", "stop_timezone": null, "zone_id": null, "wheelchair_boarding": 2}, "geometry": {"type": "Point", "coordinates": [0.9428639999999999, 44.905772999999996]}}, {"type": "Feature", "properties": {"stop_name": "Gare de Les Eyzies", "stop_code": null, "stop_url": null, "stop_desc": null, "location_type": 0, "parent_station": "ter.StopArea_OCE87595736", "stop_id": "ter.StopPoint_OCETrain_TER-87595736", "stop_timezone": null, "zone_id": null, "wheelchair_boarding": 2}, "geometry": {"type": "Point", "coordinates": [1.0082746999999999, 44.94127]}}, {"type": "Feature", "properties": {"stop_name": "Gare de Siorac-en-P\u00e9rigord", "stop_code": null, "stop_url": null, "stop_desc": null, "location_type": 0, "parent_station": "ter.StopArea_OCE87595769", "stop_id": "ter.StopPoint_OCETrain_TER-87595769", "stop_timezone": null, "zone_id": null, "wheelchair_boarding": 2}, "geometry": {"type": "Point", "coordinates": [0.98422676, 44.819794]}}, {"type": "Feature", "properties": {"stop_name": "Gare de Agonac", "stop_code": null, "stop_url": null, "stop_desc": null, "location_type": 0, "parent_station": "ter.StopArea_OCE87595157", "stop_id": "ter.StopPoint_OCETrain_TER-87595157", "stop_timezone": null, "zone_id": null, "wheelchair_boarding": 2}, "geometry": {"type": "Point", "coordinates": [0.74858844, 45.286682]}}, {"type": "Feature", "properties": {"stop_name": "Gare de Penne (Lot-et-Garonne)", "stop_code": null, "stop_url": null, "stop_desc": null, "location_type": 0, "parent_station": "ter.StopArea_OCE87586438", "stop_id": "ter.StopPoint_OCETrain_TER-87586438", "stop_timezone": null, "zone_id": null, "wheelchair_boarding": 2}, "geometry": {"type": "Point", "coordinates": [0.8031514, 44.37983]}}, {"type": "Feature", "properties": {"stop_name": "Gare de N\u00e9grondes", "stop_code": null, "stop_url": null, "stop_desc": null, "location_type": 0, "parent_station": "ter.StopArea_OCE87595132", "stop_id": "ter.StopPoint_OCETrain_TER-87595132", "stop_timezone": null, "zone_id": null, "wheelchair_boarding": 2}, "geometry": {"type": "Point", "coordinates": [0.8613556999999998, 45.34598]}}, {"type": "Feature", "properties": {"stop_name": "Gare de Thiviers", "stop_code": null, "stop_url": null, "stop_desc": null, "location_type": 0, "parent_station": "ter.StopArea_OCE87595124", "stop_id": "ter.StopPoint_OCETrain_TER-87595124", "stop_timezone": null, "zone_id": null, "wheelchair_boarding": 2}, "geometry": {"type": "Point", "coordinates": [0.92134905, 45.418953]}}, {"type": "Feature", "properties": {"stop_name": "Gare de Agen", "stop_code": null, "stop_url": null, "stop_desc": null, "location_type": 0, "parent_station": "ter.StopArea_OCE87586008", "stop_id": "ter.StopPoint_OCETrain_TER-87586008", "stop_timezone": null, "zone_id": null, "wheelchair_boarding": 2}, "geometry": {"type": "Point", "coordinates": [0.62090456, 44.207972999999996]}}, {"type": "Feature", "properties": {"stop_name": "Gare de Monsempron-Libos", "stop_code": null, "stop_url": null, "stop_desc": null, "location_type": 0, "parent_station": "ter.StopArea_OCE87586453", "stop_id": "ter.StopPoint_OCETrain_TER-87586453", "stop_timezone": null, "zone_id": null, "wheelchair_boarding": 2}, "geometry": {"type": "Point", "coordinates": [0.9414589, 44.486397]}}, {"type": "Feature", "properties": {"stop_name": "Gare de Ch\u00e2teau-l'Ev\u00eaque", "stop_code": null, "stop_url": null, "stop_desc": null, "location_type": 0, "parent_station": "ter.StopArea_OCE87595165", "stop_id": "ter.StopPoint_OCETrain_TER-87595165", "stop_timezone": null, "zone_id": null, "wheelchair_boarding": 2}, "geometry": {"type": "Point", "coordinates": [0.68844974, 45.244704999999996]}}]}