{"type": "FeatureCollection", "features": [{"type": "Feature", "properties": {"route_id": "ter.OCE99", "service_id": "ter.939", "trip_id": "ter.OCESN863713F0100164195", "trip_headsign": "863713", "trip_short_name": "863713", "direction_id": 1, "wheelchair_accessible": 0, "shape_id": "shape_205"}, "geometry": {"type": "LineString", "coordinates": [[0.6935051, 47.389812], [0.46007785, 47.34479], [0.41032553, 47.323944], [0.15486884, 47.248528], [-0.07142992, 47.26897], [-0.1480413, 47.125324], [-0.21051347, 46.98525]]}}, {"type": "Feature", "properties": {"stop_name": "Gare de Langeais", "stop_code": null, "stop_url": null, "stop_desc": null, "location_type": 0, "parent_station": "ter.StopArea_OCE87571828", "stop_id": "ter.StopPoint_OCETrain_TER-87571828", "stop_timezone": null, "zone_id": null, "wheelchair_boarding": 2}, "geometry": {"type": "Point", "coordinates": [0.41032553, 47.323944]}}, {"type": "Feature", "properties": {"stop_name": "Gare de Cinq-Mars", "stop_code": null, "stop_url": null, "stop_desc": null, "location_type": 0, "parent_station": "ter.StopArea_OCE87571836", "stop_id": "ter.StopPoint_OCETrain_TER-87571836", "stop_timezone": null, "zone_id": null, "wheelchair_boarding": 2}, "geometry": {"type": "Point", "coordinates": [0.46007785, 47.34479]}}, {"type": "Feature", "properties": {"stop_name": "Gare de Tours", "stop_code": null, "stop_url": null, "stop_desc": null, "location_type": 0, "parent_station": "ter.StopArea_OCE87571000", "stop_id": "ter.StopPoint_OCETrain_TER-87571000", "stop_timezone": null, "zone_id": null, "wheelchair_boarding": 2}, "geometry": {"type": "Point", "coordinates": [0.6935051, 47.389812]}}, {"type": "Feature", "properties": {"stop_name": "Gare de Montreuil-Bellay", "stop_code": null, "stop_url": null, "stop_desc": null, "location_type": 0, "parent_station": "ter.StopArea_OCE87487637", "stop_id": "ter.StopPoint_OCETrain_TER-87487637", "stop_timezone": null, "zone_id": null, "wheelchair_boarding": 2}, "geometry": {"type": "Point", "coordinates": [-0.1480413, 47.125324]}}, {"type": "Feature", "properties": {"stop_name": "Gare de Saumur", "stop_code": null, "stop_url": null, "stop_desc": null, "location_type": 0, "parent_station": "ter.StopArea_OCE87487603", "stop_id": "ter.StopPoint_OCETrain_TER-87487603", "stop_timezone": null, "zone_id": null, "wheelchair_boarding": 2}, "geometry": {"type": "Point", "coordinates": [-0.07142992, 47.26897]}}, {"type": "Feature", "properties": {"stop_name": "Gare de Thouars", "stop_code": null, "stop_url": null, "stop_desc": null, "location_type": 0, "parent_station": "ter.StopArea_OCE87487009", "stop_id": "ter.StopPoint_OCETrain_TER-87487009", "stop_timezone": null, "zone_id": null, "wheelchair_boarding": 2}, "geometry": {"type": "Point", "coordinates": [-0.21051347, 46.98525]}}, {"type": "Feature", "properties": {"stop_name": "Gare de Port-Boulet", "stop_code": null, "stop_url": null, "stop_desc": null, "location_type": 0, "parent_station": "ter.StopArea_OCE87571794", "stop_id": "ter.StopPoint_OCETrain_TER-87571794", "stop_timezone": null, "zone_id": null, "wheelchair_boarding": 2}, "geometry": {"type": "Point", "coordinates": [0.15486884, 47.248528]}}]}