{"type": "FeatureCollection", "features": [{"type": "Feature", "properties": {"route_id": "ter.OCE80", "service_id": "ter.14837", "trip_id": "ter.OCESN863442F0200264165", "trip_headsign": "863442", "trip_short_name": "863442", "direction_id": 0, "wheelchair_accessible": 0, "shape_id": "shape_173"}, "geometry": {"type": "LineString", "coordinates": [[-0.45439056, 46.319344], [-0.2962778, 46.360424], [-0.20130625, 46.406307], [-0.12987266, 46.380924], [-0.05197593, 46.399807], [0.04185891, 46.4188], [0.11575616, 46.435], [0.33308432, 46.582184000000005]]}}, {"type": "Feature", "properties": {"stop_name": "Gare de Niort", "stop_code": null, "stop_url": null, "stop_desc": null, "location_type": 0, "parent_station": "ter.StopArea_OCE87485300", "stop_id": "ter.StopPoint_OCETrain_TER-87485300", "stop_timezone": null, "zone_id": null, "wheelchair_boarding": 2}, "geometry": {"type": "Point", "coordinates": [-0.45439056, 46.319344]}}, {"type": "Feature", "properties": {"stop_name": "Gare de Lusignan", "stop_code": null, "stop_url": null, "stop_desc": null, "location_type": 0, "parent_station": "ter.StopArea_OCE87485540", "stop_id": "ter.StopPoint_OCETrain_TER-87485540", "stop_timezone": null, "zone_id": null, "wheelchair_boarding": 2}, "geometry": {"type": "Point", "coordinates": [0.11575616, 46.435]}}, {"type": "Feature", "properties": {"stop_name": "Gare de Rouill\u00e9", "stop_code": null, "stop_url": null, "stop_desc": null, "location_type": 0, "parent_station": "ter.StopArea_OCE87485532", "stop_id": "ter.StopPoint_OCETrain_TER-87485532", "stop_timezone": null, "zone_id": null, "wheelchair_boarding": 2}, "geometry": {"type": "Point", "coordinates": [0.04185891, 46.4188]}}, {"type": "Feature", "properties": {"stop_name": "Gare de La Mothe-St-H\u00e9ray", "stop_code": null, "stop_url": null, "stop_desc": null, "location_type": 0, "parent_station": "ter.StopArea_OCE87485508", "stop_id": "ter.StopPoint_OCETrain_TER-87485508", "stop_timezone": null, "zone_id": null, "wheelchair_boarding": 2}, "geometry": {"type": "Point", "coordinates": [-0.12987266, 46.380924]}}, {"type": "Feature", "properties": {"stop_name": "Gare de Pamproux", "stop_code": null, "stop_url": null, "stop_desc": null, "location_type": 0, "parent_station": "ter.StopArea_OCE87485524", "stop_id": "ter.StopPoint_OCETrain_TER-87485524", "stop_timezone": null, "zone_id": null, "wheelchair_boarding": 2}, "geometry": {"type": "Point", "coordinates": [-0.05197593, 46.399807]}}, {"type": "Feature", "properties": {"stop_name": "Gare de Poitiers", "stop_code": null, "stop_url": null, "stop_desc": null, "location_type": 0, "parent_station": "ter.StopArea_OCE87575001", "stop_id": "ter.StopPoint_OCETrain_TER-87575001", "stop_timezone": null, "zone_id": null, "wheelchair_boarding": 2}, "geometry": {"type": "Point", "coordinates": [0.33308432, 46.582184000000005]}}, {"type": "Feature", "properties": {"stop_name": "Gare de La Cr\u00e8che", "stop_code": null, "stop_url": null, "stop_desc": null, "location_type": 0, "parent_station": "ter.StopArea_OCE87485474", "stop_id": "ter.StopPoint_OCETrain_TER-87485474", "stop_timezone": null, "zone_id": null, "wheelchair_boarding": 2}, "geometry": {"type": "Point", "coordinates": [-0.2962778, 46.360424]}}, {"type": "Feature", "properties": {"stop_name": "Gare de St-Maixent (Deux-S\u00e8vr.)", "stop_code": null, "stop_url": null, "stop_desc": null, "location_type": 0, "parent_station": "ter.StopArea_OCE87485490", "stop_id": "ter.StopPoint_OCETrain_TER-87485490", "stop_timezone": null, "zone_id": null, "wheelchair_boarding": 2}, "geometry": {"type": "Point", "coordinates": [-0.20130625, 46.406307]}}]}