{"type": "FeatureCollection", "features": [{"type": "Feature", "properties": {"route_id": "ter.OCESN-87673004-87673723", "service_id": "ter.13430", "trip_id": "ter.OCESN404307R0100148039", "trip_headsign": "404307", "trip_short_name": "404307", "direction_id": 1, "wheelchair_accessible": 0, "shape_id": "shape_115"}, "geometry": {"type": "LineString", "coordinates": [[-1.4703981000000002, 43.496758], [-1.4490633999999998, 43.404720000000005], [-1.3967065, 43.365543], [-1.3451412, 43.268097], [-1.3049896, 43.23515], [-1.2388357, 43.168079999999996]]}}, {"type": "Feature", "properties": {"stop_name": "Gare de Ustaritz", "stop_code": null, "stop_url": null, "stop_desc": null, "location_type": 0, "parent_station": "ter.StopArea_OCE87673624", "stop_id": "ter.StopPoint_OCECar_TER-87673624", "stop_timezone": null, "zone_id": null, "wheelchair_boarding": 2}, "geometry": {"type": "Point", "coordinates": [-1.4490633999999998, 43.404720000000005]}}, {"type": "Feature", "properties": {"stop_name": "Gare de Bidarray-Pont-Noblia", "stop_code": null, "stop_url": null, "stop_desc": null, "location_type": 0, "parent_station": "ter.StopArea_OCE87673699", "stop_id": "ter.StopPoint_OCECar_TER-87673699", "stop_timezone": null, "zone_id": null, "wheelchair_boarding": 2}, "geometry": {"type": "Point", "coordinates": [-1.3451412, 43.268097]}}, {"type": "Feature", "properties": {"stop_name": "Gare de Cambo-les-Bains", "stop_code": null, "stop_url": null, "stop_desc": null, "location_type": 0, "parent_station": "ter.StopArea_OCE87673657", "stop_id": "ter.StopPoint_OCECar_TER-87673657", "stop_timezone": null, "zone_id": null, "wheelchair_boarding": 2}, "geometry": {"type": "Point", "coordinates": [-1.3967065, 43.365543]}}, {"type": "Feature", "properties": {"stop_name": "Gare de Bayonne", "stop_code": null, "stop_url": null, "stop_desc": null, "location_type": 0, "parent_station": "ter.StopArea_OCE87673004", "stop_id": "ter.StopPoint_OCECar_TER-87673004", "stop_timezone": null, "zone_id": null, "wheelchair_boarding": 2}, "geometry": {"type": "Point", "coordinates": [-1.4703981000000002, 43.496758]}}, {"type": "Feature", "properties": {"stop_name": "Gare de St-Jean-Pied-de-Port", "stop_code": null, "stop_url": null, "stop_desc": null, "location_type": 0, "parent_station": "ter.StopArea_OCE87673723", "stop_id": "ter.StopPoint_OCECar_TER-87673723", "stop_timezone": null, "zone_id": null, "wheelchair_boarding": 2}, "geometry": {"type": "Point", "coordinates": [-1.2388357, 43.168079999999996]}}, {"type": "Feature", "properties": {"stop_name": "Gare de Oss\u00e8s-St-Mart-d'Arrossa", "stop_code": null, "stop_url": null, "stop_desc": null, "location_type": 0, "parent_station": "ter.StopArea_OCE87673707", "stop_id": "ter.StopPoint_OCECar_TER-87673707", "stop_timezone": null, "zone_id": null, "wheelchair_boarding": 2}, "geometry": {"type": "Point", "coordinates": [-1.3049896, 43.23515]}}]}