{"type": "FeatureCollection", "features": [{"type": "Feature", "properties": {"route_id": "ter.OCE80", "service_id": "ter.11311", "trip_id": "ter.OCESN863466F0200264191", "trip_headsign": "863466", "trip_short_name": "863466", "direction_id": 0, "wheelchair_accessible": 0, "shape_id": "shape_157"}, "geometry": {"type": "LineString", "coordinates": [[-1.1453004, 46.152702000000005], [-1.0236846, 46.120625], [-0.95126826, 46.09349], [-0.762133, 46.113415], [-0.67359734, 46.199688], [-0.45439056, 46.319344]]}}, {"type": "Feature", "properties": {"stop_name": "Gare de Niort", "stop_code": null, "stop_url": null, "stop_desc": null, "location_type": 0, "parent_station": "ter.StopArea_OCE87485300", "stop_id": "ter.StopPoint_OCETrain_TER-87485300", "stop_timezone": null, "zone_id": null, "wheelchair_boarding": 2}, "geometry": {"type": "Point", "coordinates": [-0.45439056, 46.319344]}}, {"type": "Feature", "properties": {"stop_name": "Gare de La-Jarrie", "stop_code": null, "stop_url": null, "stop_desc": null, "location_type": 0, "parent_station": "ter.StopArea_OCE87485185", "stop_id": "ter.StopPoint_OCETrain_TER-87485185", "stop_timezone": null, "zone_id": null, "wheelchair_boarding": 2}, "geometry": {"type": "Point", "coordinates": [-1.0236846, 46.120625]}}, {"type": "Feature", "properties": {"stop_name": "Gare de Aigrefeuille-le-Thou", "stop_code": null, "stop_url": null, "stop_desc": null, "location_type": 0, "parent_station": "ter.StopArea_OCE87485193", "stop_id": "ter.StopPoint_OCETrain_TER-87485193", "stop_timezone": null, "zone_id": null, "wheelchair_boarding": 2}, "geometry": {"type": "Point", "coordinates": [-0.95126826, 46.09349]}}, {"type": "Feature", "properties": {"stop_name": "Gare de Surg\u00e8res", "stop_code": null, "stop_url": null, "stop_desc": null, "location_type": 0, "parent_station": "ter.StopArea_OCE87485227", "stop_id": "ter.StopPoint_OCETrain_TER-87485227", "stop_timezone": null, "zone_id": null, "wheelchair_boarding": 2}, "geometry": {"type": "Point", "coordinates": [-0.762133, 46.113415]}}, {"type": "Feature", "properties": {"stop_name": "Gare de La Rochelle-Ville", "stop_code": null, "stop_url": null, "stop_desc": null, "location_type": 0, "parent_station": "ter.StopArea_OCE87485003", "stop_id": "ter.StopPoint_OCETrain_TER-87485003", "stop_timezone": null, "zone_id": null, "wheelchair_boarding": 2}, "geometry": {"type": "Point", "coordinates": [-1.1453004, 46.152702000000005]}}, {"type": "Feature", "properties": {"stop_name": "Gare de Mauz\u00e9", "stop_code": null, "stop_url": null, "stop_desc": null, "location_type": 0, "parent_station": "ter.StopArea_OCE87485250", "stop_id": "ter.StopPoint_OCETrain_TER-87485250", "stop_timezone": null, "zone_id": null, "wheelchair_boarding": 2}, "geometry": {"type": "Point", "coordinates": [-0.67359734, 46.199688]}}]}