{"type": "FeatureCollection", "features": [{"type": "Feature", "properties": {"route_id": "ter.OCESN-87673004-87672006", "service_id": "ter.15028", "trip_id": "ter.OCESN867006F0100165120", "trip_headsign": "867006", "trip_short_name": "867006", "direction_id": 0, "wheelchair_accessible": 0, "shape_id": "shape_604"}, "geometry": {"type": "LineString", "coordinates": [[-1.4703981000000002, 43.496758], [-1.3004588, 43.49925], [-1.1157913000000002, 43.546772], [-0.9108603999999999, 43.52448], [-0.7676248999999999, 43.4841], [-0.5701236, 43.3932], [-0.36964959999999997, 43.291668]]}}, {"type": "Feature", "properties": {"stop_name": "Gare de Peyrehorade", "stop_code": null, "stop_url": null, "stop_desc": null, "location_type": 0, "parent_station": "ter.StopArea_OCE87672337", "stop_id": "ter.StopPoint_OCETrain_TER-87672337", "stop_timezone": null, "zone_id": null, "wheelchair_boarding": 2}, "geometry": {"type": "Point", "coordinates": [-1.1157913000000002, 43.546772]}}, {"type": "Feature", "properties": {"stop_name": "Gare de Urt", "stop_code": null, "stop_url": null, "stop_desc": null, "location_type": 0, "parent_station": "ter.StopArea_OCE87672386", "stop_id": "ter.StopPoint_OCETrain_TER-87672386", "stop_timezone": null, "zone_id": null, "wheelchair_boarding": 2}, "geometry": {"type": "Point", "coordinates": [-1.3004588, 43.49925]}}, {"type": "Feature", "properties": {"stop_name": "Gare de Bayonne", "stop_code": null, "stop_url": null, "stop_desc": null, "location_type": 0, "parent_station": "ter.StopArea_OCE87673004", "stop_id": "ter.StopPoint_OCETrain_TER-87673004", "stop_timezone": null, "zone_id": null, "wheelchair_boarding": 2}, "geometry": {"type": "Point", "coordinates": [-1.4703981000000002, 43.496758]}}, {"type": "Feature", "properties": {"stop_name": "Gare de Artix", "stop_code": null, "stop_url": null, "stop_desc": null, "location_type": 0, "parent_station": "ter.StopArea_OCE87672212", "stop_id": "ter.StopPoint_OCETrain_TER-87672212", "stop_timezone": null, "zone_id": null, "wheelchair_boarding": 2}, "geometry": {"type": "Point", "coordinates": [-0.5701236, 43.3932]}}, {"type": "Feature", "properties": {"stop_name": "Gare de Pau", "stop_code": null, "stop_url": null, "stop_desc": null, "location_type": 0, "parent_station": "ter.StopArea_OCE87672006", "stop_id": "ter.StopPoint_OCETrain_TER-87672006", "stop_timezone": null, "zone_id": null, "wheelchair_boarding": 2}, "geometry": {"type": "Point", "coordinates": [-0.36964959999999997, 43.291668]}}, {"type": "Feature", "properties": {"stop_name": "Gare de Orthez", "stop_code": null, "stop_url": null, "stop_desc": null, "location_type": 0, "parent_station": "ter.StopArea_OCE87672253", "stop_id": "ter.StopPoint_OCETrain_TER-87672253", "stop_timezone": null, "zone_id": null, "wheelchair_boarding": 2}, "geometry": {"type": "Point", "coordinates": [-0.7676248999999999, 43.4841]}}, {"type": "Feature", "properties": {"stop_name": "Gare de Puyo\u00f4", "stop_code": null, "stop_url": null, "stop_desc": null, "location_type": 0, "parent_station": "ter.StopArea_OCE87672279", "stop_id": "ter.StopPoint_OCETrain_TER-87672279", "stop_timezone": null, "zone_id": null, "wheelchair_boarding": 2}, "geometry": {"type": "Point", "coordinates": [-0.9108603999999999, 43.52448]}}]}