{"type": "FeatureCollection", "features": [{"type": "Feature", "properties": {"route_id": "ter.OCE629107", "service_id": "ter.15052", "trip_id": "ter.OCESN867310F0100265181", "trip_headsign": "867310", "trip_short_name": "867310", "direction_id": 0, "wheelchair_accessible": 0, "shape_id": "shape_618"}, "geometry": {"type": "LineString", "coordinates": [[-1.2388357, 43.168079999999996], [-1.3049896, 43.23515], [-1.3451412, 43.268097], [-1.3967065, 43.365543], [-1.4490633999999998, 43.404720000000005], [-1.4703981000000002, 43.496758]]}}, {"type": "Feature", "properties": {"stop_name": "Gare de Ustaritz", "stop_code": null, "stop_url": null, "stop_desc": null, "location_type": 0, "parent_station": "ter.StopArea_OCE87673624", "stop_id": "ter.StopPoint_OCETrain_TER-87673624", "stop_timezone": null, "zone_id": null, "wheelchair_boarding": 2}, "geometry": {"type": "Point", "coordinates": [-1.4490633999999998, 43.404720000000005]}}, {"type": "Feature", "properties": {"stop_name": "Gare de Cambo-les-Bains", "stop_code": null, "stop_url": null, "stop_desc": null, "location_type": 0, "parent_station": "ter.StopArea_OCE87673657", "stop_id": "ter.StopPoint_OCETrain_TER-87673657", "stop_timezone": null, "zone_id": null, "wheelchair_boarding": 2}, "geometry": {"type": "Point", "coordinates": [-1.3967065, 43.365543]}}, {"type": "Feature", "properties": {"stop_name": "Gare de Bidarray-Pont-Noblia", "stop_code": null, "stop_url": null, "stop_desc": null, "location_type": 0, "parent_station": "ter.StopArea_OCE87673699", "stop_id": "ter.StopPoint_OCETrain_TER-87673699", "stop_timezone": null, "zone_id": null, "wheelchair_boarding": 2}, "geometry": {"type": "Point", "coordinates": [-1.3451412, 43.268097]}}, {"type": "Feature", "properties": {"stop_name": "Gare de Bayonne", "stop_code": null, "stop_url": null, "stop_desc": null, "location_type": 0, "parent_station": "ter.StopArea_OCE87673004", "stop_id": "ter.StopPoint_OCETrain_TER-87673004", "stop_timezone": null, "zone_id": null, "wheelchair_boarding": 2}, "geometry": {"type": "Point", "coordinates": [-1.4703981000000002, 43.496758]}}, {"type": "Feature", "properties": {"stop_name": "Gare de Oss\u00e8s-St-Mart-d'Arrossa", "stop_code": null, "stop_url": null, "stop_desc": null, "location_type": 0, "parent_station": "ter.StopArea_OCE87673707", "stop_id": "ter.StopPoint_OCETrain_TER-87673707", "stop_timezone": null, "zone_id": null, "wheelchair_boarding": 2}, "geometry": {"type": "Point", "coordinates": [-1.3049896, 43.23515]}}, {"type": "Feature", "properties": {"stop_name": "Gare de St-Jean-Pied-de-Port", "stop_code": null, "stop_url": null, "stop_desc": null, "location_type": 0, "parent_station": "ter.StopArea_OCE87673723", "stop_id": "ter.StopPoint_OCETrain_TER-87673723", "stop_timezone": null, "zone_id": null, "wheelchair_boarding": 2}, "geometry": {"type": "Point", "coordinates": [-1.2388357, 43.168079999999996]}}]}