{"type": "FeatureCollection", "features": [{"type": "Feature", "properties": {"route_id": "ter.OCE629116", "service_id": "ter.12614", "trip_id": "ter.OCESN867445F0100165211", "trip_headsign": "867445", "trip_short_name": "867445", "direction_id": 1, "wheelchair_accessible": 0, "shape_id": "shape_598"}, "geometry": {"type": "LineString", "coordinates": [[-0.36964959999999997, 43.291668], [-0.37914813, 43.28561], [-0.3914034, 43.234295], [-0.4558295, 43.148167], [-0.50764424, 43.15388], [-0.6122666999999999, 43.195009999999996]]}}, {"type": "Feature", "properties": {"stop_name": "Gare de Oloron-Ste-Marie", "stop_code": null, "stop_url": null, "stop_desc": null, "location_type": 0, "parent_station": "ter.StopArea_OCE87672725", "stop_id": "ter.StopPoint_OCETrain_TER-87672725", "stop_timezone": null, "zone_id": null, "wheelchair_boarding": 2}, "geometry": {"type": "Point", "coordinates": [-0.6122666999999999, 43.195009999999996]}}, {"type": "Feature", "properties": {"stop_name": "Gare de Ogeu-les-Bains", "stop_code": null, "stop_url": null, "stop_desc": null, "location_type": 0, "parent_station": "ter.StopArea_OCE87672709", "stop_id": "ter.StopPoint_OCETrain_TER-87672709", "stop_timezone": null, "zone_id": null, "wheelchair_boarding": 2}, "geometry": {"type": "Point", "coordinates": [-0.50764424, 43.15388]}}, {"type": "Feature", "properties": {"stop_name": "Gare de Croix-du-Prince", "stop_code": null, "stop_url": null, "stop_desc": null, "location_type": 0, "parent_station": "ter.StopArea_OCE87672600", "stop_id": "ter.StopPoint_OCETrain_TER-87672600", "stop_timezone": null, "zone_id": null, "wheelchair_boarding": 2}, "geometry": {"type": "Point", "coordinates": [-0.37914813, 43.28561]}}, {"type": "Feature", "properties": {"stop_name": "Gare de Gan", "stop_code": null, "stop_url": null, "stop_desc": null, "location_type": 0, "parent_station": "ter.StopArea_OCE87672618", "stop_id": "ter.StopPoint_OCETrain_TER-87672618", "stop_timezone": null, "zone_id": null, "wheelchair_boarding": 2}, "geometry": {"type": "Point", "coordinates": [-0.3914034, 43.234295]}}, {"type": "Feature", "properties": {"stop_name": "Gare de Buzy-en-B\u00e9arn", "stop_code": null, "stop_url": null, "stop_desc": null, "location_type": 0, "parent_station": "ter.StopArea_OCE87672634", "stop_id": "ter.StopPoint_OCETrain_TER-87672634", "stop_timezone": null, "zone_id": null, "wheelchair_boarding": 2}, "geometry": {"type": "Point", "coordinates": [-0.4558295, 43.148167]}}, {"type": "Feature", "properties": {"stop_name": "Gare de Pau", "stop_code": null, "stop_url": null, "stop_desc": null, "location_type": 0, "parent_station": "ter.StopArea_OCE87672006", "stop_id": "ter.StopPoint_OCETrain_TER-87672006", "stop_timezone": null, "zone_id": null, "wheelchair_boarding": 2}, "geometry": {"type": "Point", "coordinates": [-0.36964959999999997, 43.291668]}}]}