{"type": "FeatureCollection", "features": [{"type": "Feature", "properties": {"route_id": "ter.OCE180694", "service_id": "ter.11946", "trip_id": "ter.OCESN035651R0300426465", "trip_headsign": "35651", "trip_short_name": "35651", "direction_id": 1, "wheelchair_accessible": 0, "shape_id": "shape_066"}, "geometry": {"type": "LineString", "coordinates": [[1.2519869, 43.35621], [1.2125058000000002, 43.2982], [1.0827671, 43.212902], [1.0103043, 43.19855], [0.9727447, 43.179325], [0.7292628999999999, 43.104958]]}}, {"type": "Feature", "properties": {"stop_name": "Gare de Martres-Tolosane", "stop_code": null, "stop_url": null, "stop_desc": null, "location_type": 0, "parent_station": "ter.StopArea_OCE87611087", "stop_id": "ter.StopPoint_OCECar_TER-87611087", "stop_timezone": null, "zone_id": null, "wheelchair_boarding": 2}, "geometry": {"type": "Point", "coordinates": [1.0103043, 43.19855]}}, {"type": "Feature", "properties": {"stop_name": "Gare de Boussens", "stop_code": null, "stop_url": null, "stop_desc": null, "location_type": 0, "parent_station": "ter.StopArea_OCE87611095", "stop_id": "ter.StopPoint_OCECar_TER-87611095", "stop_timezone": null, "zone_id": null, "wheelchair_boarding": 2}, "geometry": {"type": "Point", "coordinates": [0.9727447, 43.179325]}}, {"type": "Feature", "properties": {"stop_name": "Gare de Carbonne", "stop_code": null, "stop_url": null, "stop_desc": null, "location_type": 0, "parent_station": "ter.StopArea_OCE87611061", "stop_id": "ter.StopPoint_OCECar_TER-87611061", "stop_timezone": null, "zone_id": null, "wheelchair_boarding": 2}, "geometry": {"type": "Point", "coordinates": [1.2125058000000002, 43.2982]}}, {"type": "Feature", "properties": {"stop_name": "Gare de Caz\u00e8res-sur-Garonne", "stop_code": null, "stop_url": null, "stop_desc": null, "location_type": 0, "parent_station": "ter.StopArea_OCE87611079", "stop_id": "ter.StopPoint_OCECar_TER-87611079", "stop_timezone": null, "zone_id": null, "wheelchair_boarding": 2}, "geometry": {"type": "Point", "coordinates": [1.0827671, 43.212902]}}, {"type": "Feature", "properties": {"stop_name": "Gare de St-Gaudens", "stop_code": null, "stop_url": null, "stop_desc": null, "location_type": 0, "parent_station": "ter.StopArea_OCE87611137", "stop_id": "ter.StopPoint_OCECar_TER-87611137", "stop_timezone": null, "zone_id": null, "wheelchair_boarding": 2}, "geometry": {"type": "Point", "coordinates": [0.7292628999999999, 43.104958]}}, {"type": "Feature", "properties": {"stop_name": "Gare de Longages-No\u00e9", "stop_code": null, "stop_url": null, "stop_desc": null, "location_type": 0, "parent_station": "ter.StopArea_OCE87611053", "stop_id": "ter.StopPoint_OCECar_TER-87611053", "stop_timezone": null, "zone_id": null, "wheelchair_boarding": 2}, "geometry": {"type": "Point", "coordinates": [1.2519869, 43.35621]}}]}